Date_Hour,Beat,BlockRange,StreetName,OffenseType,Premise,NumOffenses,Hour,day,weekday,month,year,block,address,tup_add
2016-04-28 13:00:00,1A10,900-999,FANNIN,Theft,mall common area,1,13,28,Thursday,Apr,2016,950,950 FANNIN,"[{'address_components': [{'long_name': '950', 'short_name': '950', 'types': ['street_number']}, {'long_name': 'Fannin Street', 'short_name': 'Fannin St', 'types': ['route']}, {'long_name': 'Downtown', 'short_name': 'Downtown', 'types': ['neighborhood', 'political']}, {'long_name': 'Houston', 'short_name': 'Houston', 'types': ['locality', 'political']}, {'long_name': 'Harris County', 'short_name': 'Harris County', 'types': ['administrative_area_level_2', 'political']}, {'long_name': 'Texas', 'short_name': 'TX', 'types': ['administrative_area_level_1', 'political']}, {'long_name': 'United States', 'short_name': 'US', 'types': ['country', 'political']}, {'long_name': '77002', 'short_name': '77002', 'types': ['postal_code']}], 'formatted_address': '950 Fannin St, Houston, TX 77002, USA', 'geometry': {'location': {'lat': 29.756771, 'lng': -95.3641224}, 'location_type': 'RANGE_INTERPOLATED', 'viewport': {'northeast': {'lat': 29.7581199802915, 'lng': -95.3627734197085}, 'southwest': {'lat': 29.7554220197085, 'lng': -95.36547138029151}}}, 'place_id': 'EiU5NTAgRmFubmluIFN0LCBIb3VzdG9uLCBUWCA3NzAwMiwgVVNBIhsSGQoUChIJG_yJQTu_QIYRLg2CF4tTwy0Qtgc', 'types': ['street_address']}]"
2016-04-28 18:00:00,1A10,1500-1599,CAROLINE,Theft,other parking lot,1,18,28,Thursday,Apr,2016,1550,1550 CAROLINE,"[{'address_components': [{'long_name': '1550', 'short_name': '1550', 'types': ['street_number']}, {'long_name': 'Caroline Street', 'short_name': 'Caroline St', 'types': ['route']}, {'long_name': 'Downtown', 'short_name': 'Downtown', 'types': ['neighborhood', 'political']}, {'long_name': 'Houston', 'short_name': 'Houston', 'types': ['locality', 'political']}, {'long_name': 'Harris County', 'short_name': 'Harris County', 'types': ['administrative_area_level_2', 'political']}, {'long_name': 'Texas', 'short_name': 'TX', 'types': ['administrative_area_level_1', 'political']}, {'long_name': 'United States', 'short_name': 'US', 'types': ['country', 'political']}, {'long_name': '77002', 'short_name': '77002', 'types': ['postal_code']}], 'formatted_address': '1550 Caroline St, Houston, TX 77002, USA', 'geometry': {'location': {'lat': 29.7513564, 'lng': -95.3658691}, 'location_type': 'RANGE_INTERPOLATED', 'viewport': {'northeast': {'lat': 29.75270538029149, 'lng': -95.36452011970849}, 'southwest': {'lat': 29.7500074197085, 'lng': -95.36721808029151}}}, 'place_id': 'EigxNTUwIENhcm9saW5lIFN0LCBIb3VzdG9uLCBUWCA3NzAwMiwgVVNBIhsSGQoUChIJUSifmD2_QIYR6XoouIV9y8AQjgw', 'types': ['street_address']}]"
2016-04-28 19:00:00,1A10,1400-1499,WALKER,Theft,commercial parking lot or garage,1,19,28,Thursday,Apr,2016,1450,1450 WALKER,"[{'address_components': [{'long_name': '1450', 'short_name': '1450', 'types': ['street_number']}, {'long_name': 'Walker Street', 'short_name': 'Walker St', 'types': ['route']}, {'long_name': 'Downtown', 'short_name': 'Downtown', 'types': ['neighborhood', 'political']}, {'long_name': 'Houston', 'short_name': 'Houston', 'types': ['locality', 'political']}, {'long_name': 'Harris County', 'short_name': 'Harris County', 'types': ['administrative_area_level_2', 'political']}, {'long_name': 'Texas', 'short_name': 'TX', 'types': ['administrative_area_level_1', 'political']}, {'long_name': 'United States', 'short_name': 'US', 'types': ['country', 'political']}, {'long_name': '77010', 'short_name': '77010', 'types': ['postal_code']}], 'formatted_address': '1450 Walker St, Houston, TX 77010, USA', 'geometry': {'location': {'lat': 29.7553546, 'lng': -95.36044609999999}, 'location_type': 'RANGE_INTERPOLATED', 'viewport': {'northeast': {'lat': 29.7567035802915, 'lng': -95.35909711970848}, 'southwest': {'lat': 29.7540056197085, 'lng': -95.3617950802915}}}, 'place_id': 'EiYxNDUwIFdhbGtlciBTdCwgSG91c3RvbiwgVFggNzcwMTAsIFVTQSIbEhkKFAoSCYH7Dnsjv0CGEX18oaSQ1jlUEKoL', 'types': ['street_address']}]"
2016-04-29 02:00:00,1A10,1200-1299,DALLAS,Theft,road/street/sidewalk,1,2,29,Friday,Apr,2016,1250,1250 DALLAS,"[{'address_components': [{'long_name': '1250', 'short_name': '1250', 'types': ['street_number']}, {'long_name': 'Dallas Street', 'short_name': 'Dallas St', 'types': ['route']}, {'long_name': 'Downtown', 'short_name': 'Downtown', 'types': ['neighborhood', 'political']}, {'long_name': 'Houston', 'short_name': 'Houston', 'types': ['locality', 'political']}, {'long_name': 'Harris County', 'short_name': 'Harris County', 'types': ['administrative_area_level_2', 'political']}, {'long_name': 'Texas', 'short_name': 'TX', 'types': ['administrative_area_level_1', 'political']}, {'long_name': 'United States', 'short_name': 'US', 'types': ['country', 'political']}, {'long_name': '77002', 'short_name': '77002', 'types': ['postal_code']}], 'formatted_address': '1250 Dallas St, Houston, TX 77002, USA', 'geometry': {'location': {'lat': 29.7541468, 'lng': -95.36392409999999}, 'location_type': 'RANGE_INTERPOLATED', 'viewport': {'northeast': {'lat': 29.7554957802915, 'lng': -95.36257511970848}, 'southwest': {'lat': 29.7527978197085, 'lng': -95.3652730802915}}}, 'place_id': 'EiYxMjUwIERhbGxhcyBTdCwgSG91c3RvbiwgVFggNzcwMDIsIFVTQSIbEhkKFAoSCU_nlOo8v0CGEYfEKHQD5A1UEOIJ', 'types': ['street_address']}]"
2016-04-29 19:00:00,1A10,1600-1699,AUSTIN,Aggravated Assault,residence/house,1,19,29,Friday,Apr,2016,1650,1650 AUSTIN,"[{'address_components': [{'long_name': '1650', 'short_name': '1650', 'types': ['street_number']}, {'long_name': 'Austin Street', 'short_name': 'Austin St', 'types': ['route']}, {'long_name': 'Downtown', 'short_name': 'Downtown', 'types': ['neighborhood', 'political']}, {'long_name': 'Houston', 'short_name': 'Houston', 'types': ['locality', 'political']}, {'long_name': 'Harris County', 'short_name': 'Harris County', 'types': ['administrative_area_level_2', 'political']}, {'long_name': 'Texas', 'short_name': 'TX', 'types': ['administrative_area_level_1', 'political']}, {'long_name': 'United States', 'short_name': 'US', 'types': ['country', 'political']}, {'long_name': '77002', 'short_name': '77002', 'types': ['postal_code']}], 'formatted_address': '1650 Austin St, Houston, TX 77002, USA', 'geometry': {'location': {'lat': 29.7498857, 'lng': -95.36576579999999}, 'location_type': 'RANGE_INTERPOLATED', 'viewport': {'northeast': {'lat': 29.7512346802915, 'lng': -95.36441681970848}, 'southwest': {'lat': 29.7485367197085, 'lng': -95.3671147802915}}}, 'place_id': 'EiYxNjUwIEF1c3RpbiBTdCwgSG91c3RvbiwgVFggNzcwMDIsIFVTQSIbEhkKFAoSCafdVoA9v0CGEWwqrgdNyam_EPIM', 'types': ['street_address']}]"
2016-04-30 03:00:00,1A10,300-399,SMITH,Theft,road/street/sidewalk,1,3,30,Saturday,Apr,2016,350,350 SMITH,"[{'address_components': [{'long_name': '350', 'short_name': '350', 'types': ['street_number']}, {'long_name': 'Smith Street', 'short_name': 'Smith St', 'types': ['route']}, {'long_name': 'Downtown', 'short_name': 'Downtown', 'types': ['neighborhood', 'political']}, {'long_name': 'Houston', 'short_name': 'Houston', 'types': ['locality', 'political']}, {'long_name': 'Harris County', 'short_name': 'Harris County', 'types': ['administrative_area_level_2', 'political']}, {'long_name': 'Texas', 'short_name': 'TX', 'types': ['administrative_area_level_1', 'political']}, {'long_name': 'United States', 'short_name': 'US', 'types': ['country', 'political']}, {'long_name': '77002', 'short_name': '77002', 'types': ['postal_code']}], 'formatted_address': '350 Smith St, Houston, TX 77002, USA', 'geometry': {'location': {'lat': 29.7641623, 'lng': -95.3654277}, 'location_type': 'RANGE_INTERPOLATED', 'viewport': {'northeast': {'lat': 29.7655112802915, 'lng': -95.3640787197085}, 'southwest': {'lat': 29.7628133197085, 'lng': -95.36677668029151}}}, 'place_id': 'EiQzNTAgU21pdGggU3QsIEhvdXN0b24sIFRYIDc3MDAyLCBVU0EiGxIZChQKEgkj6xFOML9AhhFDiApVD3rNJRDeAg', 'types': ['street_address']}]"
2016-04-30 11:00:00,1A10,1400-1499,NANCE,Theft,road/street/sidewalk,1,11,30,Saturday,Apr,2016,1450,1450 NANCE,"[{'address_components': [{'long_name': '1450', 'short_name': '1450', 'types': ['street_number']}, {'long_name': 'Nance Street', 'short_name': 'Nance St', 'types': ['route']}, {'long_name': 'Downtown', 'short_name': 'Downtown', 'types': ['neighborhood', 'political']}, {'long_name': 'Houston', 'short_name': 'Houston', 'types': ['locality', 'political']}, {'long_name': 'Harris County', 'short_name': 'Harris County', 'types': ['administrative_area_level_2', 'political']}, {'long_name': 'Texas', 'short_name': 'TX', 'types': ['administrative_area_level_1', 'political']}, {'long_name': 'United States', 'short_name': 'US', 'types': ['country', 'political']}, {'long_name': '77002', 'short_name': '77002', 'types': ['postal_code']}], 'formatted_address': '1450 Nance St, Houston, TX 77002, USA', 'geometry': {'location': {'lat': 29.7680708, 'lng': -95.35305489999999}, 'location_type': 'RANGE_INTERPOLATED', 'viewport': {'northeast': {'lat': 29.7694197802915, 'lng': -95.3517059197085}, 'southwest': {'lat': 29.7667218197085, 'lng': -95.3544038802915}}}, 'place_id': 'EiUxNDUwIE5hbmNlIFN0LCBIb3VzdG9uLCBUWCA3NzAwMiwgVVNBIhsSGQoUChIJjb5-GSq_QIYRIiARI3kJLJMQqgs', 'types': ['street_address']}]"
2016-04-30 11:00:00,1A10,800-899,POLK,Theft,miscellaneous business (non-specific),1,11,30,Saturday,Apr,2016,850,850 POLK,"[{'address_components': [{'long_name': '850', 'short_name': '850', 'types': ['street_number']}, {'long_name': 'Polk Street', 'short_name': 'Polk St', 'types': ['route']}, {'long_name': 'Downtown', 'short_name': 'Downtown', 'types': ['neighborhood', 'political']}, {'long_name': 'Houston', 'short_name': 'Houston', 'types': ['locality', 'political']}, {'long_name': 'Harris County', 'short_name': 'Harris County', 'types': ['administrative_area_level_2', 'political']}, {'long_name': 'Texas', 'short_name': 'TX', 'types': ['administrative_area_level_1', 'political']}, {'long_name': 'United States', 'short_name': 'US', 'types': ['country', 'political']}, {'long_name': '77002', 'short_name': '77002', 'types': ['postal_code']}], 'formatted_address': '850 Polk St, Houston, TX 77002, USA', 'geometry': {'location': {'lat': 29.7554856, 'lng': -95.36797899999999}, 'location_type': 'RANGE_INTERPOLATED', 'viewport': {'northeast': {'lat': 29.7568345802915, 'lng': -95.3666300197085}, 'southwest': {'lat': 29.7541366197085, 'lng': -95.3693279802915}}}, 'place_id': 'EiM4NTAgUG9sayBTdCwgSG91c3RvbiwgVFggNzcwMDIsIFVTQSIbEhkKFAoSCVVLPlM5v0CGEed78bx9Qd3EENIG', 'types': ['street_address']}]"
2016-04-30 17:00:00,1A10,400-499,BAGBY,Theft,restaurant or cafeteria,1,17,30,Saturday,Apr,2016,450,450 BAGBY,"[{'address_components': [{'long_name': '450', 'short_name': '450', 'types': ['street_number']}, {'long_name': 'Bagby Street', 'short_name': 'Bagby St', 'types': ['route']}, {'long_name': 'Downtown', 'short_name': 'Downtown', 'types': ['neighborhood', 'political']}, {'long_name': 'Houston', 'short_name': 'Houston', 'types': ['locality', 'political']}, {'long_name': 'Harris County', 'short_name': 'Harris County', 'types': ['administrative_area_level_2', 'political']}, {'long_name': 'Texas', 'short_name': 'TX', 'types': ['administrative_area_level_1', 'political']}, {'long_name': 'United States', 'short_name': 'US', 'types': ['country', 'political']}, {'long_name': '77002', 'short_name': '77002', 'types': ['postal_code']}], 'formatted_address': '450 Bagby St, Houston, TX 77002, USA', 'geometry': {'location': {'lat': 29.76408169999999, 'lng': -95.3669879}, 'location_type': 'RANGE_INTERPOLATED', 'viewport': {'northeast': {'lat': 29.76543068029149, 'lng': -95.36563891970849}, 'southwest': {'lat': 29.7627327197085, 'lng': -95.36833688029151}}}, 'place_id': 'EiQ0NTAgQmFnYnkgU3QsIEhvdXN0b24sIFRYIDc3MDAyLCBVU0EiGxIZChQKEgkXG-rZML9AhhEr8OJlwRyzvxDCAw', 'types': ['street_address']}]"
2016-04-30 20:00:00,1A10,500-599,RUSK,Robbery,commercial parking lot or garage,1,20,30,Saturday,Apr,2016,550,550 RUSK,"[{'address_components': [{'long_name': '550', 'short_name': '550', 'types': ['street_number']}, {'long_name': 'Rusk Street', 'short_name': 'Rusk St', 'types': ['route']}, {'long_name': 'Downtown', 'short_name': 'Downtown', 'types': ['neighborhood', 'political']}, {'long_name': 'Houston', 'short_name': 'Houston', 'types': ['locality', 'political']}, {'long_name': 'Harris County', 'short_name': 'Harris County', 'types': ['administrative_area_level_2', 'political']}, {'long_name': 'Texas', 'short_name': 'TX', 'types': ['administrative_area_level_1', 'political']}, {'long_name': 'United States', 'short_name': 'US', 'types': ['country', 'political']}, {'long_name': '77002', 'short_name': '77002', 'types': ['postal_code']}, {'long_name': '2667', 'short_name': '2667', 'types': ['postal_code_suffix']}], 'formatted_address': '550 Rusk St, Houston, TX 77002, USA', 'geometry': {'location': {'lat': 29.7605882, 'lng': -95.3676486}, 'location_type': 'RANGE_INTERPOLATED', 'viewport': {'northeast': {'lat': 29.7619371802915, 'lng': -95.36629961970849}, 'southwest': {'lat': 29.7592392197085, 'lng': -95.3689975802915}}}, 'place_id': 'EiM1NTAgUnVzayBTdCwgSG91c3RvbiwgVFggNzcwMDIsIFVTQSIbEhkKFAoSCevPWgI6v0CGEcOLpF5StjtOEKYE', 'types': ['street_address']}]"
2016-05-01 14:00:00,1A10,1100-1199,SMITH,Theft,road/street/sidewalk,1,14,1,Sunday,May,2016,1150,1150 SMITH,"[{'address_components': [{'long_name': '1150', 'short_name': '1150', 'types': ['street_number']}, {'long_name': 'Smith Street', 'short_name': 'Smith St', 'types': ['route']}, {'long_name': 'Downtown', 'short_name': 'Downtown', 'types': ['neighborhood', 'political']}, {'long_name': 'Houston', 'short_name': 'Houston', 'types': ['locality', 'political']}, {'long_name': 'Harris County', 'short_name': 'Harris County', 'types': ['administrative_area_level_2', 'political']}, {'long_name': 'Texas', 'short_name': 'TX', 'types': ['administrative_area_level_1', 'political']}, {'long_name': 'United States', 'short_name': 'US', 'types': ['country', 'political']}, {'long_name': '77002', 'short_name': '77002', 'types': ['postal_code']}, {'long_name': '5204', 'short_name': '5204', 'types': ['postal_code_suffix']}], 'formatted_address': '1150 Smith St, Houston, TX 77002, USA', 'geometry': {'location': {'lat': 29.7577155, 'lng': -95.36964569999999}, 'location_type': 'RANGE_INTERPOLATED', 'viewport': {'northeast': {'lat': 29.7590644802915, 'lng': -95.36829671970848}, 'southwest': {'lat': 29.7563665197085, 'lng': -95.37099468029149}}}, 'place_id': 'EiUxMTUwIFNtaXRoIFN0LCBIb3VzdG9uLCBUWCA3NzAwMiwgVVNBIhsSGQoUChIJ1ekKDjm_QIYRw83Vj9A4zXMQ_gg', 'types': ['street_address']}]"
2016-05-01 18:00:00,1A10,1500-1599,POLK,Theft,commercial parking lot or garage,1,18,1,Sunday,May,2016,1550,1550 POLK,"[{'address_components': [{'long_name': '1550', 'short_name': '1550', 'types': ['street_number']}, {'long_name': 'Polk Street', 'short_name': 'Polk St', 'types': ['route']}, {'long_name': 'Downtown', 'short_name': 'Downtown', 'types': ['neighborhood', 'political']}, {'long_name': 'Houston', 'short_name': 'Houston', 'types': ['locality', 'political']}, {'long_name': 'Harris County', 'short_name': 'Harris County', 'types': ['administrative_area_level_2', 'political']}, {'long_name': 'Texas', 'short_name': 'TX', 'types': ['administrative_area_level_1', 'political']}, {'long_name': 'United States', 'short_name': 'US', 'types': ['country', 'political']}, {'long_name': '77002', 'short_name': '77002', 'types': ['postal_code']}, {'long_name': '7130', 'short_name': '7130', 'types': ['postal_code_suffix']}], 'formatted_address': '1550 Polk St, Houston, TX 77002, USA', 'geometry': {'location': {'lat': 29.7514566, 'lng': -95.36192369999999}, 'location_type': 'RANGE_INTERPOLATED', 'viewport': {'northeast': {'lat': 29.7528055802915, 'lng': -95.36057471970848}, 'southwest': {'lat': 29.7501076197085, 'lng': -95.3632726802915}}}, 'place_id': 'EiQxNTUwIFBvbGsgU3QsIEhvdXN0b24sIFRYIDc3MDAyLCBVU0EiGxIZChQKEgnxAbnIIr9AhhH0QbT63-HMsxCODA', 'types': ['street_address']}]"
2016-05-02 06:00:00,1A10,900-999,FRANKLIN,Theft,road/street/sidewalk,1,6,2,Monday,May,2016,950,950 FRANKLIN,"[{'address_components': [{'long_name': '950', 'short_name': '950', 'types': ['street_number']}, {'long_name': 'Franklin Street', 'short_name': 'Franklin St', 'types': ['route']}, {'long_name': 'Downtown', 'short_name': 'Downtown', 'types': ['neighborhood', 'political']}, {'long_name': 'Houston', 'short_name': 'Houston', 'types': ['locality', 'political']}, {'long_name': 'Harris County', 'short_name': 'Harris County', 'types': ['administrative_area_level_2', 'political']}, {'long_name': 'Texas', 'short_name': 'TX', 'types': ['administrative_area_level_1', 'political']}, {'long_name': 'United States', 'short_name': 'US', 'types': ['country', 'political']}, {'long_name': '77002', 'short_name': '77002', 'types': ['postal_code']}], 'formatted_address': '950 Franklin St, Houston, TX 77002, USA', 'geometry': {'location': {'lat': 29.7632773, 'lng': -95.36063589999999}, 'location_type': 'RANGE_INTERPOLATED', 'viewport': {'northeast': {'lat': 29.7646262802915, 'lng': -95.3592869197085}, 'southwest': {'lat': 29.7619283197085, 'lng': -95.3619848802915}}}, 'place_id': 'Eic5NTAgRnJhbmtsaW4gU3QsIEhvdXN0b24sIFRYIDc3MDAyLCBVU0EiGxIZChQKEgm3-vGiL79AhhFR2cx8l4utwBC2Bw', 'types': ['street_address']}]"
2016-05-02 15:00:00,1A10,1200-1299,PRAIRIE,Theft,"other, unknown, or not listed",1,15,2,Monday,May,2016,1250,1250 PRAIRIE,"[{'address_components': [{'long_name': '1250', 'short_name': '1250', 'types': ['street_number']}, {'long_name': 'Prairie Street', 'short_name': 'Prairie St', 'types': ['route']}, {'long_name': 'Downtown', 'short_name': 'Downtown', 'types': ['neighborhood', 'political']}, {'long_name': 'Houston', 'short_name': 'Houston', 'types': ['locality', 'political']}, {'long_name': 'Harris County', 'short_name': 'Harris County', 'types': ['administrative_area_level_2', 'political']}, {'long_name': 'Texas', 'short_name': 'TX', 'types': ['administrative_area_level_1', 'political']}, {'long_name': 'United States', 'short_name': 'US', 'types': ['country', 'political']}, {'long_name': '77002', 'short_name': '77002', 'types': ['postal_code']}, {'long_name': '2008', 'short_name': '2008', 'types': ['postal_code_suffix']}], 'formatted_address': '1250 Prairie St, Houston, TX 77002, USA', 'geometry': {'location': {'lat': 29.7590639, 'lng': -95.35978610000001}, 'location_type': 'RANGE_INTERPOLATED', 'viewport': {'northeast': {'lat': 29.7604128802915, 'lng': -95.35843711970851}, 'southwest': {'lat': 29.7577149197085, 'lng': -95.36113508029152}}}, 'place_id': 'EicxMjUwIFByYWlyaWUgU3QsIEhvdXN0b24sIFRYIDc3MDAyLCBVU0EiGxIZChQKEgmvGoaoJb9AhhGlgh4vUcgk4BDiCQ', 'types': ['street_address']}]"
2016-05-02 15:00:00,1A10,700-799,LOUISIANA,Theft,restaurant or cafeteria,1,15,2,Monday,May,2016,750,750 LOUISIANA,"[{'address_components': [{'long_name': '750', 'short_name': '750', 'types': ['street_number']}, {'long_name': 'Louisiana Street', 'short_name': 'Louisiana St', 'types': ['route']}, {'long_name': 'Downtown', 'short_name': 'Downtown', 'types': ['neighborhood', 'political']}, {'long_name': 'Houston', 'short_name': 'Houston', 'types': ['locality', 'political']}, {'long_name': 'Harris County', 'short_name': 'Harris County', 'types': ['administrative_area_level_2', 'political']}, {'long_name': 'Texas', 'short_name': 'TX', 'types': ['administrative_area_level_1', 'political']}, {'long_name': 'United States', 'short_name': 'US', 'types': ['country', 'political']}, {'long_name': '77002', 'short_name': '77002', 'types': ['postal_code']}], 'formatted_address': '750 Louisiana St, Houston, TX 77002, USA', 'geometry': {'location': {'lat': 29.7604587, 'lng': -95.36659739999999}, 'location_type': 'RANGE_INTERPOLATED', 'viewport': {'northeast': {'lat': 29.76180768029149, 'lng': -95.3652484197085}, 'southwest': {'lat': 29.7591097197085, 'lng': -95.3679463802915}}}, 'place_id': 'Eig3NTAgTG91aXNpYW5hIFN0LCBIb3VzdG9uLCBUWCA3NzAwMiwgVVNBIhsSGQoUChIJkZLGbjq_QIYRCH4GbsQro_8Q7gU', 'types': ['street_address']}]"
2016-05-02 17:00:00,1A10,1500-1599,CHENEVERT,Theft,other parking lot,1,17,2,Monday,May,2016,1550,1550 CHENEVERT,"[{'address_components': [{'long_name': '1550', 'short_name': '1550', 'types': ['street_number']}, {'long_name': 'Chenevert Street', 'short_name': 'Chenevert St', 'types': ['route']}, {'long_name': 'Downtown', 'short_name': 'Downtown', 'types': ['neighborhood', 'political']}, {'long_name': 'Houston', 'short_name': 'Houston', 'types': ['locality', 'political']}, {'long_name': 'Harris County', 'short_name': 'Harris County', 'types': ['administrative_area_level_2', 'political']}, {'long_name': 'Texas', 'short_name': 'TX', 'types': ['administrative_area_level_1', 'political']}, {'long_name': 'United States', 'short_name': 'US', 'types': ['country', 'political']}, {'long_name': '77003', 'short_name': '77003', 'types': ['postal_code']}], 'formatted_address': '1550 Chenevert St, Houston, TX 77003, USA', 'geometry': {'location': {'lat': 29.74869929999999, 'lng': -95.36129269999999}, 'location_type': 'RANGE_INTERPOLATED', 'viewport': {'northeast': {'lat': 29.75004828029149, 'lng': -95.35994371970848}, 'southwest': {'lat': 29.7473503197085, 'lng': -95.36264168029149}}}, 'place_id': 'EikxNTUwIENoZW5ldmVydCBTdCwgSG91c3RvbiwgVFggNzcwMDMsIFVTQSIbEhkKFAoSCZlNZBUYv0CGEXjekTpmq8F2EI4M', 'types': ['street_address']}]"
2016-05-02 17:00:00,1A10,1600-1699,LAMAR,Theft,"hotel, motel, inn, etc.",1,17,2,Monday,May,2016,1650,1650 LAMAR,"[{'address_components': [{'long_name': '1650', 'short_name': '1650', 'types': ['street_number']}, {'long_name': 'Lamar Street', 'short_name': 'Lamar St', 'types': ['route']}, {'long_name': 'Downtown', 'short_name': 'Downtown', 'types': ['neighborhood', 'political']}, {'long_name': 'Houston', 'short_name': 'Houston', 'types': ['locality', 'political']}, {'long_name': 'Harris County', 'short_name': 'Harris County', 'types': ['administrative_area_level_2', 'political']}, {'long_name': 'Texas', 'short_name': 'TX', 'types': ['administrative_area_level_1', 'political']}, {'long_name': 'United States', 'short_name': 'US', 'types': ['country', 'political']}, {'long_name': '77010', 'short_name': '77010', 'types': ['postal_code']}], 'formatted_address': '1650 Lamar St, Houston, TX 77010, USA', 'geometry': {'location': {'lat': 29.7522176, 'lng': -95.3604837}, 'location_type': 'RANGE_INTERPOLATED', 'viewport': {'northeast': {'lat': 29.7535665802915, 'lng': -95.3591347197085}, 'southwest': {'lat': 29.7508686197085, 'lng': -95.36183268029151}}}, 'place_id': 'EiUxNjUwIExhbWFyIFN0LCBIb3VzdG9uLCBUWCA3NzAxMCwgVVNBIhsSGQoUChIJtZqJ8CK_QIYRDKRPHQ7LeyoQ8gw', 'types': ['street_address']}]"
2016-05-02 18:00:00,1A10,900-999,BELL,Theft,no label,1,18,2,Monday,May,2016,950,950 BELL,"[{'address_components': [{'long_name': '950', 'short_name': '950', 'types': ['street_number']}, {'long_name': 'Bell Street', 'short_name': 'Bell St', 'types': ['route']}, {'long_name': 'Downtown', 'short_name': 'Downtown', 'types': ['neighborhood', 'political']}, {'long_name': 'Houston', 'short_name': 'Houston', 'types': ['locality', 'political']}, {'long_name': 'Harris County', 'short_name': 'Harris County', 'types': ['administrative_area_level_2', 'political']}, {'long_name': 'Texas', 'short_name': 'TX', 'types': ['administrative_area_level_1', 'political']}, {'long_name': 'United States', 'short_name': 'US', 'types': ['country', 'political']}, {'long_name': '77002', 'short_name': '77002', 'types': ['postal_code']}], 'formatted_address': '950 Bell St, Houston, TX 77002, USA', 'geometry': {'location': {'lat': 29.7535068, 'lng': -95.36834259999999}, 'location_type': 'RANGE_INTERPOLATED', 'viewport': {'northeast': {'lat': 29.7548557802915, 'lng': -95.36699361970848}, 'southwest': {'lat': 29.7521578197085, 'lng': -95.3696915802915}}}, 'place_id': 'EiM5NTAgQmVsbCBTdCwgSG91c3RvbiwgVFggNzcwMDIsIFVTQSIbEhkKFAoSCV-9U5s-v0CGEQ0lMo-Qmx-eELYH', 'types': ['street_address']}]"
2016-05-03 10:00:00,1A10,600-699,JEFFERSON,Theft,bank or savings institution parking lot,1,10,3,Tuesday,May,2016,650,650 JEFFERSON,"[{'address_components': [{'long_name': '650', 'short_name': '650', 'types': ['street_number']}, {'long_name': 'Jefferson Street', 'short_name': 'Jefferson St', 'types': ['route']}, {'long_name': 'Downtown', 'short_name': 'Downtown', 'types': ['neighborhood', 'political']}, {'long_name': 'Houston', 'short_name': 'Houston', 'types': ['locality', 'political']}, {'long_name': 'Harris County', 'short_name': 'Harris County', 'types': ['administrative_area_level_2', 'political']}, {'long_name': 'Texas', 'short_name': 'TX', 'types': ['administrative_area_level_1', 'political']}, {'long_name': 'United States', 'short_name': 'US', 'types': ['country', 'political']}, {'long_name': '77002', 'short_name': '77002', 'types': ['postal_code']}], 'formatted_address': '650 Jefferson St, Houston, TX 77002, USA', 'geometry': {'location': {'lat': 29.7523814, 'lng': -95.37254329999999}, 'location_type': 'RANGE_INTERPOLATED', 'viewport': {'northeast': {'lat': 29.7537303802915, 'lng': -95.3711943197085}, 'southwest': {'lat': 29.7510324197085, 'lng': -95.3738922802915}}}, 'place_id': 'Eig2NTAgSmVmZmVyc29uIFN0LCBIb3VzdG9uLCBUWCA3NzAwMiwgVVNBIhsSGQoUChIJSclVeT-_QIYRxXexMuclN4wQigU', 'types': ['street_address']}]"
2016-05-04 09:00:00,1A10,500-599,CRAWFORD,Theft,commercial parking lot or garage,1,9,4,Wednesday,May,2016,550,550 CRAWFORD,"[{'address_components': [{'long_name': '550', 'short_name': '550', 'types': ['street_number']}, {'long_name': 'Crawford Street', 'short_name': 'Crawford St', 'types': ['route']}, {'long_name': 'Downtown', 'short_name': 'Downtown', 'types': ['neighborhood', 'political']}, {'long_name': 'Houston', 'short_name': 'Houston', 'types': ['locality', 'political']}, {'long_name': 'Harris County', 'short_name': 'Harris County', 'types': ['administrative_area_level_2', 'political']}, {'long_name': 'Texas', 'short_name': 'TX', 'types': ['administrative_area_level_1', 'political']}, {'long_name': 'United States', 'short_name': 'US', 'types': ['country', 'political']}, {'long_name': '77002', 'short_name': '77002', 'types': ['postal_code']}, {'long_name': '2114', 'short_name': '2114', 'types': ['postal_code_suffix']}], 'formatted_address': '550 Crawford St, Houston, TX 77002, USA', 'geometry': {'location': {'lat': 29.7572247, 'lng': -95.3570721}, 'location_type': 'RANGE_INTERPOLATED', 'viewport': {'northeast': {'lat': 29.7585736802915, 'lng': -95.35572311970849}, 'southwest': {'lat': 29.7558757197085, 'lng': -95.3584210802915}}}, 'place_id': 'Eic1NTAgQ3Jhd2ZvcmQgU3QsIEhvdXN0b24sIFRYIDc3MDAyLCBVU0EiGxIZChQKEgl39p2hJr9AhhH39YMi7NOzWhCmBA', 'types': ['street_address']}]"
2016-05-04 10:00:00,1A10,900-999,COMMERCE,Theft,road/street/sidewalk,1,10,4,Wednesday,May,2016,950,950 COMMERCE,[]
2016-05-04 16:00:00,1A10,500-599,RUSK,Theft,"other, unknown, or not listed",1,16,4,Wednesday,May,2016,550,550 RUSK,"[{'address_components': [{'long_name': '550', 'short_name': '550', 'types': ['street_number']}, {'long_name': 'Rusk Street', 'short_name': 'Rusk St', 'types': ['route']}, {'long_name': 'Downtown', 'short_name': 'Downtown', 'types': ['neighborhood', 'political']}, {'long_name': 'Houston', 'short_name': 'Houston', 'types': ['locality', 'political']}, {'long_name': 'Harris County', 'short_name': 'Harris County', 'types': ['administrative_area_level_2', 'political']}, {'long_name': 'Texas', 'short_name': 'TX', 'types': ['administrative_area_level_1', 'political']}, {'long_name': 'United States', 'short_name': 'US', 'types': ['country', 'political']}, {'long_name': '77002', 'short_name': '77002', 'types': ['postal_code']}, {'long_name': '2667', 'short_name': '2667', 'types': ['postal_code_suffix']}], 'formatted_address': '550 Rusk St, Houston, TX 77002, USA', 'geometry': {'location': {'lat': 29.7605882, 'lng': -95.3676486}, 'location_type': 'RANGE_INTERPOLATED', 'viewport': {'northeast': {'lat': 29.7619371802915, 'lng': -95.36629961970849}, 'southwest': {'lat': 29.7592392197085, 'lng': -95.3689975802915}}}, 'place_id': 'EiM1NTAgUnVzayBTdCwgSG91c3RvbiwgVFggNzcwMDIsIFVTQSIbEhkKFAoSCevPWgI6v0CGEcOLpF5StjtOEKYE', 'types': ['street_address']}]"
2016-05-04 23:00:00,1A10,500-599,CRAWFORD,Theft,"stadium, sports arena, race track",1,23,4,Wednesday,May,2016,550,550 CRAWFORD,"[{'address_components': [{'long_name': '550', 'short_name': '550', 'types': ['street_number']}, {'long_name': 'Crawford Street', 'short_name': 'Crawford St', 'types': ['route']}, {'long_name': 'Downtown', 'short_name': 'Downtown', 'types': ['neighborhood', 'political']}, {'long_name': 'Houston', 'short_name': 'Houston', 'types': ['locality', 'political']}, {'long_name': 'Harris County', 'short_name': 'Harris County', 'types': ['administrative_area_level_2', 'political']}, {'long_name': 'Texas', 'short_name': 'TX', 'types': ['administrative_area_level_1', 'political']}, {'long_name': 'United States', 'short_name': 'US', 'types': ['country', 'political']}, {'long_name': '77002', 'short_name': '77002', 'types': ['postal_code']}, {'long_name': '2114', 'short_name': '2114', 'types': ['postal_code_suffix']}], 'formatted_address': '550 Crawford St, Houston, TX 77002, USA', 'geometry': {'location': {'lat': 29.7572247, 'lng': -95.3570721}, 'location_type': 'RANGE_INTERPOLATED', 'viewport': {'northeast': {'lat': 29.7585736802915, 'lng': -95.35572311970849}, 'southwest': {'lat': 29.7558757197085, 'lng': -95.3584210802915}}}, 'place_id': 'Eic1NTAgQ3Jhd2ZvcmQgU3QsIEhvdXN0b24sIFRYIDc3MDAyLCBVU0EiGxIZChQKEgl39p2hJr9AhhH39YMi7NOzWhCmBA', 'types': ['street_address']}]"
2016-05-05 00:00:00,1A10,700-799,FANNIN,Theft,"hotel, motel, inn, etc.",1,0,5,Thursday,May,2016,750,750 FANNIN,"[{'address_components': [{'long_name': '750', 'short_name': '750', 'types': ['street_number']}, {'long_name': 'Fannin Street', 'short_name': 'Fannin St', 'types': ['route']}, {'long_name': 'Downtown', 'short_name': 'Downtown', 'types': ['neighborhood', 'political']}, {'long_name': 'Houston', 'short_name': 'Houston', 'types': ['locality', 'political']}, {'long_name': 'Harris County', 'short_name': 'Harris County', 'types': ['administrative_area_level_2', 'political']}, {'long_name': 'Texas', 'short_name': 'TX', 'types': ['administrative_area_level_1', 'political']}, {'long_name': 'United States', 'short_name': 'US', 'types': ['country', 'political']}, {'long_name': '77002', 'short_name': '77002', 'types': ['postal_code']}], 'formatted_address': '750 Fannin St, Houston, TX 77002, USA', 'geometry': {'location': {'lat': 29.7582653, 'lng': -95.36291089999999}, 'location_type': 'RANGE_INTERPOLATED', 'viewport': {'northeast': {'lat': 29.7596142802915, 'lng': -95.36156191970849}, 'southwest': {'lat': 29.7569163197085, 'lng': -95.3642598802915}}}, 'place_id': 'EiU3NTAgRmFubmluIFN0LCBIb3VzdG9uLCBUWCA3NzAwMiwgVVNBIhsSGQoUChIJ_3SoLDu_QIYRJfc0pRjts8sQ7gU', 'types': ['street_address']}]"
2016-05-05 08:00:00,1A10,1300-1399,MAIN,Theft,"church, synagogue, or temple",1,8,5,Thursday,May,2016,1350,1350 MAIN,"[{'address_components': [{'long_name': '1350', 'short_name': '1350', 'types': ['street_number']}, {'long_name': 'South Main Street', 'short_name': 'S Main St', 'types': ['route']}, {'long_name': 'Downtown', 'short_name': 'Downtown', 'types': ['neighborhood', 'political']}, {'long_name': 'Houston', 'short_name': 'Houston', 'types': ['locality', 'political']}, {'long_name': 'Harris County', 'short_name': 'Harris County', 'types': ['administrative_area_level_2', 'political']}, {'long_name': 'Texas', 'short_name': 'TX', 'types': ['administrative_area_level_1', 'political']}, {'long_name': 'United States', 'short_name': 'US', 'types': ['country', 'political']}, {'long_name': '77002', 'short_name': '77002', 'types': ['postal_code']}, {'long_name': '6803', 'short_name': '6803', 'types': ['postal_code_suffix']}], 'formatted_address': '1350 S Main St, Houston, TX 77002, USA', 'geometry': {'location': {'lat': 29.75428569999999, 'lng': -95.3675337}, 'location_type': 'RANGE_INTERPOLATED', 'viewport': {'northeast': {'lat': 29.75563468029149, 'lng': -95.36618471970849}, 'southwest': {'lat': 29.7529367197085, 'lng': -95.3688826802915}}}, 'place_id': 'EiYxMzUwIFMgTWFpbiBTdCwgSG91c3RvbiwgVFggNzcwMDIsIFVTQSIbEhkKFAoSCV-UBRc8v0CGEevTJ7NPibENEMYK', 'types': ['street_address']}]"
2016-05-05 09:00:00,1A10,1600-1699,LAMAR,Theft,hotel or motel parking lot,1,9,5,Thursday,May,2016,1650,1650 LAMAR,"[{'address_components': [{'long_name': '1650', 'short_name': '1650', 'types': ['street_number']}, {'long_name': 'Lamar Street', 'short_name': 'Lamar St', 'types': ['route']}, {'long_name': 'Downtown', 'short_name': 'Downtown', 'types': ['neighborhood', 'political']}, {'long_name': 'Houston', 'short_name': 'Houston', 'types': ['locality', 'political']}, {'long_name': 'Harris County', 'short_name': 'Harris County', 'types': ['administrative_area_level_2', 'political']}, {'long_name': 'Texas', 'short_name': 'TX', 'types': ['administrative_area_level_1', 'political']}, {'long_name': 'United States', 'short_name': 'US', 'types': ['country', 'political']}, {'long_name': '77010', 'short_name': '77010', 'types': ['postal_code']}], 'formatted_address': '1650 Lamar St, Houston, TX 77010, USA', 'geometry': {'location': {'lat': 29.7522176, 'lng': -95.3604837}, 'location_type': 'RANGE_INTERPOLATED', 'viewport': {'northeast': {'lat': 29.7535665802915, 'lng': -95.3591347197085}, 'southwest': {'lat': 29.7508686197085, 'lng': -95.36183268029151}}}, 'place_id': 'EiUxNjUwIExhbWFyIFN0LCBIb3VzdG9uLCBUWCA3NzAxMCwgVVNBIhsSGQoUChIJtZqJ8CK_QIYRDKRPHQ7LeyoQ8gw', 'types': ['street_address']}]"
2016-05-05 19:00:00,1A10,1000-1099,CONGRESS,Aggravated Assault,road/street/sidewalk,1,19,5,Thursday,May,2016,1050,1050 CONGRESS,"[{'address_components': [{'long_name': '1050', 'short_name': '1050', 'types': ['street_number']}, {'long_name': 'Congress Avenue', 'short_name': 'Congress Ave', 'types': ['route']}, {'long_name': 'Downtown', 'short_name': 'Downtown', 'types': ['neighborhood', 'political']}, {'long_name': 'Houston', 'short_name': 'Houston', 'types': ['locality', 'political']}, {'long_name': 'Harris County', 'short_name': 'Harris County', 'types': ['administrative_area_level_2', 'political']}, {'long_name': 'Texas', 'short_name': 'TX', 'types': ['administrative_area_level_1', 'political']}, {'long_name': 'United States', 'short_name': 'US', 'types': ['country', 'political']}, {'long_name': '77002', 'short_name': '77002', 'types': ['postal_code']}], 'formatted_address': '1050 Congress Ave, Houston, TX 77002, USA', 'geometry': {'location': {'lat': 29.7616844, 'lng': -95.3601463}, 'location_type': 'RANGE_INTERPOLATED', 'viewport': {'northeast': {'lat': 29.7630333802915, 'lng': -95.35879731970849}, 'southwest': {'lat': 29.7603354197085, 'lng': -95.3614952802915}}}, 'place_id': 'EikxMDUwIENvbmdyZXNzIEF2ZSwgSG91c3RvbiwgVFggNzcwMDIsIFVTQSIbEhkKFAoSCfW7VIEvv0CGEVCpDreI9CflEJoI', 'types': ['street_address']}]"
2016-05-06 07:00:00,1A10,600-699,CLAY,Theft,miscellaneous business (non-specific),1,7,6,Friday,May,2016,650,650 CLAY,"[{'address_components': [{'long_name': '650', 'short_name': '650', 'types': ['street_number']}, {'long_name': 'Clay Street', 'short_name': 'Clay St', 'types': ['route']}, {'long_name': 'Downtown', 'short_name': 'Downtown', 'types': ['neighborhood', 'political']}, {'long_name': 'Houston', 'short_name': 'Houston', 'types': ['locality', 'political']}, {'long_name': 'Harris County', 'short_name': 'Harris County', 'types': ['administrative_area_level_2', 'political']}, {'long_name': 'Texas', 'short_name': 'TX', 'types': ['administrative_area_level_1', 'political']}, {'long_name': 'United States', 'short_name': 'US', 'types': ['country', 'political']}, {'long_name': '77002', 'short_name': '77002', 'types': ['postal_code']}], 'formatted_address': '650 Clay St, Houston, TX 77002, USA', 'geometry': {'location': {'lat': 29.755407, 'lng': -95.37058809999999}, 'location_type': 'RANGE_INTERPOLATED', 'viewport': {'northeast': {'lat': 29.7567559802915, 'lng': -95.36923911970848}, 'southwest': {'lat': 29.7540580197085, 'lng': -95.3719370802915}}}, 'place_id': 'EiM2NTAgQ2xheSBTdCwgSG91c3RvbiwgVFggNzcwMDIsIFVTQSIbEhkKFAoSCVN2ISo5v0CGEepR0UbUPqN_EIoF', 'types': ['street_address']}]"
2016-05-06 11:00:00,1A10,1100-1199,RUSK,Aggravated Assault,commercial parking lot or garage,1,11,6,Friday,May,2016,1150,1150 RUSK,"[{'address_components': [{'long_name': '1150', 'short_name': '1150', 'types': ['street_number']}, {'long_name': 'Rusk Street', 'short_name': 'Rusk St', 'types': ['route']}, {'long_name': 'Downtown', 'short_name': 'Downtown', 'types': ['neighborhood', 'political']}, {'long_name': 'Houston', 'short_name': 'Houston', 'types': ['locality', 'political']}, {'long_name': 'Harris County', 'short_name': 'Harris County', 'types': ['administrative_area_level_2', 'political']}, {'long_name': 'Texas', 'short_name': 'TX', 'types': ['administrative_area_level_1', 'political']}, {'long_name': 'United States', 'short_name': 'US', 'types': ['country', 'political']}, {'long_name': '77002', 'short_name': '77002', 'types': ['postal_code']}, {'long_name': '3407', 'short_name': '3407', 'types': ['postal_code_suffix']}], 'formatted_address': '1150 Rusk St, Houston, TX 77002, USA', 'geometry': {'location': {'lat': 29.757363, 'lng': -95.36226479999999}, 'location_type': 'RANGE_INTERPOLATED', 'viewport': {'northeast': {'lat': 29.7587119802915, 'lng': -95.36091581970848}, 'southwest': {'lat': 29.7560140197085, 'lng': -95.36361378029149}}}, 'place_id': 'EiQxMTUwIFJ1c2sgU3QsIEhvdXN0b24sIFRYIDc3MDAyLCBVU0EiGxIZChQKEgkjbu3MJL9AhhGxxng3mlUv2hD-CA', 'types': ['street_address']}]"
2016-05-06 19:00:00,1A10,1500-1599,ST JOSEPH,Theft,hospital,1,19,6,Friday,May,2016,1550,1550 ST JOSEPH,"[{'address_components': [{'long_name': '1550', 'short_name': '1550', 'types': ['street_number']}, {'long_name': 'Saint Joseph Parkway', 'short_name': 'St Joseph Pkwy', 'types': ['route']}, {'long_name': 'Downtown', 'short_name': 'Downtown', 'types': ['neighborhood', 'political']}, {'long_name': 'Houston', 'short_name': 'Houston', 'types': ['locality', 'political']}, {'long_name': 'Harris County', 'short_name': 'Harris County', 'types': ['administrative_area_level_2', 'political']}, {'long_name': 'Texas', 'short_name': 'TX', 'types': ['administrative_area_level_1', 'political']}, {'long_name': 'United States', 'short_name': 'US', 'types': ['country', 'political']}, {'long_name': '77002', 'short_name': '77002', 'types': ['postal_code']}], 'formatted_address': '1550 St Joseph Pkwy, Houston, TX 77002, USA', 'geometry': {'location': {'lat': 29.7473566, 'lng': -95.3655204}, 'location_type': 'RANGE_INTERPOLATED', 'viewport': {'northeast': {'lat': 29.7487055802915, 'lng': -95.36417141970848}, 'southwest': {'lat': 29.7460076197085, 'lng': -95.3668693802915}}}, 'place_id': 'EisxNTUwIFN0IEpvc2VwaCBQa3d5LCBIb3VzdG9uLCBUWCA3NzAwMiwgVVNBIhsSGQoUChIJaThXURa_QIYRu-OEE7zy6QsQjgw', 'types': ['street_address']}]"
2016-05-06 21:00:00,1A10,1800-1899,TEXAS,Theft,road/street/sidewalk,1,21,6,Friday,May,2016,1850,1850 TEXAS,"[{'address_components': [{'long_name': '1850', 'short_name': '1850', 'types': ['street_number']}, {'long_name': 'Texas Street', 'short_name': 'Texas St', 'types': ['route']}, {'long_name': 'Central Business District', 'short_name': 'Central Business District', 'types': ['neighborhood', 'political']}, {'long_name': 'Houston', 'short_name': 'Houston', 'types': ['locality', 'political']}, {'long_name': 'Harris County', 'short_name': 'Harris County', 'types': ['administrative_area_level_2', 'political']}, {'long_name': 'Texas', 'short_name': 'TX', 'types': ['administrative_area_level_1', 'political']}, {'long_name': 'United States', 'short_name': 'US', 'types': ['country', 'political']}, {'long_name': '77003', 'short_name': '77003', 'types': ['postal_code']}], 'formatted_address': '1850 Texas St, Houston, TX 77003, USA', 'geometry': {'location': {'lat': 29.7550506, 'lng': -95.3543593}, 'location_type': 'RANGE_INTERPOLATED', 'viewport': {'northeast': {'lat': 29.7563995802915, 'lng': -95.35301031970849}, 'southwest': {'lat': 29.7537016197085, 'lng': -95.35570828029151}}}, 'place_id': 'EiUxODUwIFRleGFzIFN0LCBIb3VzdG9uLCBUWCA3NzAwMywgVVNBIhsSGQoUChIJsxDj2yC_QIYRK-p01IZDGSMQug4', 'types': ['street_address']}]"
2016-05-07 07:00:00,1A10,1600-1699,TEXAS,Theft,commercial parking lot or garage,1,7,7,Saturday,May,2016,1650,1650 TEXAS,"[{'address_components': [{'long_name': '1650', 'short_name': '1650', 'types': ['street_number']}, {'long_name': 'Texas Street', 'short_name': 'Texas St', 'types': ['route']}, {'long_name': 'Downtown', 'short_name': 'Downtown', 'types': ['neighborhood', 'political']}, {'long_name': 'Houston', 'short_name': 'Houston', 'types': ['locality', 'political']}, {'long_name': 'Harris County', 'short_name': 'Harris County', 'types': ['administrative_area_level_2', 'political']}, {'long_name': 'Texas', 'short_name': 'TX', 'types': ['administrative_area_level_1', 'political']}, {'long_name': 'United States', 'short_name': 'US', 'types': ['country', 'political']}, {'long_name': '77003', 'short_name': '77003', 'types': ['postal_code']}, {'long_name': '3033', 'short_name': '3033', 'types': ['postal_code_suffix']}], 'formatted_address': '1650 Texas St, Houston, TX 77003, USA', 'geometry': {'location': {'lat': 29.7564418, 'lng': -95.35715429999999}, 'location_type': 'RANGE_INTERPOLATED', 'viewport': {'northeast': {'lat': 29.7577907802915, 'lng': -95.3558053197085}, 'southwest': {'lat': 29.7550928197085, 'lng': -95.3585032802915}}}, 'place_id': 'EiUxNjUwIFRleGFzIFN0LCBIb3VzdG9uLCBUWCA3NzAwMywgVVNBIhsSGQoUChIJh1E5rya_QIYRlSoyOhhf8isQ8gw', 'types': ['street_address']}]"
2016-05-07 08:00:00,1A10,1900-1999,CONGRESS,Theft,road/street/sidewalk,1,8,7,Saturday,May,2016,1950,1950 CONGRESS,"[{'address_components': [{'long_name': '1950', 'short_name': '1950', 'types': ['street_number']}, {'long_name': 'Congress Avenue', 'short_name': 'Congress Ave', 'types': ['route']}, {'long_name': 'Houston', 'short_name': 'Houston', 'types': ['locality', 'political']}, {'long_name': 'Harris County', 'short_name': 'Harris County', 'types': ['administrative_area_level_2', 'political']}, {'long_name': 'Texas', 'short_name': 'TX', 'types': ['administrative_area_level_1', 'political']}, {'long_name': 'United States', 'short_name': 'US', 'types': ['country', 'political']}, {'long_name': '77002', 'short_name': '77002', 'types': ['postal_code']}], 'formatted_address': '1950 Congress Ave, Houston, TX 77002, USA', 'geometry': {'location': {'lat': 29.75725, 'lng': -95.3526208}, 'location_type': 'RANGE_INTERPOLATED', 'viewport': {'northeast': {'lat': 29.7585989802915, 'lng': -95.35127181970849}, 'southwest': {'lat': 29.7559010197085, 'lng': -95.35396978029151}}}, 'place_id': 'EikxOTUwIENvbmdyZXNzIEF2ZSwgSG91c3RvbiwgVFggNzcwMDIsIFVTQSIbEhkKFAoSCZU1VVknv0CGEUmLhIHSnzfEEJ4P', 'types': ['street_address']}]"
2016-05-07 10:00:00,1A10,400-499,CAROLINE,Theft,commercial parking lot or garage,1,10,7,Saturday,May,2016,450,450 CAROLINE,"[{'address_components': [{'long_name': '450', 'short_name': '450', 'types': ['street_number']}, {'long_name': 'Caroline Street', 'short_name': 'Caroline St', 'types': ['route']}, {'long_name': 'Downtown', 'short_name': 'Downtown', 'types': ['neighborhood', 'political']}, {'long_name': 'Houston', 'short_name': 'Houston', 'types': ['locality', 'political']}, {'long_name': 'Harris County', 'short_name': 'Harris County', 'types': ['administrative_area_level_2', 'political']}, {'long_name': 'Texas', 'short_name': 'TX', 'types': ['administrative_area_level_1', 'political']}, {'long_name': 'United States', 'short_name': 'US', 'types': ['country', 'political']}, {'long_name': '77002', 'short_name': '77002', 'types': ['postal_code']}], 'formatted_address': '450 Caroline St, Houston, TX 77002, USA', 'geometry': {'location': {'lat': 29.7594006, 'lng': -95.3593982}, 'location_type': 'RANGE_INTERPOLATED', 'viewport': {'northeast': {'lat': 29.7607495802915, 'lng': -95.3580492197085}, 'southwest': {'lat': 29.7580516197085, 'lng': -95.36074718029151}}}, 'place_id': 'Eic0NTAgQ2Fyb2xpbmUgU3QsIEhvdXN0b24sIFRYIDc3MDAyLCBVU0EiGxIZChQKEglLqBK6Jb9AhhEpMOFxBbOFmhDCAw', 'types': ['street_address']}]"
2016-05-07 12:00:00,1A10,1800-1899,RUIZ,Theft,"other, unknown, or not listed",1,12,7,Saturday,May,2016,1850,1850 RUIZ,"[{'address_components': [{'long_name': '1850', 'short_name': '1850', 'types': ['street_number']}, {'long_name': 'Ruiz Street', 'short_name': 'Ruiz St', 'types': ['route']}, {'long_name': 'Downtown', 'short_name': 'Downtown', 'types': ['neighborhood', 'political']}, {'long_name': 'Houston', 'short_name': 'Houston', 'types': ['locality', 'political']}, {'long_name': 'Harris County', 'short_name': 'Harris County', 'types': ['administrative_area_level_2', 'political']}, {'long_name': 'Texas', 'short_name': 'TX', 'types': ['administrative_area_level_1', 'political']}, {'long_name': 'United States', 'short_name': 'US', 'types': ['country', 'political']}, {'long_name': '77002', 'short_name': '77002', 'types': ['postal_code']}], 'formatted_address': '1850 Ruiz St, Houston, TX 77002, USA', 'geometry': {'location': {'lat': 29.7599941, 'lng': -95.3514096}, 'location_type': 'RANGE_INTERPOLATED', 'viewport': {'northeast': {'lat': 29.7613430802915, 'lng': -95.35006061970849}, 'southwest': {'lat': 29.7586451197085, 'lng': -95.3527585802915}}}, 'place_id': 'EiQxODUwIFJ1aXogU3QsIEhvdXN0b24sIFRYIDc3MDAyLCBVU0EiGxIZChQKEgk7X6Zx2L5AhhGQGcg-CbYgWxC6Dg', 'types': ['street_address']}]"
2016-05-07 15:00:00,1A10,300-399,HAMILTON,Aggravated Assault,commercial parking lot or garage,1,15,7,Saturday,May,2016,350,350 HAMILTON,"[{'address_components': [{'long_name': '350', 'short_name': '350', 'types': ['street_number']}, {'long_name': 'Hamilton Street', 'short_name': 'Hamilton St', 'types': ['route']}, {'long_name': 'Downtown', 'short_name': 'Downtown', 'types': ['neighborhood', 'political']}, {'long_name': 'Houston', 'short_name': 'Houston', 'types': ['locality', 'political']}, {'long_name': 'Harris County', 'short_name': 'Harris County', 'types': ['administrative_area_level_2', 'political']}, {'long_name': 'Texas', 'short_name': 'TX', 'types': ['administrative_area_level_1', 'political']}, {'long_name': 'United States', 'short_name': 'US', 'types': ['country', 'political']}, {'long_name': '77002', 'short_name': '77002', 'types': ['postal_code']}], 'formatted_address': '350 Hamilton St, Houston, TX 77002, USA', 'geometry': {'location': {'lat': 29.7572118, 'lng': -95.3532941}, 'location_type': 'RANGE_INTERPOLATED', 'viewport': {'northeast': {'lat': 29.7585607802915, 'lng': -95.3519451197085}, 'southwest': {'lat': 29.7558628197085, 'lng': -95.35464308029151}}}, 'place_id': 'EiczNTAgSGFtaWx0b24gU3QsIEhvdXN0b24sIFRYIDc3MDAyLCBVU0EiGxIZChQKEgk15mI4J79AhhEV1jBBXhSKsxDeAg', 'types': ['street_address']}]"
2016-05-07 15:00:00,1A10,1500-1599,MCKINNEY,Theft,"parks and recreation, zoo, swimming pool",1,15,7,Saturday,May,2016,1550,1550 MCKINNEY,"[{'address_components': [{'long_name': '1550', 'short_name': '1550', 'types': ['street_number']}, {'long_name': 'McKinney Street', 'short_name': 'McKinney St', 'types': ['route']}, {'long_name': 'Downtown', 'short_name': 'Downtown', 'types': ['neighborhood', 'political']}, {'long_name': 'Houston', 'short_name': 'Houston', 'types': ['locality', 'political']}, {'long_name': 'Harris County', 'short_name': 'Harris County', 'types': ['administrative_area_level_2', 'political']}, {'long_name': 'Texas', 'short_name': 'TX', 'types': ['administrative_area_level_1', 'political']}, {'long_name': 'United States', 'short_name': 'US', 'types': ['country', 'political']}, {'long_name': '77010', 'short_name': '77010', 'types': ['postal_code']}, {'long_name': '4011', 'short_name': '4011', 'types': ['postal_code_suffix']}], 'formatted_address': '1550 McKinney St, Houston, TX 77010, USA', 'geometry': {'location': {'lat': 29.7537924, 'lng': -95.3604003}, 'location_type': 'RANGE_INTERPOLATED', 'viewport': {'northeast': {'lat': 29.7551413802915, 'lng': -95.35905131970848}, 'southwest': {'lat': 29.7524434197085, 'lng': -95.3617492802915}}}, 'place_id': 'EigxNTUwIE1jS2lubmV5IFN0LCBIb3VzdG9uLCBUWCA3NzAxMCwgVVNBIhsSGQoUChIJr8JqDSO_QIYRUPeO7EDtEm4Qjgw', 'types': ['street_address']}]"
2016-05-07 17:00:00,1A10,500-599,CRAWFORD,Theft,"stadium, sports arena, race track",1,17,7,Saturday,May,2016,550,550 CRAWFORD,"[{'address_components': [{'long_name': '550', 'short_name': '550', 'types': ['street_number']}, {'long_name': 'Crawford Street', 'short_name': 'Crawford St', 'types': ['route']}, {'long_name': 'Downtown', 'short_name': 'Downtown', 'types': ['neighborhood', 'political']}, {'long_name': 'Houston', 'short_name': 'Houston', 'types': ['locality', 'political']}, {'long_name': 'Harris County', 'short_name': 'Harris County', 'types': ['administrative_area_level_2', 'political']}, {'long_name': 'Texas', 'short_name': 'TX', 'types': ['administrative_area_level_1', 'political']}, {'long_name': 'United States', 'short_name': 'US', 'types': ['country', 'political']}, {'long_name': '77002', 'short_name': '77002', 'types': ['postal_code']}, {'long_name': '2114', 'short_name': '2114', 'types': ['postal_code_suffix']}], 'formatted_address': '550 Crawford St, Houston, TX 77002, USA', 'geometry': {'location': {'lat': 29.7572247, 'lng': -95.3570721}, 'location_type': 'RANGE_INTERPOLATED', 'viewport': {'northeast': {'lat': 29.7585736802915, 'lng': -95.35572311970849}, 'southwest': {'lat': 29.7558757197085, 'lng': -95.3584210802915}}}, 'place_id': 'Eic1NTAgQ3Jhd2ZvcmQgU3QsIEhvdXN0b24sIFRYIDc3MDAyLCBVU0EiGxIZChQKEgl39p2hJr9AhhH39YMi7NOzWhCmBA', 'types': ['street_address']}]"
2016-05-07 19:00:00,1A10,1700-1799,CAROLINE,Robbery,road/street/sidewalk,1,19,7,Saturday,May,2016,1750,1750 CAROLINE,"[{'address_components': [{'long_name': '1750', 'short_name': '1750', 'types': ['street_number']}, {'long_name': 'Caroline Street', 'short_name': 'Caroline St', 'types': ['route']}, {'long_name': 'Downtown', 'short_name': 'Downtown', 'types': ['neighborhood', 'political']}, {'long_name': 'Houston', 'short_name': 'Houston', 'types': ['locality', 'political']}, {'long_name': 'Harris County', 'short_name': 'Harris County', 'types': ['administrative_area_level_2', 'political']}, {'long_name': 'Texas', 'short_name': 'TX', 'types': ['administrative_area_level_1', 'political']}, {'long_name': 'United States', 'short_name': 'US', 'types': ['country', 'political']}, {'long_name': '77002', 'short_name': '77002', 'types': ['postal_code']}], 'formatted_address': '1750 Caroline St, Houston, TX 77002, USA', 'geometry': {'location': {'lat': 29.7497853, 'lng': -95.3667717}, 'location_type': 'RANGE_INTERPOLATED', 'viewport': {'northeast': {'lat': 29.7511342802915, 'lng': -95.36542271970849}, 'southwest': {'lat': 29.7484363197085, 'lng': -95.36812068029151}}}, 'place_id': 'EigxNzUwIENhcm9saW5lIFN0LCBIb3VzdG9uLCBUWCA3NzAwMiwgVVNBIhsSGQoUChIJ4VgDHha_QIYRAvTikq52150Q1g0', 'types': ['street_address']}]"
2016-05-07 21:00:00,1A10,500-599,CRAWFORD,Theft,"stadium, sports arena, race track",1,21,7,Saturday,May,2016,550,550 CRAWFORD,"[{'address_components': [{'long_name': '550', 'short_name': '550', 'types': ['street_number']}, {'long_name': 'Crawford Street', 'short_name': 'Crawford St', 'types': ['route']}, {'long_name': 'Downtown', 'short_name': 'Downtown', 'types': ['neighborhood', 'political']}, {'long_name': 'Houston', 'short_name': 'Houston', 'types': ['locality', 'political']}, {'long_name': 'Harris County', 'short_name': 'Harris County', 'types': ['administrative_area_level_2', 'political']}, {'long_name': 'Texas', 'short_name': 'TX', 'types': ['administrative_area_level_1', 'political']}, {'long_name': 'United States', 'short_name': 'US', 'types': ['country', 'political']}, {'long_name': '77002', 'short_name': '77002', 'types': ['postal_code']}, {'long_name': '2114', 'short_name': '2114', 'types': ['postal_code_suffix']}], 'formatted_address': '550 Crawford St, Houston, TX 77002, USA', 'geometry': {'location': {'lat': 29.7572247, 'lng': -95.3570721}, 'location_type': 'RANGE_INTERPOLATED', 'viewport': {'northeast': {'lat': 29.7585736802915, 'lng': -95.35572311970849}, 'southwest': {'lat': 29.7558757197085, 'lng': -95.3584210802915}}}, 'place_id': 'Eic1NTAgQ3Jhd2ZvcmQgU3QsIEhvdXN0b24sIFRYIDc3MDAyLCBVU0EiGxIZChQKEgl39p2hJr9AhhH39YMi7NOzWhCmBA', 'types': ['street_address']}]"
2016-05-08 00:00:00,1A10,800-899,RUSK,Auto Theft,commercial parking lot or garage,1,0,8,Sunday,May,2016,850,850 RUSK,"[{'address_components': [{'long_name': '850', 'short_name': '850', 'types': ['street_number']}, {'long_name': 'Rusk Street', 'short_name': 'Rusk St', 'types': ['route']}, {'long_name': 'Downtown', 'short_name': 'Downtown', 'types': ['neighborhood', 'political']}, {'long_name': 'Houston', 'short_name': 'Houston', 'types': ['locality', 'political']}, {'long_name': 'Harris County', 'short_name': 'Harris County', 'types': ['administrative_area_level_2', 'political']}, {'long_name': 'Texas', 'short_name': 'TX', 'types': ['administrative_area_level_1', 'political']}, {'long_name': 'United States', 'short_name': 'US', 'types': ['country', 'political']}, {'long_name': '77002', 'short_name': '77002', 'types': ['postal_code']}], 'formatted_address': '850 Rusk St, Houston, TX 77002, USA', 'geometry': {'location': {'lat': 29.7592421, 'lng': -95.3650584}, 'location_type': 'RANGE_INTERPOLATED', 'viewport': {'northeast': {'lat': 29.76059108029149, 'lng': -95.3637094197085}, 'southwest': {'lat': 29.7578931197085, 'lng': -95.3664073802915}}}, 'place_id': 'EiM4NTAgUnVzayBTdCwgSG91c3RvbiwgVFggNzcwMDIsIFVTQSIbEhkKFAoSCbt-lvk6v0CGEZv5aw2jvDO-ENIG', 'types': ['street_address']}]"
2016-05-08 10:00:00,1A10,1500-1599,LEELAND,Theft,bar or night club parking lot,1,10,8,Sunday,May,2016,1550,1550 LEELAND,"[{'address_components': [{'long_name': '1550', 'short_name': '1550', 'types': ['street_number']}, {'long_name': 'Leeland Street', 'short_name': 'Leeland St', 'types': ['route']}, {'long_name': 'Downtown', 'short_name': 'Downtown', 'types': ['neighborhood', 'political']}, {'long_name': 'Houston', 'short_name': 'Houston', 'types': ['locality', 'political']}, {'long_name': 'Harris County', 'short_name': 'Harris County', 'types': ['administrative_area_level_2', 'political']}, {'long_name': 'Texas', 'short_name': 'TX', 'types': ['administrative_area_level_1', 'political']}, {'long_name': 'United States', 'short_name': 'US', 'types': ['country', 'political']}, {'long_name': '77002', 'short_name': '77002', 'types': ['postal_code']}, {'long_name': '7726', 'short_name': '7726', 'types': ['postal_code_suffix']}], 'formatted_address': '1550 Leeland St, Houston, TX 77002, USA', 'geometry': {'location': {'lat': 29.7492073, 'lng': -95.3636403}, 'location_type': 'RANGE_INTERPOLATED', 'viewport': {'northeast': {'lat': 29.7505562802915, 'lng': -95.3622913197085}, 'southwest': {'lat': 29.7478583197085, 'lng': -95.36498928029151}}}, 'place_id': 'EicxNTUwIExlZWxhbmQgU3QsIEhvdXN0b24sIFRYIDc3MDAyLCBVU0EiGxIZChQKEgkxZ9rgF79AhhHwTbLppnJzXRCODA', 'types': ['street_address']}]"
2016-05-09 03:00:00,1A10,1500-1599,ST JOSEPH,Aggravated Assault,apartment,1,3,9,Monday,May,2016,1550,1550 ST JOSEPH,"[{'address_components': [{'long_name': '1550', 'short_name': '1550', 'types': ['street_number']}, {'long_name': 'Saint Joseph Parkway', 'short_name': 'St Joseph Pkwy', 'types': ['route']}, {'long_name': 'Downtown', 'short_name': 'Downtown', 'types': ['neighborhood', 'political']}, {'long_name': 'Houston', 'short_name': 'Houston', 'types': ['locality', 'political']}, {'long_name': 'Harris County', 'short_name': 'Harris County', 'types': ['administrative_area_level_2', 'political']}, {'long_name': 'Texas', 'short_name': 'TX', 'types': ['administrative_area_level_1', 'political']}, {'long_name': 'United States', 'short_name': 'US', 'types': ['country', 'political']}, {'long_name': '77002', 'short_name': '77002', 'types': ['postal_code']}], 'formatted_address': '1550 St Joseph Pkwy, Houston, TX 77002, USA', 'geometry': {'location': {'lat': 29.7473566, 'lng': -95.3655204}, 'location_type': 'RANGE_INTERPOLATED', 'viewport': {'northeast': {'lat': 29.7487055802915, 'lng': -95.36417141970848}, 'southwest': {'lat': 29.7460076197085, 'lng': -95.3668693802915}}}, 'place_id': 'EisxNTUwIFN0IEpvc2VwaCBQa3d5LCBIb3VzdG9uLCBUWCA3NzAwMiwgVVNBIhsSGQoUChIJaThXURa_QIYRu-OEE7zy6QsQjgw', 'types': ['street_address']}]"
2016-05-09 09:00:00,1A10,200-299,JACKSON,Theft,commercial parking lot or garage,1,9,9,Monday,May,2016,250,250 JACKSON,"[{'address_components': [{'long_name': '250', 'short_name': '250', 'types': ['street_number']}, {'long_name': 'Jackson Street', 'short_name': 'Jackson St', 'types': ['route']}, {'long_name': 'Downtown', 'short_name': 'Downtown', 'types': ['neighborhood', 'political']}, {'long_name': 'Houston', 'short_name': 'Houston', 'types': ['locality', 'political']}, {'long_name': 'Harris County', 'short_name': 'Harris County', 'types': ['administrative_area_level_2', 'political']}, {'long_name': 'Texas', 'short_name': 'TX', 'types': ['administrative_area_level_1', 'political']}, {'long_name': 'United States', 'short_name': 'US', 'types': ['country', 'political']}, {'long_name': '77002', 'short_name': '77002', 'types': ['postal_code']}], 'formatted_address': '250 Jackson St, Houston, TX 77002, USA', 'geometry': {'location': {'lat': 29.7589708, 'lng': -95.35440849999999}, 'location_type': 'RANGE_INTERPOLATED', 'viewport': {'northeast': {'lat': 29.7603197802915, 'lng': -95.35305951970848}, 'southwest': {'lat': 29.7576218197085, 'lng': -95.35575748029149}}}, 'place_id': 'EiYyNTAgSmFja3NvbiBTdCwgSG91c3RvbiwgVFggNzcwMDIsIFVTQSIbEhkKFAoSCR-eBaonv0CGET_GaO-lLwV0EPoB', 'types': ['street_address']}]"
2016-05-09 10:00:00,1A10,1200-1299,SMITH,Theft,other parking lot,1,10,9,Monday,May,2016,1250,1250 SMITH,"[{'address_components': [{'long_name': '1250', 'short_name': '1250', 'types': ['street_number']}, {'long_name': 'Smith Street', 'short_name': 'Smith St', 'types': ['route']}, {'long_name': 'Downtown', 'short_name': 'Downtown', 'types': ['neighborhood', 'political']}, {'long_name': 'Houston', 'short_name': 'Houston', 'types': ['locality', 'political']}, {'long_name': 'Harris County', 'short_name': 'Harris County', 'types': ['administrative_area_level_2', 'political']}, {'long_name': 'Texas', 'short_name': 'TX', 'types': ['administrative_area_level_1', 'political']}, {'long_name': 'United States', 'short_name': 'US', 'types': ['country', 'political']}, {'long_name': '77002', 'short_name': '77002', 'types': ['postal_code']}], 'formatted_address': '1250 Smith St, Houston, TX 77002, USA', 'geometry': {'location': {'lat': 29.7569692, 'lng': -95.3710629}, 'location_type': 'RANGE_INTERPOLATED', 'viewport': {'northeast': {'lat': 29.7583181802915, 'lng': -95.3697139197085}, 'southwest': {'lat': 29.7556202197085, 'lng': -95.37241188029151}}}, 'place_id': 'EiUxMjUwIFNtaXRoIFN0LCBIb3VzdG9uLCBUWCA3NzAwMiwgVVNBIhsSGQoUChIJO1umITm_QIYRtfNa5yPaGTUQ4gk', 'types': ['street_address']}]"
2016-05-09 11:00:00,1A10,1700-1799,SMITH,Rape,"parks and recreation, zoo, swimming pool",1,11,9,Monday,May,2016,1750,1750 SMITH,"[{'address_components': [{'long_name': '1750', 'short_name': '1750', 'types': ['street_number']}, {'long_name': 'Smith Street', 'short_name': 'Smith St', 'types': ['route']}, {'long_name': 'Downtown', 'short_name': 'Downtown', 'types': ['neighborhood', 'political']}, {'long_name': 'Houston', 'short_name': 'Houston', 'types': ['locality', 'political']}, {'long_name': 'Harris County', 'short_name': 'Harris County', 'types': ['administrative_area_level_2', 'political']}, {'long_name': 'Texas', 'short_name': 'TX', 'types': ['administrative_area_level_1', 'political']}, {'long_name': 'United States', 'short_name': 'US', 'types': ['country', 'political']}, {'long_name': '77002', 'short_name': '77002', 'types': ['postal_code']}, {'long_name': '7317', 'short_name': '7317', 'types': ['postal_code_suffix']}], 'formatted_address': '1750 Smith St, Houston, TX 77002, USA', 'geometry': {'location': {'lat': 29.7533271, 'lng': -95.3732807}, 'location_type': 'RANGE_INTERPOLATED', 'viewport': {'northeast': {'lat': 29.7546760802915, 'lng': -95.3719317197085}, 'southwest': {'lat': 29.7519781197085, 'lng': -95.3746296802915}}}, 'place_id': 'EiUxNzUwIFNtaXRoIFN0LCBIb3VzdG9uLCBUWCA3NzAwMiwgVVNBIhsSGQoUChIJaxK4Yz-_QIYRowFvyOwmeiMQ1g0', 'types': ['street_address']}]"
2016-05-09 16:00:00,1A10,1200-1299,MCKINNEY,Theft,office building,1,16,9,Monday,May,2016,1250,1250 MCKINNEY,"[{'address_components': [{'long_name': '1250', 'short_name': '1250', 'types': ['street_number']}, {'long_name': 'McKinney Street', 'short_name': 'McKinney St', 'types': ['route']}, {'long_name': 'Downtown', 'short_name': 'Downtown', 'types': ['neighborhood', 'political']}, {'long_name': 'Houston', 'short_name': 'Houston', 'types': ['locality', 'political']}, {'long_name': 'Harris County', 'short_name': 'Harris County', 'types': ['administrative_area_level_2', 'political']}, {'long_name': 'Texas', 'short_name': 'TX', 'types': ['administrative_area_level_1', 'political']}, {'long_name': 'United States', 'short_name': 'US', 'types': ['country', 'political']}, {'long_name': '77010', 'short_name': '77010', 'types': ['postal_code']}], 'formatted_address': '1250 McKinney St, Houston, TX 77010, USA', 'geometry': {'location': {'lat': 29.7554771, 'lng': -95.362471}, 'location_type': 'RANGE_INTERPOLATED', 'viewport': {'northeast': {'lat': 29.7568260802915, 'lng': -95.36112201970849}, 'southwest': {'lat': 29.7541281197085, 'lng': -95.3638199802915}}}, 'place_id': 'EigxMjUwIE1jS2lubmV5IFN0LCBIb3VzdG9uLCBUWCA3NzAxMCwgVVNBIhsSGQoUChIJObpCqjy_QIYRmP1m-HX3HOIQ4gk', 'types': ['street_address']}]"
2016-05-09 22:00:00,1A10,500-599,CRAWFORD,Theft,"stadium, sports arena, race track",1,22,9,Monday,May,2016,550,550 CRAWFORD,"[{'address_components': [{'long_name': '550', 'short_name': '550', 'types': ['street_number']}, {'long_name': 'Crawford Street', 'short_name': 'Crawford St', 'types': ['route']}, {'long_name': 'Downtown', 'short_name': 'Downtown', 'types': ['neighborhood', 'political']}, {'long_name': 'Houston', 'short_name': 'Houston', 'types': ['locality', 'political']}, {'long_name': 'Harris County', 'short_name': 'Harris County', 'types': ['administrative_area_level_2', 'political']}, {'long_name': 'Texas', 'short_name': 'TX', 'types': ['administrative_area_level_1', 'political']}, {'long_name': 'United States', 'short_name': 'US', 'types': ['country', 'political']}, {'long_name': '77002', 'short_name': '77002', 'types': ['postal_code']}, {'long_name': '2114', 'short_name': '2114', 'types': ['postal_code_suffix']}], 'formatted_address': '550 Crawford St, Houston, TX 77002, USA', 'geometry': {'location': {'lat': 29.7572247, 'lng': -95.3570721}, 'location_type': 'RANGE_INTERPOLATED', 'viewport': {'northeast': {'lat': 29.7585736802915, 'lng': -95.35572311970849}, 'southwest': {'lat': 29.7558757197085, 'lng': -95.3584210802915}}}, 'place_id': 'Eic1NTAgQ3Jhd2ZvcmQgU3QsIEhvdXN0b24sIFRYIDc3MDAyLCBVU0EiGxIZChQKEgl39p2hJr9AhhH39YMi7NOzWhCmBA', 'types': ['street_address']}]"
2016-05-09 22:00:00,1A10,1300-1399,MCKINNEY,Theft,office building,1,22,9,Monday,May,2016,1350,1350 MCKINNEY,"[{'address_components': [{'long_name': '1350', 'short_name': '1350', 'types': ['street_number']}, {'long_name': 'McKinney Street', 'short_name': 'McKinney St', 'types': ['route']}, {'long_name': 'Downtown', 'short_name': 'Downtown', 'types': ['neighborhood', 'political']}, {'long_name': 'Houston', 'short_name': 'Houston', 'types': ['locality', 'political']}, {'long_name': 'Harris County', 'short_name': 'Harris County', 'types': ['administrative_area_level_2', 'political']}, {'long_name': 'Texas', 'short_name': 'TX', 'types': ['administrative_area_level_1', 'political']}, {'long_name': 'United States', 'short_name': 'US', 'types': ['country', 'political']}, {'long_name': '77010', 'short_name': '77010', 'types': ['postal_code']}], 'formatted_address': '1350 McKinney St, Houston, TX 77010, USA', 'geometry': {'location': {'lat': 29.7546203, 'lng': -95.3619866}, 'location_type': 'RANGE_INTERPOLATED', 'viewport': {'northeast': {'lat': 29.7559692802915, 'lng': -95.3606376197085}, 'southwest': {'lat': 29.7532713197085, 'lng': -95.3633355802915}}}, 'place_id': 'EigxMzUwIE1jS2lubmV5IFN0LCBIb3VzdG9uLCBUWCA3NzAxMCwgVVNBIhsSGQoUChIJv5igWiO_QIYR43MPqYMBOAwQxgo', 'types': ['street_address']}]"
2016-05-10 07:00:00,1A10,100-199,LA BRANCH,Theft,road/street/sidewalk,1,7,10,Tuesday,May,2016,150,150 LA BRANCH,"[{'address_components': [{'long_name': '150', 'short_name': '150', 'types': ['street_number']}, {'long_name': 'La Branch Street', 'short_name': 'La Branch St', 'types': ['route']}, {'long_name': 'Downtown', 'short_name': 'Downtown', 'types': ['neighborhood', 'political']}, {'long_name': 'Houston', 'short_name': 'Houston', 'types': ['locality', 'political']}, {'long_name': 'Harris County', 'short_name': 'Harris County', 'types': ['administrative_area_level_2', 'political']}, {'long_name': 'Texas', 'short_name': 'TX', 'types': ['administrative_area_level_1', 'political']}, {'long_name': 'United States', 'short_name': 'US', 'types': ['country', 'political']}, {'long_name': '77002', 'short_name': '77002', 'types': ['postal_code']}], 'formatted_address': '150 La Branch St, Houston, TX 77002, USA', 'geometry': {'location': {'lat': 29.760626, 'lng': -95.356}, 'location_type': 'RANGE_INTERPOLATED', 'viewport': {'northeast': {'lat': 29.7619749802915, 'lng': -95.35465101970848}, 'southwest': {'lat': 29.7592770197085, 'lng': -95.3573489802915}}}, 'place_id': 'EigxNTAgTGEgQnJhbmNoIFN0LCBIb3VzdG9uLCBUWCA3NzAwMiwgVVNBIhsSGQoUChIJhYjMOya_QIYRFID4Nx5XfzcQlgE', 'types': ['street_address']}]"
2016-05-10 11:00:00,1A10,1500-1599,PEASE,Theft,commercial parking lot or garage,1,11,10,Tuesday,May,2016,1550,1550 PEASE,"[{'address_components': [{'long_name': '1550', 'short_name': '1550', 'types': ['street_number']}, {'long_name': 'Pease Street', 'short_name': 'Pease St', 'types': ['route']}, {'long_name': 'Downtown', 'short_name': 'Downtown', 'types': ['neighborhood', 'political']}, {'long_name': 'Houston', 'short_name': 'Houston', 'types': ['locality', 'political']}, {'long_name': 'Harris County', 'short_name': 'Harris County', 'types': ['administrative_area_level_2', 'political']}, {'long_name': 'Texas', 'short_name': 'TX', 'types': ['administrative_area_level_1', 'political']}, {'long_name': 'United States', 'short_name': 'US', 'types': ['country', 'political']}, {'long_name': '77002', 'short_name': '77002', 'types': ['postal_code']}], 'formatted_address': '1550 Pease St, Houston, TX 77002, USA', 'geometry': {'location': {'lat': 29.748455, 'lng': -95.36446839999999}, 'location_type': 'RANGE_INTERPOLATED', 'viewport': {'northeast': {'lat': 29.7498039802915, 'lng': -95.3631194197085}, 'southwest': {'lat': 29.7471060197085, 'lng': -95.3658173802915}}}, 'place_id': 'EiUxNTUwIFBlYXNlIFN0LCBIb3VzdG9uLCBUWCA3NzAwMiwgVVNBIhsSGQoUChIJ8_sxxBe_QIYRGwHe50qaDiQQjgw', 'types': ['street_address']}]"
2016-05-10 11:00:00,1A10,900-999,BAGBY,Theft,other parking lot,1,11,10,Tuesday,May,2016,950,950 BAGBY,"[{'address_components': [{'long_name': '950', 'short_name': '950', 'types': ['street_number']}, {'long_name': 'Bagby Street', 'short_name': 'Bagby St', 'types': ['route']}, {'long_name': 'Downtown', 'short_name': 'Downtown', 'types': ['neighborhood', 'political']}, {'long_name': 'Houston', 'short_name': 'Houston', 'types': ['locality', 'political']}, {'long_name': 'Harris County', 'short_name': 'Harris County', 'types': ['administrative_area_level_2', 'political']}, {'long_name': 'Texas', 'short_name': 'TX', 'types': ['administrative_area_level_1', 'political']}, {'long_name': 'United States', 'short_name': 'US', 'types': ['country', 'political']}, {'long_name': '77002', 'short_name': '77002', 'types': ['postal_code']}], 'formatted_address': '950 Bagby St, Houston, TX 77002, USA', 'geometry': {'location': {'lat': 29.7601946, 'lng': -95.3699877}, 'location_type': 'RANGE_INTERPOLATED', 'viewport': {'northeast': {'lat': 29.76154358029149, 'lng': -95.36863871970849}, 'southwest': {'lat': 29.7588456197085, 'lng': -95.37133668029149}}}, 'place_id': 'EiQ5NTAgQmFnYnkgU3QsIEhvdXN0b24sIFRYIDc3MDAyLCBVU0EiGxIZChQKEgmFBufOOb9AhhGMxpF8yoTsbhC2Bw', 'types': ['street_address']}]"
2016-05-10 13:00:00,1A10,1500-1599,RUSK,Theft,other parking lot,1,13,10,Tuesday,May,2016,1550,1550 RUSK,"[{'address_components': [{'long_name': '1550', 'short_name': '1550', 'types': ['street_number']}, {'long_name': 'Rusk Street', 'short_name': 'Rusk St', 'types': ['route']}, {'long_name': 'Downtown', 'short_name': 'Downtown', 'types': ['neighborhood', 'political']}, {'long_name': 'Houston', 'short_name': 'Houston', 'types': ['locality', 'political']}, {'long_name': 'Harris County', 'short_name': 'Harris County', 'types': ['administrative_area_level_2', 'political']}, {'long_name': 'Texas', 'short_name': 'TX', 'types': ['administrative_area_level_1', 'political']}, {'long_name': 'United States', 'short_name': 'US', 'types': ['country', 'political']}, {'long_name': '77010', 'short_name': '77010', 'types': ['postal_code']}], 'formatted_address': '1550 Rusk St, Houston, TX 77010, USA', 'geometry': {'location': {'lat': 29.7556698, 'lng': -95.3591399}, 'location_type': 'RANGE_INTERPOLATED', 'viewport': {'northeast': {'lat': 29.7570187802915, 'lng': -95.3577909197085}, 'southwest': {'lat': 29.7543208197085, 'lng': -95.36048888029151}}}, 'place_id': 'EiQxNTUwIFJ1c2sgU3QsIEhvdXN0b24sIFRYIDc3MDEwLCBVU0EiGxIZChQKEgkfam6MI79AhhH_k5yX79C0DxCODA', 'types': ['street_address']}]"
2016-05-10 13:00:00,1A10,1600-1699,PEASE,Auto Theft,bar or night club,1,13,10,Tuesday,May,2016,1650,1650 PEASE,"[{'address_components': [{'long_name': '1650', 'short_name': '1650', 'types': ['street_number']}, {'long_name': 'Pease Street', 'short_name': 'Pease St', 'types': ['route']}, {'long_name': 'Downtown', 'short_name': 'Downtown', 'types': ['neighborhood', 'political']}, {'long_name': 'Houston', 'short_name': 'Houston', 'types': ['locality', 'political']}, {'long_name': 'Harris County', 'short_name': 'Harris County', 'types': ['administrative_area_level_2', 'political']}, {'long_name': 'Texas', 'short_name': 'TX', 'types': ['administrative_area_level_1', 'political']}, {'long_name': 'United States', 'short_name': 'US', 'types': ['country', 'political']}, {'long_name': '77003', 'short_name': '77003', 'types': ['postal_code']}], 'formatted_address': '1650 Pease St, Houston, TX 77003, USA', 'geometry': {'location': {'lat': 29.7479534, 'lng': -95.36337189999999}, 'location_type': 'RANGE_INTERPOLATED', 'viewport': {'northeast': {'lat': 29.7493023802915, 'lng': -95.36202291970848}, 'southwest': {'lat': 29.7466044197085, 'lng': -95.36472088029149}}}, 'place_id': 'EiUxNjUwIFBlYXNlIFN0LCBIb3VzdG9uLCBUWCA3NzAwMywgVVNBIhsSGQoUChIJqVpwkxe_QIYROLvOY2Y-jEQQ8gw', 'types': ['street_address']}]"
2016-05-10 13:00:00,1A10,500-599,MCKINNEY,Theft,no label,1,13,10,Tuesday,May,2016,550,550 MCKINNEY,"[{'address_components': [{'long_name': '550', 'short_name': '550', 'types': ['street_number']}, {'long_name': 'McKinney Street', 'short_name': 'McKinney St', 'types': ['route']}, {'long_name': 'Central Business District', 'short_name': 'Central Business District', 'types': ['neighborhood', 'political']}, {'long_name': 'Houston', 'short_name': 'Houston', 'types': ['locality', 'political']}, {'long_name': 'Harris County', 'short_name': 'Harris County', 'types': ['administrative_area_level_2', 'political']}, {'long_name': 'Texas', 'short_name': 'TX', 'types': ['administrative_area_level_1', 'political']}, {'long_name': 'United States', 'short_name': 'US', 'types': ['country', 'political']}, {'long_name': '77002', 'short_name': '77002', 'types': ['postal_code']}], 'formatted_address': '550 McKinney St, Houston, TX 77002, USA', 'geometry': {'bounds': {'northeast': {'lat': 29.7593251, 'lng': -95.36878899999999}, 'southwest': {'lat': 29.7585757, 'lng': -95.36951529999999}}, 'location': {'lat': 29.7588746, 'lng': -95.36913349999999}, 'location_type': 'ROOFTOP', 'viewport': {'northeast': {'lat': 29.7602993802915, 'lng': -95.3678031697085}, 'southwest': {'lat': 29.7576014197085, 'lng': -95.3705011302915}}}, 'place_id': 'ChIJ4YSOojm_QIYRALL01ZOQBxM', 'types': ['premise']}]"
2016-05-10 14:00:00,1A10,900-999,MAIN,Theft,specialty store (non-specific),1,14,10,Tuesday,May,2016,950,950 MAIN,"[{'address_components': [{'long_name': '950', 'short_name': '950', 'types': ['street_number']}, {'long_name': 'South Main Street', 'short_name': 'S Main St', 'types': ['route']}, {'long_name': 'Downtown', 'short_name': 'Downtown', 'types': ['neighborhood', 'political']}, {'long_name': 'Houston', 'short_name': 'Houston', 'types': ['locality', 'political']}, {'long_name': 'Harris County', 'short_name': 'Harris County', 'types': ['administrative_area_level_2', 'political']}, {'long_name': 'Texas', 'short_name': 'TX', 'types': ['administrative_area_level_1', 'political']}, {'long_name': 'United States', 'short_name': 'US', 'types': ['country', 'political']}, {'long_name': '77002', 'short_name': '77002', 'types': ['postal_code']}], 'formatted_address': '950 S Main St, Houston, TX 77002, USA', 'geometry': {'location': {'lat': 29.7574534, 'lng': -95.3648366}, 'location_type': 'RANGE_INTERPOLATED', 'viewport': {'northeast': {'lat': 29.7588023802915, 'lng': -95.36348761970851}, 'southwest': {'lat': 29.7561044197085, 'lng': -95.36618558029151}}}, 'place_id': 'EiU5NTAgUyBNYWluIFN0LCBIb3VzdG9uLCBUWCA3NzAwMiwgVVNBIhsSGQoUChIJ6S-hDTu_QIYRWoC7w-STXScQtgc', 'types': ['street_address']}]"
2016-05-10 17:00:00,1A10,1000-1099,AVENIDA DE LAS AMERI,Theft,convention center or exhibit halls,1,17,10,Tuesday,May,2016,1050,1050 AVENIDA DE LAS AMERI,"[{'address_components': [{'long_name': '1050', 'short_name': '1050', 'types': ['street_number']}, {'long_name': 'Avenida De Las Americas', 'short_name': 'Avenida De Las Americas', 'types': ['route']}, {'long_name': 'Downtown', 'short_name': 'Downtown', 'types': ['neighborhood', 'political']}, {'long_name': 'Houston', 'short_name': 'Houston', 'types': ['locality', 'political']}, {'long_name': 'Harris County', 'short_name': 'Harris County', 'types': ['administrative_area_level_2', 'political']}, {'long_name': 'Texas', 'short_name': 'TX', 'types': ['administrative_area_level_1', 'political']}, {'long_name': 'United States', 'short_name': 'US', 'types': ['country', 'political']}, {'long_name': '77010', 'short_name': '77010', 'types': ['postal_code']}], 'formatted_address': '1050 Avenida De Las Americas, Houston, TX 77010, USA', 'geometry': {'location': {'lat': 29.7520152, 'lng': -95.35918099999999}, 'location_type': 'RANGE_INTERPOLATED', 'viewport': {'northeast': {'lat': 29.7533641802915, 'lng': -95.35783201970848}, 'southwest': {'lat': 29.7506662197085, 'lng': -95.36052998029149}}}, 'place_id': 'EjQxMDUwIEF2ZW5pZGEgRGUgTGFzIEFtZXJpY2FzLCBIb3VzdG9uLCBUWCA3NzAxMCwgVVNBIhsSGQoUChIJeb1WQyK_QIYRDjCAfIqMDAcQmgg', 'types': ['street_address']}]"
2016-05-10 22:00:00,1A10,800-899,LA BRANCH,Theft,other parking lot,1,22,10,Tuesday,May,2016,850,850 LA BRANCH,"[{'address_components': [{'long_name': '850', 'short_name': '850', 'types': ['street_number']}, {'long_name': 'La Branch Street', 'short_name': 'La Branch St', 'types': ['route']}, {'long_name': 'Downtown', 'short_name': 'Downtown', 'types': ['neighborhood', 'political']}, {'long_name': 'Houston', 'short_name': 'Houston', 'types': ['locality', 'political']}, {'long_name': 'Harris County', 'short_name': 'Harris County', 'types': ['administrative_area_level_2', 'political']}, {'long_name': 'Texas', 'short_name': 'TX', 'types': ['administrative_area_level_1', 'political']}, {'long_name': 'United States', 'short_name': 'US', 'types': ['country', 'political']}, {'long_name': '77010', 'short_name': '77010', 'types': ['postal_code']}], 'formatted_address': '850 La Branch St, Houston, TX 77010, USA', 'geometry': {'location': {'lat': 29.75543829999999, 'lng': -95.3597692}, 'location_type': 'RANGE_INTERPOLATED', 'viewport': {'northeast': {'lat': 29.75678728029149, 'lng': -95.3584202197085}, 'southwest': {'lat': 29.75408931970849, 'lng': -95.36111818029151}}}, 'place_id': 'Eig4NTAgTGEgQnJhbmNoIFN0LCBIb3VzdG9uLCBUWCA3NzAxMCwgVVNBIhsSGQoUChIJ9-cygSO_QIYR9WPYAEFFVkoQ0gY', 'types': ['street_address']}]"
2016-05-11 12:00:00,1A10,1800-1899,MAIN,Auto Theft,"physician, doctor, dentist's office",1,12,11,Wednesday,May,2016,1850,1850 MAIN,"[{'address_components': [{'long_name': '1850', 'short_name': '1850', 'types': ['street_number']}, {'long_name': 'South Main Street', 'short_name': 'S Main St', 'types': ['route']}, {'long_name': 'Downtown', 'short_name': 'Downtown', 'types': ['neighborhood', 'political']}, {'long_name': 'Houston', 'short_name': 'Houston', 'types': ['locality', 'political']}, {'long_name': 'Harris County', 'short_name': 'Harris County', 'types': ['administrative_area_level_2', 'political']}, {'long_name': 'Texas', 'short_name': 'TX', 'types': ['administrative_area_level_1', 'political']}, {'long_name': 'United States', 'short_name': 'US', 'types': ['country', 'political']}, {'long_name': '77002', 'short_name': '77002', 'types': ['postal_code']}], 'formatted_address': '1850 S Main St, Houston, TX 77002, USA', 'geometry': {'location': {'lat': 29.7506311, 'lng': -95.37001479999999}, 'location_type': 'RANGE_INTERPOLATED', 'viewport': {'northeast': {'lat': 29.7519800802915, 'lng': -95.3686658197085}, 'southwest': {'lat': 29.7492821197085, 'lng': -95.3713637802915}}}, 'place_id': 'EiYxODUwIFMgTWFpbiBTdCwgSG91c3RvbiwgVFggNzcwMDIsIFVTQSIbEhkKFAoSCRlMDzE-v0CGEX52ptoFXa6kELoO', 'types': ['street_address']}]"
2016-05-11 12:00:00,1A10,200-299,SAN JACINTO,Auto Theft,road/street/sidewalk,1,12,11,Wednesday,May,2016,250,250 SAN JACINTO,"[{'address_components': [{'long_name': '250', 'short_name': '250', 'types': ['street_number']}, {'long_name': 'San Jacinto Street', 'short_name': 'San Jacinto St', 'types': ['route']}, {'long_name': 'Downtown', 'short_name': 'Downtown', 'types': ['neighborhood', 'political']}, {'long_name': 'Houston', 'short_name': 'Houston', 'types': ['locality', 'political']}, {'long_name': 'Harris County', 'short_name': 'Harris County', 'types': ['administrative_area_level_2', 'political']}, {'long_name': 'Texas', 'short_name': 'TX', 'types': ['administrative_area_level_1', 'political']}, {'long_name': 'United States', 'short_name': 'US', 'types': ['country', 'political']}, {'long_name': '77002', 'short_name': '77002', 'types': ['postal_code']}], 'formatted_address': '250 San Jacinto St, Houston, TX 77002, USA', 'geometry': {'location': {'lat': 29.7615551, 'lng': -95.35872979999999}, 'location_type': 'RANGE_INTERPOLATED', 'viewport': {'northeast': {'lat': 29.7629040802915, 'lng': -95.35738081970848}, 'southwest': {'lat': 29.7602061197085, 'lng': -95.3600787802915}}}, 'place_id': 'EioyNTAgU2FuIEphY2ludG8gU3QsIEhvdXN0b24sIFRYIDc3MDAyLCBVU0EiGxIZChQKEgmtLMKKJb9AhhEbfKDP0g-n7BD6AQ', 'types': ['street_address']}]"
2016-05-11 12:00:00,1A10,500-599,MCKINNEY,Theft,"libraries, museums",1,12,11,Wednesday,May,2016,550,550 MCKINNEY,"[{'address_components': [{'long_name': '550', 'short_name': '550', 'types': ['street_number']}, {'long_name': 'McKinney Street', 'short_name': 'McKinney St', 'types': ['route']}, {'long_name': 'Central Business District', 'short_name': 'Central Business District', 'types': ['neighborhood', 'political']}, {'long_name': 'Houston', 'short_name': 'Houston', 'types': ['locality', 'political']}, {'long_name': 'Harris County', 'short_name': 'Harris County', 'types': ['administrative_area_level_2', 'political']}, {'long_name': 'Texas', 'short_name': 'TX', 'types': ['administrative_area_level_1', 'political']}, {'long_name': 'United States', 'short_name': 'US', 'types': ['country', 'political']}, {'long_name': '77002', 'short_name': '77002', 'types': ['postal_code']}], 'formatted_address': '550 McKinney St, Houston, TX 77002, USA', 'geometry': {'bounds': {'northeast': {'lat': 29.7593251, 'lng': -95.36878899999999}, 'southwest': {'lat': 29.7585757, 'lng': -95.36951529999999}}, 'location': {'lat': 29.7588746, 'lng': -95.36913349999999}, 'location_type': 'ROOFTOP', 'viewport': {'northeast': {'lat': 29.7602993802915, 'lng': -95.3678031697085}, 'southwest': {'lat': 29.7576014197085, 'lng': -95.3705011302915}}}, 'place_id': 'ChIJ4YSOojm_QIYRALL01ZOQBxM', 'types': ['premise']}]"
2016-05-11 20:00:00,1A10,700-799,SAN JACINTO,Theft,other parking lot,1,20,11,Wednesday,May,2016,750,750 SAN JACINTO,"[{'address_components': [{'long_name': '750', 'short_name': '750', 'types': ['street_number']}, {'long_name': 'San Jacinto Street', 'short_name': 'San Jacinto St', 'types': ['route']}, {'long_name': 'Downtown', 'short_name': 'Downtown', 'types': ['neighborhood', 'political']}, {'long_name': 'Houston', 'short_name': 'Houston', 'types': ['locality', 'political']}, {'long_name': 'Harris County', 'short_name': 'Harris County', 'types': ['administrative_area_level_2', 'political']}, {'long_name': 'Texas', 'short_name': 'TX', 'types': ['administrative_area_level_1', 'political']}, {'long_name': 'United States', 'short_name': 'US', 'types': ['country', 'political']}, {'long_name': '77002', 'short_name': '77002', 'types': ['postal_code']}], 'formatted_address': '750 San Jacinto St, Houston, TX 77002, USA', 'geometry': {'location': {'lat': 29.757785, 'lng': -95.3621323}, 'location_type': 'RANGE_INTERPOLATED', 'viewport': {'northeast': {'lat': 29.7591339802915, 'lng': -95.36078331970849}, 'southwest': {'lat': 29.7564360197085, 'lng': -95.36348128029151}}}, 'place_id': 'Eio3NTAgU2FuIEphY2ludG8gU3QsIEhvdXN0b24sIFRYIDc3MDAyLCBVU0EiGxIZChQKEgnZvFPEJL9AhhGBrPE7EYxZfBDuBQ', 'types': ['street_address']}]"
2016-05-12 05:00:00,1A10,800-899,MAIN,Theft,airport terminal,1,5,12,Thursday,May,2016,850,850 MAIN,"[{'address_components': [{'long_name': '850', 'short_name': '850', 'types': ['street_number']}, {'long_name': 'South Main Street', 'short_name': 'S Main St', 'types': ['route']}, {'long_name': 'Downtown', 'short_name': 'Downtown', 'types': ['neighborhood', 'political']}, {'long_name': 'Houston', 'short_name': 'Houston', 'types': ['locality', 'political']}, {'long_name': 'Harris County', 'short_name': 'Harris County', 'types': ['administrative_area_level_2', 'political']}, {'long_name': 'Texas', 'short_name': 'TX', 'types': ['administrative_area_level_1', 'political']}, {'long_name': 'United States', 'short_name': 'US', 'types': ['country', 'political']}, {'long_name': '77002', 'short_name': '77002', 'types': ['postal_code']}], 'formatted_address': '850 S Main St, Houston, TX 77002, USA', 'geometry': {'location': {'lat': 29.758113, 'lng': -95.3646856}, 'location_type': 'RANGE_INTERPOLATED', 'viewport': {'northeast': {'lat': 29.7594619802915, 'lng': -95.36333661970849}, 'southwest': {'lat': 29.7567640197085, 'lng': -95.3660345802915}}}, 'place_id': 'EiU4NTAgUyBNYWluIFN0LCBIb3VzdG9uLCBUWCA3NzAwMiwgVVNBIhsSGQoUChIJoaV2Gju_QIYR2f6nySzwxd4Q0gY', 'types': ['street_address']}]"
2016-05-12 08:00:00,1A10,1200-1299,TRAVIS,Aggravated Assault,"other, unknown, or not listed",1,8,12,Thursday,May,2016,1250,1250 TRAVIS,"[{'address_components': [{'long_name': '1250', 'short_name': '1250', 'types': ['street_number']}, {'long_name': 'Travis Street', 'short_name': 'Travis St', 'types': ['route']}, {'long_name': 'Downtown', 'short_name': 'Downtown', 'types': ['neighborhood', 'political']}, {'long_name': 'Houston', 'short_name': 'Houston', 'types': ['locality', 'political']}, {'long_name': 'Harris County', 'short_name': 'Harris County', 'types': ['administrative_area_level_2', 'political']}, {'long_name': 'Texas', 'short_name': 'TX', 'types': ['administrative_area_level_1', 'political']}, {'long_name': 'United States', 'short_name': 'US', 'types': ['country', 'political']}, {'long_name': '77002', 'short_name': '77002', 'types': ['postal_code']}, {'long_name': '6001', 'short_name': '6001', 'types': ['postal_code_suffix']}], 'formatted_address': '1250 Travis St, Houston, TX 77002, USA', 'geometry': {'location': {'lat': 29.7555945, 'lng': -95.36767669999999}, 'location_type': 'RANGE_INTERPOLATED', 'viewport': {'northeast': {'lat': 29.7569434802915, 'lng': -95.36632771970848}, 'southwest': {'lat': 29.7542455197085, 'lng': -95.3690256802915}}}, 'place_id': 'EiYxMjUwIFRyYXZpcyBTdCwgSG91c3RvbiwgVFggNzcwMDIsIFVTQSIbEhkKFAoSCe-AY_g7v0CGEdKmXduT9Zk3EOIJ', 'types': ['street_address']}]"
2016-05-12 12:00:00,1A10,1100-1199,WALKER,Burglary,office building,1,12,12,Thursday,May,2016,1150,1150 WALKER,"[{'address_components': [{'long_name': '1150', 'short_name': '1150', 'types': ['street_number']}, {'long_name': 'Walker Street', 'short_name': 'Walker St', 'types': ['route']}, {'long_name': 'Downtown', 'short_name': 'Downtown', 'types': ['neighborhood', 'political']}, {'long_name': 'Houston', 'short_name': 'Houston', 'types': ['locality', 'political']}, {'long_name': 'Harris County', 'short_name': 'Harris County', 'types': ['administrative_area_level_2', 'political']}, {'long_name': 'Texas', 'short_name': 'TX', 'types': ['administrative_area_level_1', 'political']}, {'long_name': 'United States', 'short_name': 'US', 'types': ['country', 'political']}, {'long_name': '77002', 'short_name': '77002', 'types': ['postal_code']}], 'formatted_address': '1150 Walker St, Houston, TX 77002, USA', 'geometry': {'location': {'lat': 29.75690729999999, 'lng': -95.36302769999999}, 'location_type': 'RANGE_INTERPOLATED', 'viewport': {'northeast': {'lat': 29.75825628029149, 'lng': -95.3616787197085}, 'southwest': {'lat': 29.7555583197085, 'lng': -95.3643766802915}}}, 'place_id': 'EiYxMTUwIFdhbGtlciBTdCwgSG91c3RvbiwgVFggNzcwMDIsIFVTQSIbEhkKFAoSCROhVEk7v0CGEevbIjx31sL5EP4I', 'types': ['street_address']}]"
2016-05-12 12:00:00,1A10,400-499,FANNIN,Auto Theft,no label,1,12,12,Thursday,May,2016,450,450 FANNIN,"[{'address_components': [{'long_name': '450', 'short_name': '450', 'types': ['street_number']}, {'long_name': 'Fannin Street', 'short_name': 'Fannin St', 'types': ['route']}, {'long_name': 'Downtown', 'short_name': 'Downtown', 'types': ['neighborhood', 'political']}, {'long_name': 'Houston', 'short_name': 'Houston', 'types': ['locality', 'political']}, {'long_name': 'Harris County', 'short_name': 'Harris County', 'types': ['administrative_area_level_2', 'political']}, {'long_name': 'Texas', 'short_name': 'TX', 'types': ['administrative_area_level_1', 'political']}, {'long_name': 'United States', 'short_name': 'US', 'types': ['country', 'political']}, {'long_name': '77002', 'short_name': '77002', 'types': ['postal_code']}, {'long_name': '2018', 'short_name': '2018', 'types': ['postal_code_suffix']}], 'formatted_address': '450 Fannin St, Houston, TX 77002, USA', 'geometry': {'location': {'lat': 29.7605957, 'lng': -95.3607502}, 'location_type': 'RANGE_INTERPOLATED', 'viewport': {'northeast': {'lat': 29.7619446802915, 'lng': -95.35940121970849}, 'southwest': {'lat': 29.7592467197085, 'lng': -95.3620991802915}}}, 'place_id': 'EiU0NTAgRmFubmluIFN0LCBIb3VzdG9uLCBUWCA3NzAwMiwgVVNBIhsSGQoUChIJSyDfbyW_QIYRRHENNbkU0twQwgM', 'types': ['street_address']}]"
2016-05-12 14:00:00,1A10,500-599,SAN JACINTO,Robbery,road/street/sidewalk,1,14,12,Thursday,May,2016,550,550 SAN JACINTO,"[{'address_components': [{'long_name': '550', 'short_name': '550', 'types': ['street_number']}, {'long_name': 'San Jacinto Street', 'short_name': 'San Jacinto St', 'types': ['route']}, {'long_name': 'Downtown', 'short_name': 'Downtown', 'types': ['neighborhood', 'political']}, {'long_name': 'Houston', 'short_name': 'Houston', 'types': ['locality', 'political']}, {'long_name': 'Harris County', 'short_name': 'Harris County', 'types': ['administrative_area_level_2', 'political']}, {'long_name': 'Texas', 'short_name': 'TX', 'types': ['administrative_area_level_1', 'political']}, {'long_name': 'United States', 'short_name': 'US', 'types': ['country', 'political']}, {'long_name': '77002', 'short_name': '77002', 'types': ['postal_code']}], 'formatted_address': '550 San Jacinto St, Houston, TX 77002, USA', 'geometry': {'location': {'lat': 29.7592545, 'lng': -95.3609195}, 'location_type': 'RANGE_INTERPOLATED', 'viewport': {'northeast': {'lat': 29.7606034802915, 'lng': -95.35957051970848}, 'southwest': {'lat': 29.7579055197085, 'lng': -95.3622684802915}}}, 'place_id': 'Eio1NTAgU2FuIEphY2ludG8gU3QsIEhvdXN0b24sIFRYIDc3MDAyLCBVU0EiGxIZChQKEgkd_hkFJb9AhhFNVE_PWXUyQxCmBA', 'types': ['street_address']}]"
2016-05-12 17:00:00,1A10,1400-1499,LAMAR,Theft,other parking lot,1,17,12,Thursday,May,2016,1450,1450 LAMAR,"[{'address_components': [{'long_name': '1450', 'short_name': '1450', 'types': ['street_number']}, {'long_name': 'Lamar Street', 'short_name': 'Lamar St', 'types': ['route']}, {'long_name': 'Downtown', 'short_name': 'Downtown', 'types': ['neighborhood', 'political']}, {'long_name': 'Houston', 'short_name': 'Houston', 'types': ['locality', 'political']}, {'long_name': 'Harris County', 'short_name': 'Harris County', 'types': ['administrative_area_level_2', 'political']}, {'long_name': 'Texas', 'short_name': 'TX', 'types': ['administrative_area_level_1', 'political']}, {'long_name': 'United States', 'short_name': 'US', 'types': ['country', 'political']}, {'long_name': '77010', 'short_name': '77010', 'types': ['postal_code']}], 'formatted_address': '1450 Lamar St, Houston, TX 77010, USA', 'geometry': {'location': {'lat': 29.7537834, 'lng': -95.3616971}, 'location_type': 'RANGE_INTERPOLATED', 'viewport': {'northeast': {'lat': 29.7551323802915, 'lng': -95.36034811970849}, 'southwest': {'lat': 29.7524344197085, 'lng': -95.36304608029151}}}, 'place_id': 'EiUxNDUwIExhbWFyIFN0LCBIb3VzdG9uLCBUWCA3NzAxMCwgVVNBIhsSGQoUChIJcaSWOyO_QIYRAcdeB9GIXW4Qqgs', 'types': ['street_address']}]"
2016-05-12 20:00:00,1A10,1200-1299,PRAIRIE,Aggravated Assault,road/street/sidewalk,1,20,12,Thursday,May,2016,1250,1250 PRAIRIE,"[{'address_components': [{'long_name': '1250', 'short_name': '1250', 'types': ['street_number']}, {'long_name': 'Prairie Street', 'short_name': 'Prairie St', 'types': ['route']}, {'long_name': 'Downtown', 'short_name': 'Downtown', 'types': ['neighborhood', 'political']}, {'long_name': 'Houston', 'short_name': 'Houston', 'types': ['locality', 'political']}, {'long_name': 'Harris County', 'short_name': 'Harris County', 'types': ['administrative_area_level_2', 'political']}, {'long_name': 'Texas', 'short_name': 'TX', 'types': ['administrative_area_level_1', 'political']}, {'long_name': 'United States', 'short_name': 'US', 'types': ['country', 'political']}, {'long_name': '77002', 'short_name': '77002', 'types': ['postal_code']}, {'long_name': '2008', 'short_name': '2008', 'types': ['postal_code_suffix']}], 'formatted_address': '1250 Prairie St, Houston, TX 77002, USA', 'geometry': {'location': {'lat': 29.7590639, 'lng': -95.35978610000001}, 'location_type': 'RANGE_INTERPOLATED', 'viewport': {'northeast': {'lat': 29.7604128802915, 'lng': -95.35843711970851}, 'southwest': {'lat': 29.7577149197085, 'lng': -95.36113508029152}}}, 'place_id': 'EicxMjUwIFByYWlyaWUgU3QsIEhvdXN0b24sIFRYIDc3MDAyLCBVU0EiGxIZChQKEgmvGoaoJb9AhhGlgh4vUcgk4BDiCQ', 'types': ['street_address']}]"
2016-05-12 21:00:00,1A10,1600-1699,LEELAND,Theft,restaurant/cafeteria parking lot,1,21,12,Thursday,May,2016,1650,1650 LEELAND,"[{'address_components': [{'long_name': '1650', 'short_name': '1650', 'types': ['street_number']}, {'long_name': 'Leeland Street', 'short_name': 'Leeland St', 'types': ['route']}, {'long_name': 'Downtown', 'short_name': 'Downtown', 'types': ['neighborhood', 'political']}, {'long_name': 'Houston', 'short_name': 'Houston', 'types': ['locality', 'political']}, {'long_name': 'Harris County', 'short_name': 'Harris County', 'types': ['administrative_area_level_2', 'political']}, {'long_name': 'Texas', 'short_name': 'TX', 'types': ['administrative_area_level_1', 'political']}, {'long_name': 'United States', 'short_name': 'US', 'types': ['country', 'political']}, {'long_name': '77003', 'short_name': '77003', 'types': ['postal_code']}, {'long_name': '5032', 'short_name': '5032', 'types': ['postal_code_suffix']}], 'formatted_address': '1650 Leeland St, Houston, TX 77003, USA', 'geometry': {'location': {'lat': 29.7487897, 'lng': -95.36286849999999}, 'location_type': 'RANGE_INTERPOLATED', 'viewport': {'northeast': {'lat': 29.7501386802915, 'lng': -95.36151951970848}, 'southwest': {'lat': 29.7474407197085, 'lng': -95.3642174802915}}}, 'place_id': 'EicxNjUwIExlZWxhbmQgU3QsIEhvdXN0b24sIFRYIDc3MDAzLCBVU0EiGxIZChQKEgnPnS33F79AhhHvz8hY9dgtdxDyDA', 'types': ['street_address']}]"
2016-05-13 01:00:00,1A10,900-999,MCKEE,Theft,road/street/sidewalk,1,1,13,Friday,May,2016,950,950 MCKEE,"[{'address_components': [{'long_name': '950', 'short_name': '950', 'types': ['street_number']}, {'long_name': 'McKee Street', 'short_name': 'McKee St', 'types': ['route']}, {'long_name': 'Downtown', 'short_name': 'Downtown', 'types': ['neighborhood', 'political']}, {'long_name': 'Houston', 'short_name': 'Houston', 'types': ['locality', 'political']}, {'long_name': 'Harris County', 'short_name': 'Harris County', 'types': ['administrative_area_level_2', 'political']}, {'long_name': 'Texas', 'short_name': 'TX', 'types': ['administrative_area_level_1', 'political']}, {'long_name': 'United States', 'short_name': 'US', 'types': ['country', 'political']}, {'long_name': '77002', 'short_name': '77002', 'types': ['postal_code']}], 'formatted_address': '950 McKee St, Houston, TX 77002, USA', 'geometry': {'location': {'lat': 29.7694956, 'lng': -95.352081}, 'location_type': 'RANGE_INTERPOLATED', 'viewport': {'northeast': {'lat': 29.7708445802915, 'lng': -95.35073201970849}, 'southwest': {'lat': 29.7681466197085, 'lng': -95.3534299802915}}}, 'place_id': 'EiQ5NTAgTWNLZWUgU3QsIEhvdXN0b24sIFRYIDc3MDAyLCBVU0EiGxIZChQKEgmfuweK1b5AhhGYBdmtzWKdkRC2Bw', 'types': ['street_address']}]"
2016-05-13 05:00:00,1A10,1500-1599,ST JOSEPH,Rape,apartment,1,5,13,Friday,May,2016,1550,1550 ST JOSEPH,"[{'address_components': [{'long_name': '1550', 'short_name': '1550', 'types': ['street_number']}, {'long_name': 'Saint Joseph Parkway', 'short_name': 'St Joseph Pkwy', 'types': ['route']}, {'long_name': 'Downtown', 'short_name': 'Downtown', 'types': ['neighborhood', 'political']}, {'long_name': 'Houston', 'short_name': 'Houston', 'types': ['locality', 'political']}, {'long_name': 'Harris County', 'short_name': 'Harris County', 'types': ['administrative_area_level_2', 'political']}, {'long_name': 'Texas', 'short_name': 'TX', 'types': ['administrative_area_level_1', 'political']}, {'long_name': 'United States', 'short_name': 'US', 'types': ['country', 'political']}, {'long_name': '77002', 'short_name': '77002', 'types': ['postal_code']}], 'formatted_address': '1550 St Joseph Pkwy, Houston, TX 77002, USA', 'geometry': {'location': {'lat': 29.7473566, 'lng': -95.3655204}, 'location_type': 'RANGE_INTERPOLATED', 'viewport': {'northeast': {'lat': 29.7487055802915, 'lng': -95.36417141970848}, 'southwest': {'lat': 29.7460076197085, 'lng': -95.3668693802915}}}, 'place_id': 'EisxNTUwIFN0IEpvc2VwaCBQa3d5LCBIb3VzdG9uLCBUWCA3NzAwMiwgVVNBIhsSGQoUChIJaThXURa_QIYRu-OEE7zy6QsQjgw', 'types': ['street_address']}]"
2016-05-13 08:00:00,1A10,900-999,MAIN,Theft,convenience store,1,8,13,Friday,May,2016,950,950 MAIN,"[{'address_components': [{'long_name': '950', 'short_name': '950', 'types': ['street_number']}, {'long_name': 'South Main Street', 'short_name': 'S Main St', 'types': ['route']}, {'long_name': 'Downtown', 'short_name': 'Downtown', 'types': ['neighborhood', 'political']}, {'long_name': 'Houston', 'short_name': 'Houston', 'types': ['locality', 'political']}, {'long_name': 'Harris County', 'short_name': 'Harris County', 'types': ['administrative_area_level_2', 'political']}, {'long_name': 'Texas', 'short_name': 'TX', 'types': ['administrative_area_level_1', 'political']}, {'long_name': 'United States', 'short_name': 'US', 'types': ['country', 'political']}, {'long_name': '77002', 'short_name': '77002', 'types': ['postal_code']}], 'formatted_address': '950 S Main St, Houston, TX 77002, USA', 'geometry': {'location': {'lat': 29.7574534, 'lng': -95.3648366}, 'location_type': 'RANGE_INTERPOLATED', 'viewport': {'northeast': {'lat': 29.7588023802915, 'lng': -95.36348761970851}, 'southwest': {'lat': 29.7561044197085, 'lng': -95.36618558029151}}}, 'place_id': 'EiU5NTAgUyBNYWluIFN0LCBIb3VzdG9uLCBUWCA3NzAwMiwgVVNBIhsSGQoUChIJ6S-hDTu_QIYRWoC7w-STXScQtgc', 'types': ['street_address']}]"
2016-05-13 09:00:00,1A10,400-499,LOUISIANA,Theft,other parking lot,1,9,13,Friday,May,2016,450,450 LOUISIANA,"[{'address_components': [{'long_name': '450', 'short_name': '450', 'types': ['street_number']}, {'long_name': 'Louisiana Street', 'short_name': 'Louisiana St', 'types': ['route']}, {'long_name': 'Downtown', 'short_name': 'Downtown', 'types': ['neighborhood', 'political']}, {'long_name': 'Houston', 'short_name': 'Houston', 'types': ['locality', 'political']}, {'long_name': 'Harris County', 'short_name': 'Harris County', 'types': ['administrative_area_level_2', 'political']}, {'long_name': 'Texas', 'short_name': 'TX', 'types': ['administrative_area_level_1', 'political']}, {'long_name': 'United States', 'short_name': 'US', 'types': ['country', 'political']}, {'long_name': '77002', 'short_name': '77002', 'types': ['postal_code']}], 'formatted_address': '450 Louisiana St, Houston, TX 77002, USA', 'geometry': {'location': {'lat': 29.7625424, 'lng': -95.36451939999999}, 'location_type': 'RANGE_INTERPOLATED', 'viewport': {'northeast': {'lat': 29.7638913802915, 'lng': -95.3631704197085}, 'southwest': {'lat': 29.7611934197085, 'lng': -95.3658683802915}}}, 'place_id': 'Eig0NTAgTG91aXNpYW5hIFN0LCBIb3VzdG9uLCBUWCA3NzAwMiwgVVNBIhsSGQoUChIJxdVkaTC_QIYR84ot0WsahhUQwgM', 'types': ['street_address']}]"
2016-05-13 10:00:00,1A10,1300-1399,FANNIN,Auto Theft,commercial parking lot or garage,1,10,13,Friday,May,2016,1350,1350 FANNIN,"[{'address_components': [{'long_name': '1350', 'short_name': '1350', 'types': ['street_number']}, {'long_name': 'Fannin Street', 'short_name': 'Fannin St', 'types': ['route']}, {'long_name': 'Downtown', 'short_name': 'Downtown', 'types': ['neighborhood', 'political']}, {'long_name': 'Houston', 'short_name': 'Houston', 'types': ['locality', 'political']}, {'long_name': 'Harris County', 'short_name': 'Harris County', 'types': ['administrative_area_level_2', 'political']}, {'long_name': 'Texas', 'short_name': 'TX', 'types': ['administrative_area_level_1', 'political']}, {'long_name': 'United States', 'short_name': 'US', 'types': ['country', 'political']}, {'long_name': '77002', 'short_name': '77002', 'types': ['postal_code']}], 'formatted_address': '1350 Fannin St, Houston, TX 77002, USA', 'geometry': {'location': {'lat': 29.7537048, 'lng': -95.36633259999999}, 'location_type': 'RANGE_INTERPOLATED', 'viewport': {'northeast': {'lat': 29.7550537802915, 'lng': -95.3649836197085}, 'southwest': {'lat': 29.7523558197085, 'lng': -95.3676815802915}}}, 'place_id': 'EiYxMzUwIEZhbm5pbiBTdCwgSG91c3RvbiwgVFggNzcwMDIsIFVTQSIbEhkKFAoSCXV5-EM8v0CGEe8un4acbB9lEMYK', 'types': ['street_address']}]"
2016-05-13 12:00:00,1A10,1000-1099,CONGRESS,Auto Theft,commercial parking lot or garage,1,12,13,Friday,May,2016,1050,1050 CONGRESS,"[{'address_components': [{'long_name': '1050', 'short_name': '1050', 'types': ['street_number']}, {'long_name': 'Congress Avenue', 'short_name': 'Congress Ave', 'types': ['route']}, {'long_name': 'Downtown', 'short_name': 'Downtown', 'types': ['neighborhood', 'political']}, {'long_name': 'Houston', 'short_name': 'Houston', 'types': ['locality', 'political']}, {'long_name': 'Harris County', 'short_name': 'Harris County', 'types': ['administrative_area_level_2', 'political']}, {'long_name': 'Texas', 'short_name': 'TX', 'types': ['administrative_area_level_1', 'political']}, {'long_name': 'United States', 'short_name': 'US', 'types': ['country', 'political']},