Date_Hour,Beat,BlockRange,StreetName,OffenseType,Premise,NumOffenses,Hour,day,weekday,month,year,block,address,tup_add
2016-03-06 01:00:00,10H40,4400-4499,FANNIN,Theft,other parking lot,1,1,6,Sunday,Mar,2016,4450,4450 FANNIN,"[{'address_components': [{'long_name': '4450', 'short_name': '4450', 'types': ['street_number']}, {'long_name': 'Fannin Street', 'short_name': 'Fannin St', 'types': ['route']}, {'long_name': 'South Central Houston', 'short_name': 'South Central Houston', 'types': ['neighborhood', 'political']}, {'long_name': 'Houston', 'short_name': 'Houston', 'types': ['locality', 'political']}, {'long_name': 'Harris County', 'short_name': 'Harris County', 'types': ['administrative_area_level_2', 'political']}, {'long_name': 'Texas', 'short_name': 'TX', 'types': ['administrative_area_level_1', 'political']}, {'long_name': 'United States', 'short_name': 'US', 'types': ['country', 'political']}, {'long_name': '77004', 'short_name': '77004', 'types': ['postal_code']}], 'formatted_address': '4450 Fannin St, Houston, TX 77004, USA', 'geometry': {'location': {'lat': 29.7330391, 'lng': -95.3829057}, 'location_type': 'RANGE_INTERPOLATED', 'viewport': {'northeast': {'lat': 29.7343880802915, 'lng': -95.38155671970848}, 'southwest': {'lat': 29.7316901197085, 'lng': -95.38425468029149}}}, 'place_id': 'EiY0NDUwIEZhbm5pbiBTdCwgSG91c3RvbiwgVFggNzcwMDQsIFVTQSIbEhkKFAoSCbm-Jbtwv0CGERpW5-tjrznVEOIi', 'types': ['street_address']}]"
2016-03-06 11:00:00,10H40,2400-2499,SAN JACINTO,Theft,bar or night club,1,11,6,Sunday,Mar,2016,2450,2450 SAN JACINTO,"[{'address_components': [{'long_name': '2450', 'short_name': '2450', 'types': ['street_number']}, {'long_name': 'San Jacinto Street', 'short_name': 'San Jacinto St', 'types': ['route']}, {'long_name': 'Central Business District', 'short_name': 'Central Business District', 'types': ['neighborhood', 'political']}, {'long_name': 'Houston', 'short_name': 'Houston', 'types': ['locality', 'political']}, {'long_name': 'Harris County', 'short_name': 'Harris County', 'types': ['administrative_area_level_2', 'political']}, {'long_name': 'Texas', 'short_name': 'TX', 'types': ['administrative_area_level_1', 'political']}, {'long_name': 'United States', 'short_name': 'US', 'types': ['country', 'political']}, {'long_name': '77002', 'short_name': '77002', 'types': ['postal_code']}], 'formatted_address': '2450 San Jacinto St, Houston, TX 77002, USA', 'geometry': {'location': {'lat': 29.7453066, 'lng': -95.371946}, 'location_type': 'RANGE_INTERPOLATED', 'viewport': {'northeast': {'lat': 29.7466555802915, 'lng': -95.37059701970848}, 'southwest': {'lat': 29.7439576197085, 'lng': -95.3732949802915}}}, 'place_id': 'EisyNDUwIFNhbiBKYWNpbnRvIFN0LCBIb3VzdG9uLCBUWCA3NzAwMiwgVVNBIhsSGQoUChIJjeDVvxS_QIYRql2XPdyj4GgQkhM', 'types': ['street_address']}]"
2016-03-06 12:00:00,10H40,2400-2499,SAN JACINTO,Theft,road/street/sidewalk,1,12,6,Sunday,Mar,2016,2450,2450 SAN JACINTO,"[{'address_components': [{'long_name': '2450', 'short_name': '2450', 'types': ['street_number']}, {'long_name': 'San Jacinto Street', 'short_name': 'San Jacinto St', 'types': ['route']}, {'long_name': 'Central Business District', 'short_name': 'Central Business District', 'types': ['neighborhood', 'political']}, {'long_name': 'Houston', 'short_name': 'Houston', 'types': ['locality', 'political']}, {'long_name': 'Harris County', 'short_name': 'Harris County', 'types': ['administrative_area_level_2', 'political']}, {'long_name': 'Texas', 'short_name': 'TX', 'types': ['administrative_area_level_1', 'political']}, {'long_name': 'United States', 'short_name': 'US', 'types': ['country', 'political']}, {'long_name': '77002', 'short_name': '77002', 'types': ['postal_code']}], 'formatted_address': '2450 San Jacinto St, Houston, TX 77002, USA', 'geometry': {'location': {'lat': 29.7453066, 'lng': -95.371946}, 'location_type': 'RANGE_INTERPOLATED', 'viewport': {'northeast': {'lat': 29.7466555802915, 'lng': -95.37059701970848}, 'southwest': {'lat': 29.7439576197085, 'lng': -95.3732949802915}}}, 'place_id': 'EisyNDUwIFNhbiBKYWNpbnRvIFN0LCBIb3VzdG9uLCBUWCA3NzAwMiwgVVNBIhsSGQoUChIJjeDVvxS_QIYRql2XPdyj4GgQkhM', 'types': ['street_address']}]"
2016-03-07 17:00:00,10H40,1000-1099,ANITA,Theft,road/street/sidewalk,1,17,7,Monday,Mar,2016,1050,1050 ANITA,"[{'address_components': [{'long_name': '1050', 'short_name': '1050', 'types': ['street_number']}, {'long_name': 'Anita Street', 'short_name': 'Anita St', 'types': ['route']}, {'long_name': 'South Central Houston', 'short_name': 'South Central Houston', 'types': ['neighborhood', 'political']}, {'long_name': 'Houston', 'short_name': 'Houston', 'types': ['locality', 'political']}, {'long_name': 'Harris County', 'short_name': 'Harris County', 'types': ['administrative_area_level_2', 'political']}, {'long_name': 'Texas', 'short_name': 'TX', 'types': ['administrative_area_level_1', 'political']}, {'long_name': 'United States', 'short_name': 'US', 'types': ['country', 'political']}, {'long_name': '77004', 'short_name': '77004', 'types': ['postal_code']}], 'formatted_address': '1050 Anita St, Houston, TX 77004, USA', 'geometry': {'location': {'lat': 29.7420496, 'lng': -95.37557260000001}, 'location_type': 'RANGE_INTERPOLATED', 'viewport': {'northeast': {'lat': 29.7433985802915, 'lng': -95.37422361970852}, 'southwest': {'lat': 29.7407006197085, 'lng': -95.37692158029152}}}, 'place_id': 'EiUxMDUwIEFuaXRhIFN0LCBIb3VzdG9uLCBUWCA3NzAwNCwgVVNBIhsSGQoUChIJ4Q7kYWy_QIYRcD9G9Ui1DI4Qmgg', 'types': ['street_address']}]"
2016-03-08 00:00:00,10H40,2000-2099,FANNIN,Robbery,road/street/sidewalk,1,0,8,Tuesday,Mar,2016,2050,2050 FANNIN,"[{'address_components': [{'long_name': '2050', 'short_name': '2050', 'types': ['street_number']}, {'long_name': 'Fannin Street', 'short_name': 'Fannin St', 'types': ['route']}, {'long_name': 'Central Business District', 'short_name': 'Central Business District', 'types': ['neighborhood', 'political']}, {'long_name': 'Houston', 'short_name': 'Houston', 'types': ['locality', 'political']}, {'long_name': 'Harris County', 'short_name': 'Harris County', 'types': ['administrative_area_level_2', 'political']}, {'long_name': 'Texas', 'short_name': 'TX', 'types': ['administrative_area_level_1', 'political']}, {'long_name': 'United States', 'short_name': 'US', 'types': ['country', 'political']}, {'long_name': '77002', 'short_name': '77002', 'types': ['postal_code']}, {'long_name': '8805', 'short_name': '8805', 'types': ['postal_code_suffix']}], 'formatted_address': '2050 Fannin St, Houston, TX 77002, USA', 'geometry': {'location': {'lat': 29.7485196, 'lng': -95.3702982}, 'location_type': 'RANGE_INTERPOLATED', 'viewport': {'northeast': {'lat': 29.74986858029149, 'lng': -95.3689492197085}, 'southwest': {'lat': 29.7471706197085, 'lng': -95.3716471802915}}}, 'place_id': 'EiYyMDUwIEZhbm5pbiBTdCwgSG91c3RvbiwgVFggNzcwMDIsIFVTQSIbEhkKFAoSCcdib5wVv0CGEV77ToG5w6dNEIIQ', 'types': ['street_address']}]"
2016-03-08 04:00:00,10H40,3900-3999,AUSTIN,Burglary,residence/house,1,4,8,Tuesday,Mar,2016,3950,3950 AUSTIN,"[{'address_components': [{'long_name': '3950', 'short_name': '3950', 'types': ['street_number']}, {'long_name': 'Austin Street', 'short_name': 'Austin St', 'types': ['route']}, {'long_name': 'South Central Houston', 'short_name': 'South Central Houston', 'types': ['neighborhood', 'political']}, {'long_name': 'Houston', 'short_name': 'Houston', 'types': ['locality', 'political']}, {'long_name': 'Harris County', 'short_name': 'Harris County', 'types': ['administrative_area_level_2', 'political']}, {'long_name': 'Texas', 'short_name': 'TX', 'types': ['administrative_area_level_1', 'political']}, {'long_name': 'United States', 'short_name': 'US', 'types': ['country', 'political']}, {'long_name': '77004', 'short_name': '77004', 'types': ['postal_code']}, {'long_name': '4028', 'short_name': '4028', 'types': ['postal_code_suffix']}], 'formatted_address': '3950 Austin St, Houston, TX 77004, USA', 'geometry': {'location': {'lat': 29.734741, 'lng': -95.3776939}, 'location_type': 'RANGE_INTERPOLATED', 'viewport': {'northeast': {'lat': 29.7360899802915, 'lng': -95.3763449197085}, 'southwest': {'lat': 29.7333920197085, 'lng': -95.37904288029151}}}, 'place_id': 'EiYzOTUwIEF1c3RpbiBTdCwgSG91c3RvbiwgVFggNzcwMDQsIFVTQSIbEhkKFAoSCVvXlcxzv0CGEVvMw2XlbTXPEO4e', 'types': ['street_address']}]"
2016-03-08 09:00:00,10H40,2200-2299,LA BRANCH,Theft,other parking lot,1,9,8,Tuesday,Mar,2016,2250,2250 LA BRANCH,"[{'address_components': [{'long_name': '2250', 'short_name': '2250', 'types': ['street_number']}, {'long_name': 'La Branch Street', 'short_name': 'La Branch St', 'types': ['route']}, {'long_name': 'Central Business District', 'short_name': 'Central Business District', 'types': ['neighborhood', 'political']}, {'long_name': 'Houston', 'short_name': 'Houston', 'types': ['locality', 'political']}, {'long_name': 'Harris County', 'short_name': 'Harris County', 'types': ['administrative_area_level_2', 'political']}, {'long_name': 'Texas', 'short_name': 'TX', 'types': ['administrative_area_level_1', 'political']}, {'long_name': 'United States', 'short_name': 'US', 'types': ['country', 'political']}, {'long_name': '77002', 'short_name': '77002', 'types': ['postal_code']}, {'long_name': '8934', 'short_name': '8934', 'types': ['postal_code_suffix']}], 'formatted_address': '2250 La Branch St, Houston, TX 77002, USA', 'geometry': {'location': {'lat': 29.745083, 'lng': -95.36836699999999}, 'location_type': 'ROOFTOP', 'viewport': {'northeast': {'lat': 29.7464319802915, 'lng': -95.36701801970848}, 'southwest': {'lat': 29.7437340197085, 'lng': -95.36971598029149}}}, 'place_id': 'ChIJC4LzGRS_QIYR3ir-dd-c9QM', 'types': ['street_address']}]"
2016-03-08 15:00:00,10H40,4200-4299,SAN JACINTO,Theft,grocery store or supermarket,1,15,8,Tuesday,Mar,2016,4250,4250 SAN JACINTO,"[{'address_components': [{'long_name': '4250', 'short_name': '4250', 'types': ['street_number']}, {'long_name': 'San Jacinto Street', 'short_name': 'San Jacinto St', 'types': ['route']}, {'long_name': 'South Central Houston', 'short_name': 'South Central Houston', 'types': ['neighborhood', 'political']}, {'long_name': 'Houston', 'short_name': 'Houston', 'types': ['locality', 'political']}, {'long_name': 'Harris County', 'short_name': 'Harris County', 'types': ['administrative_area_level_2', 'political']}, {'long_name': 'Texas', 'short_name': 'TX', 'types': ['administrative_area_level_1', 'political']}, {'long_name': 'United States', 'short_name': 'US', 'types': ['country', 'political']}, {'long_name': '77004', 'short_name': '77004', 'types': ['postal_code']}, {'long_name': '4853', 'short_name': '4853', 'types': ['postal_code_suffix']}], 'formatted_address': '4250 San Jacinto St, Houston, TX 77004, USA', 'geometry': {'location': {'lat': 29.733958, 'lng': -95.3806013}, 'location_type': 'RANGE_INTERPOLATED', 'viewport': {'northeast': {'lat': 29.7353069802915, 'lng': -95.3792523197085}, 'southwest': {'lat': 29.7326090197085, 'lng': -95.3819502802915}}}, 'place_id': 'Eis0MjUwIFNhbiBKYWNpbnRvIFN0LCBIb3VzdG9uLCBUWCA3NzAwNCwgVVNBIhsSGQoUChIJjYyQHHG_QIYR6W6JtYfpoMkQmiE', 'types': ['street_address']}]"
2016-03-09 04:00:00,10H40,2600-2699,TRAVIS,Burglary,restaurant or cafeteria,1,4,9,Wednesday,Mar,2016,2650,2650 TRAVIS,"[{'address_components': [{'long_name': '2650', 'short_name': '2650', 'types': ['street_number']}, {'long_name': 'Travis Street', 'short_name': 'Travis St', 'types': ['route']}, {'long_name': 'South Central Houston', 'short_name': 'South Central Houston', 'types': ['neighborhood', 'political']}, {'long_name': 'Houston', 'short_name': 'Houston', 'types': ['locality', 'political']}, {'long_name': 'Harris County', 'short_name': 'Harris County', 'types': ['administrative_area_level_2', 'political']}, {'long_name': 'Texas', 'short_name': 'TX', 'types': ['administrative_area_level_1', 'political']}, {'long_name': 'United States', 'short_name': 'US', 'types': ['country', 'political']}, {'long_name': '77006', 'short_name': '77006', 'types': ['postal_code']}], 'formatted_address': '2650 Travis St, Houston, TX 77006, USA', 'geometry': {'location': {'lat': 29.7456322, 'lng': -95.3754846}, 'location_type': 'RANGE_INTERPOLATED', 'viewport': {'northeast': {'lat': 29.7469811802915, 'lng': -95.37413561970848}, 'southwest': {'lat': 29.7442832197085, 'lng': -95.37683358029149}}}, 'place_id': 'EiYyNjUwIFRyYXZpcyBTdCwgSG91c3RvbiwgVFggNzcwMDYsIFVTQSIbEhkKFAoSCYkPvg5rv0CGERSNc2joKbVsENoU', 'types': ['street_address']}]"
2016-03-09 21:00:00,10H40,2900-2999,MILAM,Theft,restaurant/cafeteria parking lot,1,21,9,Wednesday,Mar,2016,2950,2950 MILAM,"[{'address_components': [{'long_name': '2950', 'short_name': '2950', 'types': ['street_number']}, {'long_name': 'Milam Street', 'short_name': 'Milam St', 'types': ['route']}, {'long_name': 'South Central Houston', 'short_name': 'South Central Houston', 'types': ['neighborhood', 'political']}, {'long_name': 'Houston', 'short_name': 'Houston', 'types': ['locality', 'political']}, {'long_name': 'Harris County', 'short_name': 'Harris County', 'types': ['administrative_area_level_2', 'political']}, {'long_name': 'Texas', 'short_name': 'TX', 'types': ['administrative_area_level_1', 'political']}, {'long_name': 'United States', 'short_name': 'US', 'types': ['country', 'political']}, {'long_name': '77006', 'short_name': '77006', 'types': ['postal_code']}], 'formatted_address': '2950 Milam St, Houston, TX 77006, USA', 'geometry': {'location': {'lat': 29.7441399, 'lng': -95.3780944}, 'location_type': 'RANGE_INTERPOLATED', 'viewport': {'northeast': {'lat': 29.7454888802915, 'lng': -95.37674541970848}, 'southwest': {'lat': 29.7427909197085, 'lng': -95.3794433802915}}}, 'place_id': 'EiUyOTUwIE1pbGFtIFN0LCBIb3VzdG9uLCBUWCA3NzAwNiwgVVNBIhsSGQoUChIJN3d28Gu_QIYR9KbupgNiMZgQhhc', 'types': ['street_address']}]"
2016-03-10 23:00:00,10H40,900-999,RUTH,Robbery,road/street/sidewalk,1,23,10,Thursday,Mar,2016,950,950 RUTH,"[{'address_components': [{'long_name': '950', 'short_name': '950', 'types': ['street_number']}, {'long_name': 'Ruth Street', 'short_name': 'Ruth St', 'types': ['route']}, {'long_name': 'South Central Houston', 'short_name': 'South Central Houston', 'types': ['neighborhood', 'political']}, {'long_name': 'Houston', 'short_name': 'Houston', 'types': ['locality', 'political']}, {'long_name': 'Harris County', 'short_name': 'Harris County', 'types': ['administrative_area_level_2', 'political']}, {'long_name': 'Texas', 'short_name': 'TX', 'types': ['administrative_area_level_1', 'political']}, {'long_name': 'United States', 'short_name': 'US', 'types': ['country', 'political']}, {'long_name': '77002', 'short_name': '77002', 'types': ['postal_code']}], 'formatted_address': '950 Ruth St, Houston, TX 77002, USA', 'geometry': {'location': {'lat': 29.7331509, 'lng': -95.3845573}, 'location_type': 'RANGE_INTERPOLATED', 'viewport': {'northeast': {'lat': 29.7344998802915, 'lng': -95.38320831970849}, 'southwest': {'lat': 29.7318019197085, 'lng': -95.3859062802915}}}, 'place_id': 'EiM5NTAgUnV0aCBTdCwgSG91c3RvbiwgVFggNzcwMDIsIFVTQSIbEhkKFAoSCfFYE216v0CGETQCjDUQbYvpELYH', 'types': ['street_address']}]"
2016-03-10 23:00:00,10H40,900-999,BERRY,Theft,road/street/sidewalk,1,23,10,Thursday,Mar,2016,950,950 BERRY,"[{'address_components': [{'long_name': '950', 'short_name': '950', 'types': ['street_number']}, {'long_name': 'Berry Street', 'short_name': 'Berry St', 'types': ['route']}, {'long_name': 'South Central Houston', 'short_name': 'South Central Houston', 'types': ['neighborhood', 'political']}, {'long_name': 'Houston', 'short_name': 'Houston', 'types': ['locality', 'political']}, {'long_name': 'Harris County', 'short_name': 'Harris County', 'types': ['administrative_area_level_2', 'political']}, {'long_name': 'Texas', 'short_name': 'TX', 'types': ['administrative_area_level_1', 'political']}, {'long_name': 'United States', 'short_name': 'US', 'types': ['country', 'political']}, {'long_name': '77002', 'short_name': '77002', 'types': ['postal_code']}], 'formatted_address': '950 Berry St, Houston, TX 77002, USA', 'geometry': {'location': {'lat': 29.7396768, 'lng': -95.3801371}, 'location_type': 'RANGE_INTERPOLATED', 'viewport': {'northeast': {'lat': 29.7410257802915, 'lng': -95.37878811970849}, 'southwest': {'lat': 29.7383278197085, 'lng': -95.38148608029151}}}, 'place_id': 'EiQ5NTAgQmVycnkgU3QsIEhvdXN0b24sIFRYIDc3MDAyLCBVU0EiGxIZChQKEgmvsJxqbr9AhhEiXQNUmuEzKBC2Bw', 'types': ['street_address']}]"
2016-03-11 13:00:00,10H40,1100-1199,GRAY,Auto Theft,bus station,1,13,11,Friday,Mar,2016,1150,1150 GRAY,"[{'address_components': [{'long_name': '1150', 'short_name': '1150', 'types': ['street_number']}, {'long_name': 'West Gray Street', 'short_name': 'W Gray St', 'types': ['route']}, {'long_name': 'Montrose', 'short_name': 'Montrose', 'types': ['neighborhood', 'political']}, {'long_name': 'Houston', 'short_name': 'Houston', 'types': ['locality', 'political']}, {'long_name': 'Harris County', 'short_name': 'Harris County', 'types': ['administrative_area_level_2', 'political']}, {'long_name': 'Texas', 'short_name': 'TX', 'types': ['administrative_area_level_1', 'political']}, {'long_name': 'United States', 'short_name': 'US', 'types': ['country', 'political']}, {'long_name': '77019', 'short_name': '77019', 'types': ['postal_code']}], 'formatted_address': '1150 W Gray St, Houston, TX 77019, USA', 'geometry': {'location': {'lat': 29.7534806, 'lng': -95.393649}, 'location_type': 'RANGE_INTERPOLATED', 'viewport': {'northeast': {'lat': 29.7548295802915, 'lng': -95.39230001970849}, 'southwest': {'lat': 29.7521316197085, 'lng': -95.3949979802915}}}, 'place_id': 'EiYxMTUwIFcgR3JheSBTdCwgSG91c3RvbiwgVFggNzcwMTksIFVTQSIbEhkKFAoSCbc8zFxfv0CGEe2TVY9LxvFsEP4I', 'types': ['street_address']}]"
2016-03-12 08:00:00,10H40,1400-1499,HOLMAN,Theft,road/street/sidewalk,1,8,12,Saturday,Mar,2016,1450,1450 HOLMAN,"[{'address_components': [{'long_name': '1450', 'short_name': '1450', 'types': ['street_number']}, {'long_name': 'Holman Street', 'short_name': 'Holman St', 'types': ['route']}, {'long_name': 'South Central Houston', 'short_name': 'South Central Houston', 'types': ['neighborhood', 'political']}, {'long_name': 'Houston', 'short_name': 'Houston', 'types': ['locality', 'political']}, {'long_name': 'Harris County', 'short_name': 'Harris County', 'types': ['administrative_area_level_2', 'political']}, {'long_name': 'Texas', 'short_name': 'TX', 'types': ['administrative_area_level_1', 'political']}, {'long_name': 'United States', 'short_name': 'US', 'types': ['country', 'political']}, {'long_name': '77004', 'short_name': '77004', 'types': ['postal_code']}], 'formatted_address': '1450 Holman St, Houston, TX 77004, USA', 'geometry': {'location': {'lat': 29.7372058, 'lng': -95.37424279999999}, 'location_type': 'RANGE_INTERPOLATED', 'viewport': {'northeast': {'lat': 29.7385547802915, 'lng': -95.3728938197085}, 'southwest': {'lat': 29.7358568197085, 'lng': -95.3755917802915}}}, 'place_id': 'EiYxNDUwIEhvbG1hbiBTdCwgSG91c3RvbiwgVFggNzcwMDQsIFVTQSIbEhkKFAoSCU2oYplyv0CGEeJhrzLSG0YXEKoL', 'types': ['street_address']}]"
2016-03-12 11:00:00,10H40,1700-1799,STUART,Auto Theft,road/street/sidewalk,1,11,12,Saturday,Mar,2016,1750,1750 STUART,"[{'address_components': [{'long_name': '1750', 'short_name': '1750', 'types': ['street_number']}, {'long_name': 'Stuart Street', 'short_name': 'Stuart St', 'types': ['route']}, {'long_name': 'South Central Houston', 'short_name': 'South Central Houston', 'types': ['neighborhood', 'political']}, {'long_name': 'Houston', 'short_name': 'Houston', 'types': ['locality', 'political']}, {'long_name': 'Harris County', 'short_name': 'Harris County', 'types': ['administrative_area_level_2', 'political']}, {'long_name': 'Texas', 'short_name': 'TX', 'types': ['administrative_area_level_1', 'political']}, {'long_name': 'United States', 'short_name': 'US', 'types': ['country', 'political']}, {'long_name': '77004', 'short_name': '77004', 'types': ['postal_code']}], 'formatted_address': '1750 Stuart St, Houston, TX 77004, USA', 'geometry': {'location': {'lat': 29.7367138, 'lng': -95.3709741}, 'location_type': 'RANGE_INTERPOLATED', 'viewport': {'northeast': {'lat': 29.7380627802915, 'lng': -95.3696251197085}, 'southwest': {'lat': 29.7353648197085, 'lng': -95.37232308029151}}}, 'place_id': 'EiYxNzUwIFN0dWFydCBTdCwgSG91c3RvbiwgVFggNzcwMDQsIFVTQSIbEhkKFAoSCc_nZG4Nv0CGETmmWEBkYjP_ENYN', 'types': ['street_address']}]"
2016-03-13 00:00:00,10H40,1600-1699,HOLMAN,Theft,road/street/sidewalk,1,0,13,Sunday,Mar,2016,1650,1650 HOLMAN,"[{'address_components': [{'long_name': '1650', 'short_name': '1650', 'types': ['street_number']}, {'long_name': 'Holman Street', 'short_name': 'Holman St', 'types': ['route']}, {'long_name': 'South Central Houston', 'short_name': 'South Central Houston', 'types': ['neighborhood', 'political']}, {'long_name': 'Houston', 'short_name': 'Houston', 'types': ['locality', 'political']}, {'long_name': 'Harris County', 'short_name': 'Harris County', 'types': ['administrative_area_level_2', 'political']}, {'long_name': 'Texas', 'short_name': 'TX', 'types': ['administrative_area_level_1', 'political']}, {'long_name': 'United States', 'short_name': 'US', 'types': ['country', 'political']}, {'long_name': '77004', 'short_name': '77004', 'types': ['postal_code']}], 'formatted_address': '1650 Holman St, Houston, TX 77004, USA', 'geometry': {'location': {'lat': 29.7360112, 'lng': -95.37249800000001}, 'location_type': 'RANGE_INTERPOLATED', 'viewport': {'northeast': {'lat': 29.7373601802915, 'lng': -95.37114901970851}, 'southwest': {'lat': 29.7346622197085, 'lng': -95.37384698029152}}}, 'place_id': 'EiYxNjUwIEhvbG1hbiBTdCwgSG91c3RvbiwgVFggNzcwMDQsIFVTQSIbEhkKFAoSCaNikjANv0CGEYPN_vwbEzh6EPIM', 'types': ['street_address']}]"
2016-03-13 02:00:00,10H40,2400-2499,AUSTIN,Theft,road/street/sidewalk,1,2,13,Sunday,Mar,2016,2450,2450 AUSTIN,"[{'address_components': [{'long_name': '2450', 'short_name': '2450', 'types': ['street_number']}, {'long_name': 'Austin Street', 'short_name': 'Austin St', 'types': ['route']}, {'long_name': 'South Central Houston', 'short_name': 'South Central Houston', 'types': ['neighborhood', 'political']}, {'long_name': 'Houston', 'short_name': 'Houston', 'types': ['locality', 'political']}, {'long_name': 'Harris County', 'short_name': 'Harris County', 'types': ['administrative_area_level_2', 'political']}, {'long_name': 'Texas', 'short_name': 'TX', 'types': ['administrative_area_level_1', 'political']}, {'long_name': 'United States', 'short_name': 'US', 'types': ['country', 'political']}, {'long_name': '77004', 'short_name': '77004', 'types': ['postal_code']}], 'formatted_address': '2450 Austin St, Houston, TX 77004, USA', 'geometry': {'location': {'lat': 29.7438043, 'lng': -95.3707127}, 'location_type': 'RANGE_INTERPOLATED', 'viewport': {'northeast': {'lat': 29.7451532802915, 'lng': -95.36936371970849}, 'southwest': {'lat': 29.7424553197085, 'lng': -95.37206168029151}}}, 'place_id': 'EiYyNDUwIEF1c3RpbiBTdCwgSG91c3RvbiwgVFggNzcwMDQsIFVTQSIbEhkKFAoSCZM854ETv0CGEQzcDcgSvddqEJIT', 'types': ['street_address']}]"
2016-03-13 03:00:00,10H40,2600-2699,CAROLINE,Aggravated Assault,road/street/sidewalk,1,3,13,Sunday,Mar,2016,2650,2650 CAROLINE,"[{'address_components': [{'long_name': '2650', 'short_name': '2650', 'types': ['street_number']}, {'long_name': 'Caroline Street', 'short_name': 'Caroline St', 'types': ['route']}, {'long_name': 'South Central Houston', 'short_name': 'South Central Houston', 'types': ['neighborhood', 'political']}, {'long_name': 'Houston', 'short_name': 'Houston', 'types': ['locality', 'political']}, {'long_name': 'Harris County', 'short_name': 'Harris County', 'types': ['administrative_area_level_2', 'political']}, {'long_name': 'Texas', 'short_name': 'TX', 'types': ['administrative_area_level_1', 'political']}, {'long_name': 'United States', 'short_name': 'US', 'types': ['country', 'political']}, {'long_name': '77004', 'short_name': '77004', 'types': ['postal_code']}, {'long_name': '1115', 'short_name': '1115', 'types': ['postal_code_suffix']}], 'formatted_address': '2650 Caroline St, Houston, TX 77004, USA', 'geometry': {'location': {'lat': 29.7433535, 'lng': -95.37215669999999}, 'location_type': 'RANGE_INTERPOLATED', 'viewport': {'northeast': {'lat': 29.7447024802915, 'lng': -95.3708077197085}, 'southwest': {'lat': 29.7420045197085, 'lng': -95.3735056802915}}}, 'place_id': 'EigyNjUwIENhcm9saW5lIFN0LCBIb3VzdG9uLCBUWCA3NzAwNCwgVVNBIhsSGQoUChIJeWe1XRO_QIYRzxnqVg3zQ6kQ2hQ', 'types': ['street_address']}]"
2016-03-13 06:00:00,10H40,4400-4499,MAIN,Robbery,road/street/sidewalk,1,6,13,Sunday,Mar,2016,4450,4450 MAIN,"[{'address_components': [{'long_name': '4450', 'short_name': '4450', 'types': ['street_number']}, {'long_name': 'South Main Street', 'short_name': 'S Main St', 'types': ['route']}, {'long_name': 'South Central Houston', 'short_name': 'South Central Houston', 'types': ['neighborhood', 'political']}, {'long_name': 'Houston', 'short_name': 'Houston', 'types': ['locality', 'political']}, {'long_name': 'Harris County', 'short_name': 'Harris County', 'types': ['administrative_area_level_2', 'political']}, {'long_name': 'Texas', 'short_name': 'TX', 'types': ['administrative_area_level_1', 'political']}, {'long_name': 'United States', 'short_name': 'US', 'types': ['country', 'political']}, {'long_name': '77002', 'short_name': '77002', 'types': ['postal_code']}], 'formatted_address': '4450 S Main St, Houston, TX 77002, USA', 'geometry': {'location': {'lat': 29.7339635, 'lng': -95.3836729}, 'location_type': 'RANGE_INTERPOLATED', 'viewport': {'northeast': {'lat': 29.7353124802915, 'lng': -95.38232391970848}, 'southwest': {'lat': 29.7326145197085, 'lng': -95.3850218802915}}}, 'place_id': 'EiY0NDUwIFMgTWFpbiBTdCwgSG91c3RvbiwgVFggNzcwMDIsIFVTQSIbEhkKFAoSCfHWXptwv0CGEYk9itGd7CruEOIi', 'types': ['street_address']}]"
2016-03-13 17:00:00,10H40,1500-1599,ALABAMA,Theft,other parking lot,1,17,13,Sunday,Mar,2016,1550,1550 ALABAMA,"[{'address_components': [{'long_name': '1550', 'short_name': '1550', 'types': ['street_number']}, {'long_name': 'West Alabama Street', 'short_name': 'W Alabama St', 'types': ['route']}, {'long_name': 'Montrose', 'short_name': 'Montrose', 'types': ['neighborhood', 'political']}, {'long_name': 'Houston', 'short_name': 'Houston', 'types': ['locality', 'political']}, {'long_name': 'Harris County', 'short_name': 'Harris County', 'types': ['administrative_area_level_2', 'political']}, {'long_name': 'Texas', 'short_name': 'TX', 'types': ['administrative_area_level_1', 'political']}, {'long_name': 'United States', 'short_name': 'US', 'types': ['country', 'political']}, {'long_name': '77006', 'short_name': '77006', 'types': ['postal_code']}, {'long_name': '4106', 'short_name': '4106', 'types': ['postal_code_suffix']}], 'formatted_address': '1550 W Alabama St, Houston, TX 77006, USA', 'geometry': {'location': {'lat': 29.7389107, 'lng': -95.3991523}, 'location_type': 'RANGE_INTERPOLATED', 'viewport': {'northeast': {'lat': 29.7402596802915, 'lng': -95.39780331970849}, 'southwest': {'lat': 29.7375617197085, 'lng': -95.4005012802915}}}, 'place_id': 'EikxNTUwIFcgQWxhYmFtYSBTdCwgSG91c3RvbiwgVFggNzcwMDYsIFVTQSIbEhkKFAoSCZH1IpecwECGEfq_CiDKnxZsEI4M', 'types': ['street_address']}]"
2016-03-14 01:00:00,10H40,2400-2499,CAROLINE,Theft,road/street/sidewalk,1,1,14,Monday,Mar,2016,2450,2450 CAROLINE,"[{'address_components': [{'long_name': '2450', 'short_name': '2450', 'types': ['street_number']}, {'long_name': 'Caroline Street', 'short_name': 'Caroline St', 'types': ['route']}, {'long_name': 'South Central Houston', 'short_name': 'South Central Houston', 'types': ['neighborhood', 'political']}, {'long_name': 'Houston', 'short_name': 'Houston', 'types': ['locality', 'political']}, {'long_name': 'Harris County', 'short_name': 'Harris County', 'types': ['administrative_area_level_2', 'political']}, {'long_name': 'Texas', 'short_name': 'TX', 'types': ['administrative_area_level_1', 'political']}, {'long_name': 'United States', 'short_name': 'US', 'types': ['country', 'political']}, {'long_name': '77004', 'short_name': '77004', 'types': ['postal_code']}], 'formatted_address': '2450 Caroline St, Houston, TX 77004, USA', 'geometry': {'location': {'lat': 29.744274, 'lng': -95.3714706}, 'location_type': 'RANGE_INTERPOLATED', 'viewport': {'northeast': {'lat': 29.7456229802915, 'lng': -95.37012161970848}, 'southwest': {'lat': 29.7429250197085, 'lng': -95.3728195802915}}}, 'place_id': 'EigyNDUwIENhcm9saW5lIFN0LCBIb3VzdG9uLCBUWCA3NzAwNCwgVVNBIhsSGQoUChIJ_7tAmxS_QIYRucDNKf3jip0QkhM', 'types': ['street_address']}]"
2016-03-14 09:00:00,10H40,2400-2499,SAN JACINTO,Theft,bar or night club parking lot,1,9,14,Monday,Mar,2016,2450,2450 SAN JACINTO,"[{'address_components': [{'long_name': '2450', 'short_name': '2450', 'types': ['street_number']}, {'long_name': 'San Jacinto Street', 'short_name': 'San Jacinto St', 'types': ['route']}, {'long_name': 'Central Business District', 'short_name': 'Central Business District', 'types': ['neighborhood', 'political']}, {'long_name': 'Houston', 'short_name': 'Houston', 'types': ['locality', 'political']}, {'long_name': 'Harris County', 'short_name': 'Harris County', 'types': ['administrative_area_level_2', 'political']}, {'long_name': 'Texas', 'short_name': 'TX', 'types': ['administrative_area_level_1', 'political']}, {'long_name': 'United States', 'short_name': 'US', 'types': ['country', 'political']}, {'long_name': '77002', 'short_name': '77002', 'types': ['postal_code']}], 'formatted_address': '2450 San Jacinto St, Houston, TX 77002, USA', 'geometry': {'location': {'lat': 29.7453066, 'lng': -95.371946}, 'location_type': 'RANGE_INTERPOLATED', 'viewport': {'northeast': {'lat': 29.7466555802915, 'lng': -95.37059701970848}, 'southwest': {'lat': 29.7439576197085, 'lng': -95.3732949802915}}}, 'place_id': 'EisyNDUwIFNhbiBKYWNpbnRvIFN0LCBIb3VzdG9uLCBUWCA3NzAwMiwgVVNBIhsSGQoUChIJjeDVvxS_QIYRql2XPdyj4GgQkhM', 'types': ['street_address']}]"
2016-03-14 19:00:00,10H40,2400-2499,MAIN,Robbery,road/street/sidewalk,1,19,14,Monday,Mar,2016,2450,2450 MAIN,"[{'address_components': [{'long_name': '2450', 'short_name': '2450', 'types': ['street_number']}, {'long_name': 'South Main Street', 'short_name': 'S Main St', 'types': ['route']}, {'long_name': 'South Central Houston', 'short_name': 'South Central Houston', 'types': ['neighborhood', 'political']}, {'long_name': 'Houston', 'short_name': 'Houston', 'types': ['locality', 'political']}, {'long_name': 'Harris County', 'short_name': 'Harris County', 'types': ['administrative_area_level_2', 'political']}, {'long_name': 'Texas', 'short_name': 'TX', 'types': ['administrative_area_level_1', 'political']}, {'long_name': 'United States', 'short_name': 'US', 'types': ['country', 'political']}, {'long_name': '77002', 'short_name': '77002', 'types': ['postal_code']}], 'formatted_address': '2450 S Main St, Houston, TX 77002, USA', 'geometry': {'location': {'lat': 29.7464493, 'lng': -95.37366879999999}, 'location_type': 'RANGE_INTERPOLATED', 'viewport': {'northeast': {'lat': 29.7477982802915, 'lng': -95.37231981970848}, 'southwest': {'lat': 29.7451003197085, 'lng': -95.3750177802915}}}, 'place_id': 'EiYyNDUwIFMgTWFpbiBTdCwgSG91c3RvbiwgVFggNzcwMDIsIFVTQSIbEhkKFAoSCV1CYilrv0CGEaFQ2y8CA4aOEJIT', 'types': ['street_address']}]"
2016-03-15 10:00:00,10H40,3500-3599,CHENEVERT,Theft,apartment,1,10,15,Tuesday,Mar,2016,3550,3550 CHENEVERT,"[{'address_components': [{'long_name': '3550', 'short_name': '3550', 'types': ['street_number']}, {'long_name': 'Chenevert Street', 'short_name': 'Chenevert St', 'types': ['route']}, {'long_name': 'South Central Houston', 'short_name': 'South Central Houston', 'types': ['neighborhood', 'political']}, {'long_name': 'Houston', 'short_name': 'Houston', 'types': ['locality', 'political']}, {'long_name': 'Harris County', 'short_name': 'Harris County', 'types': ['administrative_area_level_2', 'political']}, {'long_name': 'Texas', 'short_name': 'TX', 'types': ['administrative_area_level_1', 'political']}, {'long_name': 'United States', 'short_name': 'US', 'types': ['country', 'political']}, {'long_name': '77004', 'short_name': '77004', 'types': ['postal_code']}, {'long_name': '4149', 'short_name': '4149', 'types': ['postal_code_suffix']}], 'formatted_address': '3550 Chenevert St, Houston, TX 77004, USA', 'geometry': {'location': {'lat': 29.735142, 'lng': -95.3723486}, 'location_type': 'RANGE_INTERPOLATED', 'viewport': {'northeast': {'lat': 29.7364909802915, 'lng': -95.37099961970848}, 'southwest': {'lat': 29.7337930197085, 'lng': -95.3736975802915}}}, 'place_id': 'EikzNTUwIENoZW5ldmVydCBTdCwgSG91c3RvbiwgVFggNzcwMDQsIFVTQSIbEhkKFAoSCb9nzBgNv0CGEbU50NGO931_EN4b', 'types': ['street_address']}]"
2016-03-15 18:00:00,10H40,2100-2199,FANNIN,Robbery,road/street/sidewalk,1,18,15,Tuesday,Mar,2016,2150,2150 FANNIN,"[{'address_components': [{'long_name': '2150', 'short_name': '2150', 'types': ['street_number']}, {'long_name': 'Fannin Street', 'short_name': 'Fannin St', 'types': ['route']}, {'long_name': 'South Central Houston', 'short_name': 'South Central Houston', 'types': ['neighborhood', 'political']}, {'long_name': 'Houston', 'short_name': 'Houston', 'types': ['locality', 'political']}, {'long_name': 'Harris County', 'short_name': 'Harris County', 'types': ['administrative_area_level_2', 'political']}, {'long_name': 'Texas', 'short_name': 'TX', 'types': ['administrative_area_level_1', 'political']}, {'long_name': 'United States', 'short_name': 'US', 'types': ['country', 'political']}, {'long_name': '77002', 'short_name': '77002', 'types': ['postal_code']}], 'formatted_address': '2150 Fannin St, Houston, TX 77002, USA', 'geometry': {'location': {'lat': 29.7478225, 'lng': -95.3708632}, 'location_type': 'RANGE_INTERPOLATED', 'viewport': {'northeast': {'lat': 29.7491714802915, 'lng': -95.3695142197085}, 'southwest': {'lat': 29.7464735197085, 'lng': -95.37221218029151}}}, 'place_id': 'EiYyMTUwIEZhbm5pbiBTdCwgSG91c3RvbiwgVFggNzcwMDIsIFVTQSIbEhkKFAoSCZMjhA4Vv0CGETIt5eN5xLs9EOYQ', 'types': ['street_address']}]"
2016-03-15 22:00:00,10H40,1700-1799,GRAY,Theft,apartment,1,22,15,Tuesday,Mar,2016,1750,1750 GRAY,"[{'address_components': [{'long_name': '1750', 'short_name': '1750', 'types': ['street_number']}, {'long_name': 'Gray Street', 'short_name': 'Gray St', 'types': ['route']}, {'long_name': 'South Central Houston', 'short_name': 'South Central Houston', 'types': ['neighborhood', 'political']}, {'long_name': 'Houston', 'short_name': 'Houston', 'types': ['locality', 'political']}, {'long_name': 'Harris County', 'short_name': 'Harris County', 'types': ['administrative_area_level_2', 'political']}, {'long_name': 'Texas', 'short_name': 'TX', 'types': ['administrative_area_level_1', 'political']}, {'long_name': 'United States', 'short_name': 'US', 'types': ['country', 'political']}, {'long_name': '77003', 'short_name': '77003', 'types': ['postal_code']}, {'long_name': '5806', 'short_name': '5806', 'types': ['postal_code_suffix']}], 'formatted_address': '1750 Gray St, Houston, TX 77003, USA', 'geometry': {'location': {'lat': 29.7445012, 'lng': -95.3648777}, 'location_type': 'RANGE_INTERPOLATED', 'viewport': {'northeast': {'lat': 29.7458501802915, 'lng': -95.36352871970848}, 'southwest': {'lat': 29.7431522197085, 'lng': -95.36622668029149}}}, 'place_id': 'EiQxNzUwIEdyYXkgU3QsIEhvdXN0b24sIFRYIDc3MDAzLCBVU0EiGxIZChQKEgnP9CwmF79AhhHPUQCxN8bkexDWDQ', 'types': ['street_address']}]"
2016-03-16 01:00:00,10H40,3900-3999,AUSTIN,Theft,condominium,1,1,16,Wednesday,Mar,2016,3950,3950 AUSTIN,"[{'address_components': [{'long_name': '3950', 'short_name': '3950', 'types': ['street_number']}, {'long_name': 'Austin Street', 'short_name': 'Austin St', 'types': ['route']}, {'long_name': 'South Central Houston', 'short_name': 'South Central Houston', 'types': ['neighborhood', 'political']}, {'long_name': 'Houston', 'short_name': 'Houston', 'types': ['locality', 'political']}, {'long_name': 'Harris County', 'short_name': 'Harris County', 'types': ['administrative_area_level_2', 'political']}, {'long_name': 'Texas', 'short_name': 'TX', 'types': ['administrative_area_level_1', 'political']}, {'long_name': 'United States', 'short_name': 'US', 'types': ['country', 'political']}, {'long_name': '77004', 'short_name': '77004', 'types': ['postal_code']}, {'long_name': '4028', 'short_name': '4028', 'types': ['postal_code_suffix']}], 'formatted_address': '3950 Austin St, Houston, TX 77004, USA', 'geometry': {'location': {'lat': 29.734741, 'lng': -95.3776939}, 'location_type': 'RANGE_INTERPOLATED', 'viewport': {'northeast': {'lat': 29.7360899802915, 'lng': -95.3763449197085}, 'southwest': {'lat': 29.7333920197085, 'lng': -95.37904288029151}}}, 'place_id': 'EiYzOTUwIEF1c3RpbiBTdCwgSG91c3RvbiwgVFggNzcwMDQsIFVTQSIbEhkKFAoSCVvXlcxzv0CGEVvMw2XlbTXPEO4e', 'types': ['street_address']}]"
2016-03-16 06:00:00,10H40,3500-3599,CHENEVERT,Theft,road/street/sidewalk,1,6,16,Wednesday,Mar,2016,3550,3550 CHENEVERT,"[{'address_components': [{'long_name': '3550', 'short_name': '3550', 'types': ['street_number']}, {'long_name': 'Chenevert Street', 'short_name': 'Chenevert St', 'types': ['route']}, {'long_name': 'South Central Houston', 'short_name': 'South Central Houston', 'types': ['neighborhood', 'political']}, {'long_name': 'Houston', 'short_name': 'Houston', 'types': ['locality', 'political']}, {'long_name': 'Harris County', 'short_name': 'Harris County', 'types': ['administrative_area_level_2', 'political']}, {'long_name': 'Texas', 'short_name': 'TX', 'types': ['administrative_area_level_1', 'political']}, {'long_name': 'United States', 'short_name': 'US', 'types': ['country', 'political']}, {'long_name': '77004', 'short_name': '77004', 'types': ['postal_code']}, {'long_name': '4149', 'short_name': '4149', 'types': ['postal_code_suffix']}], 'formatted_address': '3550 Chenevert St, Houston, TX 77004, USA', 'geometry': {'location': {'lat': 29.735142, 'lng': -95.3723486}, 'location_type': 'RANGE_INTERPOLATED', 'viewport': {'northeast': {'lat': 29.7364909802915, 'lng': -95.37099961970848}, 'southwest': {'lat': 29.7337930197085, 'lng': -95.3736975802915}}}, 'place_id': 'EikzNTUwIENoZW5ldmVydCBTdCwgSG91c3RvbiwgVFggNzcwMDQsIFVTQSIbEhkKFAoSCb9nzBgNv0CGEbU50NGO931_EN4b', 'types': ['street_address']}]"
2016-03-16 11:00:00,10H40,3800-3899,TRAVIS,Theft,road/street/sidewalk,1,11,16,Wednesday,Mar,2016,3850,3850 TRAVIS,"[{'address_components': [{'long_name': '3850', 'short_name': '3850', 'types': ['street_number']}, {'long_name': 'Travis Street', 'short_name': 'Travis St', 'types': ['route']}, {'long_name': 'South Central Houston', 'short_name': 'South Central Houston', 'types': ['neighborhood', 'political']}, {'long_name': 'Houston', 'short_name': 'Houston', 'types': ['locality', 'political']}, {'long_name': 'Harris County', 'short_name': 'Harris County', 'types': ['administrative_area_level_2', 'political']}, {'long_name': 'Texas', 'short_name': 'TX', 'types': ['administrative_area_level_1', 'political']}, {'long_name': 'United States', 'short_name': 'US', 'types': ['country', 'political']}, {'long_name': '77002', 'short_name': '77002', 'types': ['postal_code']}, {'long_name': '9625', 'short_name': '9625', 'types': ['postal_code_suffix']}], 'formatted_address': '3850 Travis St, Houston, TX 77002, USA', 'geometry': {'location': {'lat': 29.7383219, 'lng': -95.3812499}, 'location_type': 'RANGE_INTERPOLATED', 'viewport': {'northeast': {'lat': 29.7396708802915, 'lng': -95.3799009197085}, 'southwest': {'lat': 29.7369729197085, 'lng': -95.38259888029151}}}, 'place_id': 'EiYzODUwIFRyYXZpcyBTdCwgSG91c3RvbiwgVFggNzcwMDIsIFVTQSIbEhkKFAoSCfGiv9Nvv0CGEX-azTGzbl0sEIoe', 'types': ['street_address']}]"
2016-03-16 13:00:00,10H40,2400-2499,MILAM,Theft,apartment parking lot,1,13,16,Wednesday,Mar,2016,2450,2450 MILAM,"[{'address_components': [{'long_name': '2450', 'short_name': '2450', 'types': ['street_number']}, {'long_name': 'Milam Street', 'short_name': 'Milam St', 'types': ['route']}, {'long_name': 'South Central Houston', 'short_name': 'South Central Houston', 'types': ['neighborhood', 'political']}, {'long_name': 'Houston', 'short_name': 'Houston', 'types': ['locality', 'political']}, {'long_name': 'Harris County', 'short_name': 'Harris County', 'types': ['administrative_area_level_2', 'political']}, {'long_name': 'Texas', 'short_name': 'TX', 'types': ['administrative_area_level_1', 'political']}, {'long_name': 'United States', 'short_name': 'US', 'types': ['country', 'political']}, {'long_name': '77006', 'short_name': '77006', 'types': ['postal_code']}], 'formatted_address': '2450 Milam St, Houston, TX 77006, USA', 'geometry': {'location': {'lat': 29.7476152, 'lng': -95.3748651}, 'location_type': 'RANGE_INTERPOLATED', 'viewport': {'northeast': {'lat': 29.7489641802915, 'lng': -95.37351611970848}, 'southwest': {'lat': 29.7462662197085, 'lng': -95.3762140802915}}}, 'place_id': 'EiUyNDUwIE1pbGFtIFN0LCBIb3VzdG9uLCBUWCA3NzAwNiwgVVNBIhsSGQoUChIJ84Rn-Wq_QIYR0YHK6_yq15UQkhM', 'types': ['street_address']}]"
2016-03-16 23:00:00,10H40,800-899,STUART,Theft,road/street/sidewalk,1,23,16,Wednesday,Mar,2016,850,850 STUART,"[{'address_components': [{'long_name': '850', 'short_name': '850', 'types': ['street_number']}, {'long_name': 'Stuart Street', 'short_name': 'Stuart St', 'types': ['route']}, {'long_name': 'South Central Houston', 'short_name': 'South Central Houston', 'types': ['neighborhood', 'political']}, {'long_name': 'Houston', 'short_name': 'Houston', 'types': ['locality', 'political']}, {'long_name': 'Harris County', 'short_name': 'Harris County', 'types': ['administrative_area_level_2', 'political']}, {'long_name': 'Texas', 'short_name': 'TX', 'types': ['administrative_area_level_1', 'political']}, {'long_name': 'United States', 'short_name': 'US', 'types': ['country', 'political']}, {'long_name': '77006', 'short_name': '77006', 'types': ['postal_code']}, {'long_name': '3628', 'short_name': '3628', 'types': ['postal_code_suffix']}], 'formatted_address': '850 Stuart St, Houston, TX 77006, USA', 'geometry': {'location': {'lat': 29.7413434, 'lng': -95.378654}, 'location_type': 'RANGE_INTERPOLATED', 'viewport': {'northeast': {'lat': 29.7426923802915, 'lng': -95.3773050197085}, 'southwest': {'lat': 29.7399944197085, 'lng': -95.38000298029151}}}, 'place_id': 'EiU4NTAgU3R1YXJ0IFN0LCBIb3VzdG9uLCBUWCA3NzAwNiwgVVNBIhsSGQoUChIJAdapkG6_QIYR57rRNvOvJYEQ0gY', 'types': ['street_address']}]"
2016-03-17 09:00:00,10H40,800-899,BERRY,Theft,road/street/sidewalk,1,9,17,Thursday,Mar,2016,850,850 BERRY,"[{'address_components': [{'long_name': '850', 'short_name': '850', 'types': ['street_number']}, {'long_name': 'Berry Road', 'short_name': 'Berry Rd', 'types': ['route']}, {'long_name': 'Northside', 'short_name': 'Northside', 'types': ['neighborhood', 'political']}, {'long_name': 'Houston', 'short_name': 'Houston', 'types': ['locality', 'political']}, {'long_name': 'Harris County', 'short_name': 'Harris County', 'types': ['administrative_area_level_2', 'political']}, {'long_name': 'Texas', 'short_name': 'TX', 'types': ['administrative_area_level_1', 'political']}, {'long_name': 'United States', 'short_name': 'US', 'types': ['country', 'political']}, {'long_name': '77022', 'short_name': '77022', 'types': ['postal_code']}, {'long_name': '3308', 'short_name': '3308', 'types': ['postal_code_suffix']}], 'formatted_address': '850 Berry Rd, Houston, TX 77022, USA', 'geometry': {'location': {'lat': 29.837277, 'lng': -95.363135}, 'location_type': 'RANGE_INTERPOLATED', 'viewport': {'northeast': {'lat': 29.8386259802915, 'lng': -95.36178601970849}, 'southwest': {'lat': 29.8359280197085, 'lng': -95.36448398029151}}}, 'place_id': 'EiQ4NTAgQmVycnkgUmQsIEhvdXN0b24sIFRYIDc3MDIyLCBVU0EiGxIZChQKEgkphBccRrhAhhGj_fg9UzDqTRDSBg', 'types': ['street_address']}]"
2016-03-17 18:00:00,10H40,3400-3499,LA BRANCH,Theft,residence/house,1,18,17,Thursday,Mar,2016,3450,3450 LA BRANCH,"[{'address_components': [{'long_name': '3450', 'short_name': '3450', 'types': ['street_number']}, {'long_name': 'La Branch Street', 'short_name': 'La Branch St', 'types': ['route']}, {'long_name': 'South Central Houston', 'short_name': 'South Central Houston', 'types': ['neighborhood', 'political']}, {'long_name': 'Houston', 'short_name': 'Houston', 'types': ['locality', 'political']}, {'long_name': 'Harris County', 'short_name': 'Harris County', 'types': ['administrative_area_level_2', 'political']}, {'long_name': 'Texas', 'short_name': 'TX', 'types': ['administrative_area_level_1', 'political']}, {'long_name': 'United States', 'short_name': 'US', 'types': ['country', 'political']}, {'long_name': '77004', 'short_name': '77004', 'types': ['postal_code']}, {'long_name': '3841', 'short_name': '3841', 'types': ['postal_code_suffix']}], 'formatted_address': '3450 La Branch St, Houston, TX 77004, USA', 'geometry': {'location': {'lat': 29.7374307, 'lng': -95.37443359999999}, 'location_type': 'RANGE_INTERPOLATED', 'viewport': {'northeast': {'lat': 29.73877968029149, 'lng': -95.3730846197085}, 'southwest': {'lat': 29.7360817197085, 'lng': -95.3757825802915}}}, 'place_id': 'EikzNDUwIExhIEJyYW5jaCBTdCwgSG91c3RvbiwgVFggNzcwMDQsIFVTQSIbEhkKFAoSCeHkd6Ryv0CGEROc1BrW3--VEPoa', 'types': ['street_address']}]"
2016-03-18 02:00:00,10H40,2300-2399,MAIN,Aggravated Assault,bar or night club parking lot,1,2,18,Friday,Mar,2016,2350,2350 MAIN,"[{'address_components': [{'long_name': '2350', 'short_name': '2350', 'types': ['street_number']}, {'long_name': 'South Main Street', 'short_name': 'S Main St', 'types': ['route']}, {'long_name': 'South Central Houston', 'short_name': 'South Central Houston', 'types': ['neighborhood', 'political']}, {'long_name': 'Houston', 'short_name': 'Houston', 'types': ['locality', 'political']}, {'long_name': 'Harris County', 'short_name': 'Harris County', 'types': ['administrative_area_level_2', 'political']}, {'long_name': 'Texas', 'short_name': 'TX', 'types': ['administrative_area_level_1', 'political']}, {'long_name': 'United States', 'short_name': 'US', 'types': ['country', 'political']}, {'long_name': '77002', 'short_name': '77002', 'types': ['postal_code']}], 'formatted_address': '2350 S Main St, Houston, TX 77002, USA', 'geometry': {'location': {'lat': 29.7470675, 'lng': -95.3735174}, 'location_type': 'RANGE_INTERPOLATED', 'viewport': {'northeast': {'lat': 29.7484164802915, 'lng': -95.3721684197085}, 'southwest': {'lat': 29.7457185197085, 'lng': -95.37486638029151}}}, 'place_id': 'EiYyMzUwIFMgTWFpbiBTdCwgSG91c3RvbiwgVFggNzcwMDIsIFVTQSIbEhkKFAoSCQ8cFSsVv0CGEcWo8JGL0fliEK4S', 'types': ['street_address']}]"
2016-03-18 11:00:00,10H40,900-999,MCGOWEN,Robbery,road/street/sidewalk,1,11,18,Friday,Mar,2016,950,950 MCGOWEN,"[{'address_components': [{'long_name': '950', 'short_name': '950', 'types': ['street_number']}, {'long_name': 'McGowen Street', 'short_name': 'McGowen St', 'types': ['route']}, {'long_name': 'South Central Houston', 'short_name': 'South Central Houston', 'types': ['neighborhood', 'political']}, {'long_name': 'Houston', 'short_name': 'Houston', 'types': ['locality', 'political']}, {'long_name': 'Harris County', 'short_name': 'Harris County', 'types': ['administrative_area_level_2', 'political']}, {'long_name': 'Texas', 'short_name': 'TX', 'types': ['administrative_area_level_1', 'political']}, {'long_name': 'United States', 'short_name': 'US', 'types': ['country', 'political']}, {'long_name': '77002', 'short_name': '77002', 'types': ['postal_code']}], 'formatted_address': '950 McGowen St, Houston, TX 77002, USA', 'geometry': {'location': {'lat': 29.7456857, 'lng': -95.3745292}, 'location_type': 'RANGE_INTERPOLATED', 'viewport': {'northeast': {'lat': 29.7470346802915, 'lng': -95.37318021970849}, 'southwest': {'lat': 29.7443367197085, 'lng': -95.37587818029151}}}, 'place_id': 'EiY5NTAgTWNHb3dlbiBTdCwgSG91c3RvbiwgVFggNzcwMDIsIFVTQSIbEhkKFAoSCQnzWBZrv0CGEb6olZ9nJbnlELYH', 'types': ['street_address']}]"
2016-03-18 17:00:00,10H40,2300-2399,MAIN,Theft,other parking lot,1,17,18,Friday,Mar,2016,2350,2350 MAIN,"[{'address_components': [{'long_name': '2350', 'short_name': '2350', 'types': ['street_number']}, {'long_name': 'South Main Street', 'short_name': 'S Main St', 'types': ['route']}, {'long_name': 'South Central Houston', 'short_name': 'South Central Houston', 'types': ['neighborhood', 'political']}, {'long_name': 'Houston', 'short_name': 'Houston', 'types': ['locality', 'political']}, {'long_name': 'Harris County', 'short_name': 'Harris County', 'types': ['administrative_area_level_2', 'political']}, {'long_name': 'Texas', 'short_name': 'TX', 'types': ['administrative_area_level_1', 'political']}, {'long_name': 'United States', 'short_name': 'US', 'types': ['country', 'political']}, {'long_name': '77002', 'short_name': '77002', 'types': ['postal_code']}], 'formatted_address': '2350 S Main St, Houston, TX 77002, USA', 'geometry': {'location': {'lat': 29.7470675, 'lng': -95.3735174}, 'location_type': 'RANGE_INTERPOLATED', 'viewport': {'northeast': {'lat': 29.7484164802915, 'lng': -95.3721684197085}, 'southwest': {'lat': 29.7457185197085, 'lng': -95.37486638029151}}}, 'place_id': 'EiYyMzUwIFMgTWFpbiBTdCwgSG91c3RvbiwgVFggNzcwMDIsIFVTQSIbEhkKFAoSCQ8cFSsVv0CGEcWo8JGL0fliEK4S', 'types': ['street_address']}]"
2016-03-18 21:00:00,10H40,800-899,WINBERN,Theft,road/street/sidewalk,1,21,18,Friday,Mar,2016,850,850 WINBERN,"[{'address_components': [{'long_name': '850', 'short_name': '850', 'types': ['street_number']}, {'long_name': 'Winbern Street', 'short_name': 'Winbern St', 'types': ['route']}, {'long_name': 'South Central Houston', 'short_name': 'South Central Houston', 'types': ['neighborhood', 'political']}, {'long_name': 'Houston', 'short_name': 'Houston', 'types': ['locality', 'political']}, {'long_name': 'Harris County', 'short_name': 'Harris County', 'types': ['administrative_area_level_2', 'political']}, {'long_name': 'Texas', 'short_name': 'TX', 'types': ['administrative_area_level_1', 'political']}, {'long_name': 'United States', 'short_name': 'US', 'types': ['country', 'political']}, {'long_name': '77002', 'short_name': '77002', 'types': ['postal_code']}], 'formatted_address': '850 Winbern St, Houston, TX 77002, USA', 'geometry': {'location': {'lat': 29.7390086, 'lng': -95.380783}, 'location_type': 'RANGE_INTERPOLATED', 'viewport': {'northeast': {'lat': 29.7403575802915, 'lng': -95.3794340197085}, 'southwest': {'lat': 29.7376596197085, 'lng': -95.3821319802915}}}, 'place_id': 'EiY4NTAgV2luYmVybiBTdCwgSG91c3RvbiwgVFggNzcwMDIsIFVTQSIbEhkKFAoSCcO9zkpuv0CGEU-vaWTIfLb9ENIG', 'types': ['street_address']}]"
2016-03-18 22:00:00,10H40,4200-4299,SAN JACINTO,Robbery,road/street/sidewalk,1,22,18,Friday,Mar,2016,4250,4250 SAN JACINTO,"[{'address_components': [{'long_name': '4250', 'short_name': '4250', 'types': ['street_number']}, {'long_name': 'San Jacinto Street', 'short_name': 'San Jacinto St', 'types': ['route']}, {'long_name': 'South Central Houston', 'short_name': 'South Central Houston', 'types': ['neighborhood', 'political']}, {'long_name': 'Houston', 'short_name': 'Houston', 'types': ['locality', 'political']}, {'long_name': 'Harris County', 'short_name': 'Harris County', 'types': ['administrative_area_level_2', 'political']}, {'long_name': 'Texas', 'short_name': 'TX', 'types': ['administrative_area_level_1', 'political']}, {'long_name': 'United States', 'short_name': 'US', 'types': ['country', 'political']}, {'long_name': '77004', 'short_name': '77004', 'types': ['postal_code']}, {'long_name': '4853', 'short_name': '4853', 'types': ['postal_code_suffix']}], 'formatted_address': '4250 San Jacinto St, Houston, TX 77004, USA', 'geometry': {'location': {'lat': 29.733958, 'lng': -95.3806013}, 'location_type': 'RANGE_INTERPOLATED', 'viewport': {'northeast': {'lat': 29.7353069802915, 'lng': -95.3792523197085}, 'southwest': {'lat': 29.7326090197085, 'lng': -95.3819502802915}}}, 'place_id': 'Eis0MjUwIFNhbiBKYWNpbnRvIFN0LCBIb3VzdG9uLCBUWCA3NzAwNCwgVVNBIhsSGQoUChIJjYyQHHG_QIYR6W6JtYfpoMkQmiE', 'types': ['street_address']}]"
2016-03-19 07:00:00,10H40,1500-1599,ISABELLA,Burglary,miscellaneous business (non-specific),1,7,19,Saturday,Mar,2016,1550,1550 ISABELLA,"[{'address_components': [{'long_name': '1550', 'short_name': '1550', 'types': ['street_number']}, {'long_name': 'Isabella Street', 'short_name': 'Isabella St', 'types': ['route']}, {'long_name': 'South Central Houston', 'short_name': 'South Central Houston', 'types': ['neighborhood', 'political']}, {'long_name': 'Houston', 'short_name': 'Houston', 'types': ['locality', 'political']}, {'long_name': 'Harris County', 'short_name': 'Harris County', 'types': ['administrative_area_level_2', 'political']}, {'long_name': 'Texas', 'short_name': 'TX', 'types': ['administrative_area_level_1', 'political']}, {'long_name': 'United States', 'short_name': 'US', 'types': ['country', 'political']}, {'long_name': '77004', 'short_name': '77004', 'types': ['postal_code']}], 'formatted_address': '1550 Isabella St, Houston, TX 77004, USA', 'geometry': {'location': {'lat': 29.7334499, 'lng': -95.37559}, 'location_type': 'RANGE_INTERPOLATED', 'viewport': {'northeast': {'lat': 29.7347988802915, 'lng': -95.37424101970849}, 'southwest': {'lat': 29.7321009197085, 'lng': -95.37693898029151}}}, 'place_id': 'EigxNTUwIElzYWJlbGxhIFN0LCBIb3VzdG9uLCBUWCA3NzAwNCwgVVNBIhsSGQoUChIJiWj4dHO_QIYRej9lhqX9RsUQjgw', 'types': ['street_address']}]"
2016-03-19 16:00:00,10H40,1700-1799,ALABAMA,Theft,grocery store or supermarket,1,16,19,Saturday,Mar,2016,1750,1750 ALABAMA,"[{'address_components': [{'long_name': '1750', 'short_name': '1750', 'types': ['street_number']}, {'long_name': 'West Alabama Street', 'short_name': 'W Alabama St', 'types': ['route']}, {'long_name': 'Montrose', 'short_name': 'Montrose', 'types': ['neighborhood', 'political']}, {'long_name': 'Houston', 'short_name': 'Houston', 'types': ['locality', 'political']}, {'long_name': 'Harris County', 'short_name': 'Harris County', 'types': ['administrative_area_level_2', 'political']}, {'long_name': 'Texas', 'short_name': 'TX', 'types': ['administrative_area_level_1', 'political']}, {'long_name': 'United States', 'short_name': 'US', 'types': ['country', 'political']}, {'long_name': '77098', 'short_name': '77098', 'types': ['postal_code']}, {'long_name': '2808', 'short_name': '2808', 'types': ['postal_code_suffix']}], 'formatted_address': '1750 W Alabama St, Houston, TX 77098, USA', 'geometry': {'location': {'lat': 29.7389159, 'lng': -95.40401759999999}, 'location_type': 'RANGE_INTERPOLATED', 'viewport': {'northeast': {'lat': 29.7402648802915, 'lng': -95.40266861970848}, 'southwest': {'lat': 29.7375669197085, 'lng': -95.4053665802915}}}, 'place_id': 'EikxNzUwIFcgQWxhYmFtYSBTdCwgSG91c3RvbiwgVFggNzcwOTgsIFVTQSIbEhkKFAoSCYs5yZuawECGEUbt6-cc1A3zENYN', 'types': ['street_address']}]"
2016-03-19 17:00:00,10H40,1600-1699,FRANCIS,Theft,residence/house,1,17,19,Saturday,Mar,2016,1650,1650 FRANCIS,"[{'address_components': [{'long_name': '1650', 'short_name': '1650', 'types': ['street_number']}, {'long_name': 'Francis Street', 'short_name': 'Francis St', 'types': ['route']}, {'long_name': 'South Central Houston', 'short_name': 'South Central Houston', 'types': ['neighborhood', 'political']}, {'long_name': 'Houston', 'short_name': 'Houston', 'types': ['locality', 'political']}, {'long_name': 'Harris County', 'short_name': 'Harris County', 'types': ['administrative_area_level_2', 'political']}, {'long_name': 'Texas', 'short_name': 'TX', 'types': ['administrative_area_level_1', 'political']}, {'long_name': 'United States', 'short_name': 'US', 'types': ['country', 'political']}, {'long_name': '77004', 'short_name': '77004', 'types': ['postal_code']}], 'formatted_address': '1650 Francis St, Houston, TX 77004, USA', 'geometry': {'location': {'lat': 29.7366677, 'lng': -95.37229939999999}, 'location_type': 'RANGE_INTERPOLATED', 'viewport': {'northeast': {'lat': 29.7380166802915, 'lng': -95.37095041970849}, 'southwest': {'lat': 29.7353187197085, 'lng': -95.3736483802915}}}, 'place_id': 'EicxNjUwIEZyYW5jaXMgU3QsIEhvdXN0b24sIFRYIDc3MDA0LCBVU0EiGxIZChQKEgkrVyVPDb9AhhHP7zpQJSldYBDyDA', 'types': ['street_address']}]"
2016-03-19 18:00:00,10H40,2400-2499,SAN JACINTO,Theft,bar or night club,1,18,19,Saturday,Mar,2016,2450,2450 SAN JACINTO,"[{'address_components': [{'long_name': '2450', 'short_name': '2450', 'types': ['street_number']}, {'long_name': 'San Jacinto Street', 'short_name': 'San Jacinto St', 'types': ['route']}, {'long_name': 'Central Business District', 'short_name': 'Central Business District', 'types': ['neighborhood', 'political']}, {'long_name': 'Houston', 'short_name': 'Houston', 'types': ['locality', 'political']}, {'long_name': 'Harris County', 'short_name': 'Harris County', 'types': ['administrative_area_level_2', 'political']}, {'long_name': 'Texas', 'short_name': 'TX', 'types': ['administrative_area_level_1', 'political']}, {'long_name': 'United States', 'short_name': 'US', 'types': ['country', 'political']}, {'long_name': '77002', 'short_name': '77002', 'types': ['postal_code']}], 'formatted_address': '2450 San Jacinto St, Houston, TX 77002, USA', 'geometry': {'location': {'lat': 29.7453066, 'lng': -95.371946}, 'location_type': 'RANGE_INTERPOLATED', 'viewport': {'northeast': {'lat': 29.7466555802915, 'lng': -95.37059701970848}, 'southwest': {'lat': 29.7439576197085, 'lng': -95.3732949802915}}}, 'place_id': 'EisyNDUwIFNhbiBKYWNpbnRvIFN0LCBIb3VzdG9uLCBUWCA3NzAwMiwgVVNBIhsSGQoUChIJjeDVvxS_QIYRql2XPdyj4GgQkhM', 'types': ['street_address']}]"
2016-03-20 03:00:00,10H40,2600-2699,CAROLINE,Theft,road/street/sidewalk,1,3,20,Sunday,Mar,2016,2650,2650 CAROLINE,"[{'address_components': [{'long_name': '2650', 'short_name': '2650', 'types': ['street_number']}, {'long_name': 'Caroline Street', 'short_name': 'Caroline St', 'types': ['route']}, {'long_name': 'South Central Houston', 'short_name': 'South Central Houston', 'types': ['neighborhood', 'political']}, {'long_name': 'Houston', 'short_name': 'Houston', 'types': ['locality', 'political']}, {'long_name': 'Harris County', 'short_name': 'Harris County', 'types': ['administrative_area_level_2', 'political']}, {'long_name': 'Texas', 'short_name': 'TX', 'types': ['administrative_area_level_1', 'political']}, {'long_name': 'United States', 'short_name': 'US', 'types': ['country', 'political']}, {'long_name': '77004', 'short_name': '77004', 'types': ['postal_code']}, {'long_name': '1115', 'short_name': '1115', 'types': ['postal_code_suffix']}], 'formatted_address': '2650 Caroline St, Houston, TX 77004, USA', 'geometry': {'location': {'lat': 29.7433535, 'lng': -95.37215669999999}, 'location_type': 'RANGE_INTERPOLATED', 'viewport': {'northeast': {'lat': 29.7447024802915, 'lng': -95.3708077197085}, 'southwest': {'lat': 29.7420045197085, 'lng': -95.3735056802915}}}, 'place_id': 'EigyNjUwIENhcm9saW5lIFN0LCBIb3VzdG9uLCBUWCA3NzAwNCwgVVNBIhsSGQoUChIJeWe1XRO_QIYRzxnqVg3zQ6kQ2hQ', 'types': ['street_address']}]"
2016-03-20 21:00:00,10H40,1100-1199,WHEELER,Auto Theft,commercial parking lot or garage,1,21,20,Sunday,Mar,2016,1150,1150 WHEELER,"[{'address_components': [{'long_name': '1150', 'short_name': '1150', 'types': ['street_number']}, {'long_name': 'Wheeler Avenue', 'short_name': 'Wheeler Ave', 'types': ['route']}, {'long_name': 'South Central Houston', 'short_name': 'South Central Houston', 'types': ['neighborhood', 'political']}, {'long_name': 'Houston', 'short_name': 'Houston', 'types': ['locality', 'political']}, {'long_name': 'Harris County', 'short_name': 'Harris County', 'types': ['administrative_area_level_2', 'political']}, {'long_name': 'Texas', 'short_name': 'TX', 'types': ['administrative_area_level_1', 'political']}, {'long_name': 'United States', 'short_name': 'US', 'types': ['country', 'political']}, {'long_name': '77004', 'short_name': '77004', 'types': ['postal_code']}], 'formatted_address': '1150 Wheeler Ave, Houston, TX 77004, USA', 'geometry': {'location': {'lat': 29.7333529, 'lng': -95.381683}, 'location_type': 'RANGE_INTERPOLATED', 'viewport': {'northeast': {'lat': 29.7347018802915, 'lng': -95.38033401970849}, 'southwest': {'lat': 29.7320039197085, 'lng': -95.3830319802915}}}, 'place_id': 'EigxMTUwIFdoZWVsZXIgQXZlLCBIb3VzdG9uLCBUWCA3NzAwNCwgVVNBIhsSGQoUChIJL2jT6XC_QIYRA4_LJ0yoTdoQ_gg', 'types': ['street_address']}]"
2016-03-21 10:00:00,10H40,2300-2399,MILAM,Theft,garage or carport,1,10,21,Monday,Mar,2016,2350,2350 MILAM,"[{'address_components': [{'long_name': '2350', 'short_name': '2350', 'types': ['street_number']}, {'long_name': 'Milam Street', 'short_name': 'Milam St', 'types': ['route']}, {'long_name': 'South Central Houston', 'short_name': 'South Central Houston', 'types': ['neighborhood', 'political']}, {'long_name': 'Houston', 'short_name': 'Houston', 'types': ['locality', 'political']}, {'long_name': 'Harris County', 'short_name': 'Harris County', 'types': ['administrative_area_level_2', 'political']}, {'long_name': 'Texas', 'short_name': 'TX', 'types': ['administrative_area_level_1', 'political']}, {'long_name': 'United States', 'short_name': 'US', 'types': ['country', 'political']}, {'long_name': '77006', 'short_name': '77006', 'types': ['postal_code']}], 'formatted_address': '2350 Milam St, Houston, TX 77006, USA', 'geometry': {'location': {'lat': 29.7482473, 'lng': -95.3748244}, 'location_type': 'RANGE_INTERPOLATED', 'viewport': {'northeast': {'lat': 29.7495962802915, 'lng': -95.37347541970848}, 'southwest': {'lat': 29.7468983197085, 'lng': -95.37617338029149}}}, 'place_id': 'EiUyMzUwIE1pbGFtIFN0LCBIb3VzdG9uLCBUWCA3NzAwNiwgVVNBIhsSGQoUChIJc2x-7Gq_QIYRE_XS5FBjCCMQrhI', 'types': ['street_address']}]"
2016-03-21 23:00:00,10H40,4500-4599,TRAVIS,Rape,apartment,1,23,21,Monday,Mar,2016,4550,4550 TRAVIS,"[{'address_components': [{'long_name': '4550', 'short_name': '4550', 'types': ['street_number']}, {'long_name': 'Travis Street', 'short_name': 'Travis St', 'types': ['route']}, {'long_name': 'South Central Houston', 'short_name': 'South Central Houston', 'types': ['neighborhood', 'political']}, {'long_name': 'Houston', 'short_name': 'Houston', 'types': ['locality', 'political']}, {'long_name': 'Harris County', 'short_name': 'Harris County', 'types': ['administrative_area_level_2', 'political']}, {'long_name': 'Texas', 'short_name': 'TX', 'types': ['administrative_area_level_1', 'political']}, {'long_name': 'United States', 'short_name': 'US', 'types': ['country', 'political']}, {'long_name': '77002', 'short_name': '77002', 'types': ['postal_code']}], 'formatted_address': '4550 Travis St, Houston, TX 77002, USA', 'geometry': {'location': {'lat': 29.7336694, 'lng': -95.3845758}, 'location_type': 'RANGE_INTERPOLATED', 'viewport': {'northeast': {'lat': 29.7350183802915, 'lng': -95.38322681970848}, 'southwest': {'lat': 29.7323204197085, 'lng': -95.38592478029149}}}, 'place_id': 'EiY0NTUwIFRyYXZpcyBTdCwgSG91c3RvbiwgVFggNzcwMDIsIFVTQSIbEhkKFAoSCQUnR296v0CGEXvZby1q8mH9EMYj', 'types': ['street_address']}]"
2016-03-23 07:00:00,10H40,2500-2599,TRAVIS,Theft,road/street/sidewalk,1,7,23,Wednesday,Mar,2016,2550,2550 TRAVIS,"[{'address_components': [{'long_name': '2550', 'short_name': '2550', 'types': ['street_number']}, {'long_name': 'Travis Street', 'short_name': 'Travis St', 'types': ['route']}, {'long_name': 'Central Business District', 'short_name': 'Central Business District', 'types': ['neighborhood', 'political']}, {'long_name': 'Houston', 'short_name': 'Houston', 'types': ['locality', 'political']}, {'long_name': 'Harris County', 'short_name': 'Harris County', 'types': ['administrative_area_level_2', 'political']}, {'long_name': 'Texas', 'short_name': 'TX', 'types': ['administrative_area_level_1', 'political']}, {'long_name': 'United States', 'short_name': 'US', 'types': ['country', 'political']}, {'long_name': '77006', 'short_name': '77006', 'types': ['postal_code']}, {'long_name': '2383', 'short_name': '2383', 'types': ['postal_code_suffix']}], 'formatted_address': '2550 Travis St, Houston, TX 77006, USA', 'geometry': {'location': {'lat': 29.7463256, 'lng': -95.3749844}, 'location_type': 'RANGE_INTERPOLATED', 'viewport': {'northeast': {'lat': 29.7476745802915, 'lng': -95.37363541970849}, 'southwest': {'lat': 29.7449766197085, 'lng': -95.37633338029151}}}, 'place_id': 'EiYyNTUwIFRyYXZpcyBTdCwgSG91c3RvbiwgVFggNzcwMDYsIFVTQSIbEhkKFAoSCcX9tB9rv0CGEWt4x7OQ4MukEPYT', 'types': ['street_address']}]"
2016-03-23 09:00:00,10H40,1600-1699,HOLMAN,Burglary,residence/house,1,9,23,Wednesday,Mar,2016,1650,1650 HOLMAN,"[{'address_components': [{'long_name': '1650', 'short_name': '1650', 'types': ['street_number']}, {'long_name': 'Holman Street', 'short_name': 'Holman St', 'types': ['route']}, {'long_name': 'South Central Houston', 'short_name': 'South Central Houston', 'types': ['neighborhood', 'political']}, {'long_name': 'Houston', 'short_name': 'Houston', 'types': ['locality', 'political']}, {'long_name': 'Harris County', 'short_name': 'Harris County', 'types': ['administrative_area_level_2', 'political']}, {'long_name': 'Texas', 'short_name': 'TX', 'types': ['administrative_area_level_1', 'political']}, {'long_name': 'United States', 'short_name': 'US', 'types': ['country', 'political']}, {'long_name': '77004', 'short_name': '77004', 'types': ['postal_code']}], 'formatted_address': '1650 Holman St, Houston, TX 77004, USA', 'geometry': {'location': {'lat': 29.7360112, 'lng': -95.37249800000001}, 'location_type': 'RANGE_INTERPOLATED', 'viewport': {'northeast': {'lat': 29.7373601802915, 'lng': -95.37114901970851}, 'southwest': {'lat': 29.7346622197085, 'lng': -95.37384698029152}}}, 'place_id': 'EiYxNjUwIEhvbG1hbiBTdCwgSG91c3RvbiwgVFggNzcwMDQsIFVTQSIbEhkKFAoSCaNikjANv0CGEYPN_vwbEzh6EPIM', 'types': ['street_address']}]"
2016-03-23 23:00:00,10H40,2900-2999,JACKSON,Theft,residence/house,1,23,23,Wednesday,Mar,2016,2950,2950 JACKSON,"[{'address_components': [{'long_name': '2950', 'short_name': '2950', 'types': ['street_number']}, {'long_name': 'Jackson Street', 'short_name': 'Jackson St', 'types': ['route']}, {'long_name': 'Midtown', 'short_name': 'Midtown', 'types': ['neighborhood', 'political']}, {'long_name': 'Houston', 'short_name': 'Houston', 'types': ['locality', 'political']}, {'long_name': 'Harris County', 'short_name': 'Harris County', 'types': ['administrative_area_level_2', 'political']}, {'long_name': 'Texas', 'short_name': 'TX', 'types': ['administrative_area_level_1', 'political']}, {'long_name': 'United States', 'short_name': 'US', 'types': ['country', 'political']}, {'long_name': '77004', 'short_name': '77004', 'types': ['postal_code']}, {'long_name': '3032', 'short_name': '3032', 'types': ['postal_code_suffix']}], 'formatted_address': '2950 Jackson St, Houston, TX 77004, USA', 'geometry': {'bounds': {'northeast': {'lat': 29.7393112, 'lng': -95.3703758}, 'southwest': {'lat': 29.7390471, 'lng': -95.3707239}}, 'location': {'lat': 29.7391744, 'lng': -95.370544}, 'location_type': 'ROOFTOP', 'viewport': {'northeast': {'lat': 29.7405281302915, 'lng': -95.36920086970851}, 'southwest': {'lat': 29.7378301697085, 'lng': -95.37189883029151}}}, 'place_id': 'ChIJvXOBiRK_QIYRB0Ts1vEeMq8', 'types': ['premise']}]"
2016-03-24 01:00:00,10H40,2100-2199,FANNIN,Aggravated Assault,service or gas station,1,1,24,Thursday,Mar,2016,2150,2150 FANNIN,"[{'address_components': [{'long_name': '2150', 'short_name': '2150', 'types': ['street_number']}, {'long_name': 'Fannin Street', 'short_name': 'Fannin St', 'types': ['route']}, {'long_name': 'South Central Houston', 'short_name': 'South Central Houston', 'types': ['neighborhood', 'political']}, {'long_name': 'Houston', 'short_name': 'Houston', 'types': ['locality', 'political']}, {'long_name': 'Harris County', 'short_name': 'Harris County', 'types': ['administrative_area_level_2', 'political']}, {'long_name': 'Texas', 'short_name': 'TX', 'types': ['administrative_area_level_1', 'political']}, {'long_name': 'United States', 'short_name': 'US', 'types': ['country', 'political']}, {'long_name': '77002', 'short_name': '77002', 'types': ['postal_code']}], 'formatted_address': '2150 Fannin St, Houston, TX 77002, USA', 'geometry': {'location': {'lat': 29.7478225, 'lng': -95.3708632}, 'location_type': 'RANGE_INTERPOLATED', 'viewport': {'northeast': {'lat': 29.7491714802915, 'lng': -95.3695142197085}, 'southwest': {'lat': 29.7464735197085, 'lng': -95.37221218029151}}}, 'place_id': 'EiYyMTUwIEZhbm5pbiBTdCwgSG91c3RvbiwgVFggNzcwMDIsIFVTQSIbEhkKFAoSCZMjhA4Vv0CGETIt5eN5xLs9EOYQ', 'types': ['street_address']}]"
2016-03-24 07:00:00,10H40,2100-2199,FANNIN,Theft,convenience store parking lot,1,7,24,Thursday,Mar,2016,2150,2150 FANNIN,"[{'address_components': [{'long_name': '2150', 'short_name': '2150', 'types': ['street_number']}, {'long_name': 'Fannin Street', 'short_name': 'Fannin St', 'types': ['route']}, {'long_name': 'South Central Houston', 'short_name': 'South Central Houston', 'types': ['neighborhood', 'political']}, {'long_name': 'Houston', 'short_name': 'Houston', 'types': ['locality', 'political']}, {'long_name': 'Harris County', 'short_name': 'Harris County', 'types': ['administrative_area_level_2', 'political']}, {'long_name': 'Texas', 'short_name': 'TX', 'types': ['administrative_area_level_1', 'political']}, {'long_name': 'United States', 'short_name': 'US', 'types': ['country', 'political']}, {'long_name': '77002', 'short_name': '77002', 'types': ['postal_code']}], 'formatted_address': '2150 Fannin St, Houston, TX 77002, USA', 'geometry': {'location': {'lat': 29.7478225, 'lng': -95.3708632}, 'location_type': 'RANGE_INTERPOLATED', 'viewport': {'northeast': {'lat': 29.7491714802915, 'lng': -95.3695142197085}, 'southwest': {'lat': 29.7464735197085, 'lng': -95.37221218029151}}}, 'place_id': 'EiYyMTUwIEZhbm5pbiBTdCwgSG91c3RvbiwgVFggNzcwMDIsIFVTQSIbEhkKFAoSCZMjhA4Vv0CGETIt5eN5xLs9EOYQ', 'types': ['street_address']}]"
2016-03-25 09:00:00,10H40,2100-2199,MAIN,Theft,bus station,1,9,25,Friday,Mar,2016,2150,2150 MAIN,"[{'address_components': [{'long_name': '2150', 'short_name': '2150', 'types': ['street_number']}, {'long_name': 'South Main Street', 'short_name': 'S Main St', 'types': ['route']}, {'long_name': 'South Central Houston', 'short_name': 'South Central Houston', 'types': ['neighborhood', 'political']}, {'long_name': 'Houston', 'short_name': 'Houston', 'types': ['locality', 'political']}, {'long_name': 'Harris County', 'short_name': 'Harris County', 'types': ['administrative_area_level_2', 'political']}, {'long_name': 'Texas', 'short_name': 'TX', 'types': ['administrative_area_level_1', 'political']}, {'long_name': 'United States', 'short_name': 'US', 'types': ['country', 'political']}, {'long_name': '77002', 'short_name': '77002', 'types': ['postal_code']}], 'formatted_address': '2150 S Main St, Houston, TX 77002, USA', 'geometry': {'location': {'lat': 29.7486553, 'lng': -95.3716125}, 'location_type': 'RANGE_INTERPOLATED', 'viewport': {'northeast': {'lat': 29.7500042802915, 'lng': -95.37026351970849}, 'southwest': {'lat': 29.7473063197085, 'lng': -95.37296148029151}}}, 'place_id': 'EiYyMTUwIFMgTWFpbiBTdCwgSG91c3RvbiwgVFggNzcwMDIsIFVTQSIbEhkKFAoSCXeF0UEVv0CGEeMpdnorH0JNEOYQ', 'types': ['street_address']}]"
2016-03-25 13:00:00,10H40,2100-2199,FANNIN,Theft,service or gas station,1,13,25,Friday,Mar,2016,2150,2150 FANNIN,"[{'address_components': [{'long_name': '2150', 'short_name': '2150', 'types': ['street_number']}, {'long_name': 'Fannin Street', 'short_name': 'Fannin St', 'types': ['route']}, {'long_name': 'South Central Houston', 'short_name': 'South Central Houston', 'types': ['neighborhood', 'political']}, {'long_name': 'Houston', 'short_name': 'Houston', 'types': ['locality', 'political']}, {'long_name': 'Harris County', 'short_name': 'Harris County', 'types': ['administrative_area_level_2', 'political']}, {'long_name': 'Texas', 'short_name': 'TX', 'types': ['administrative_area_level_1', 'political']}, {'long_name': 'United States', 'short_name': 'US', 'types': ['country', 'political']}, {'long_name': '77002', 'short_name': '77002', 'types': ['postal_code']}], 'formatted_address': '2150 Fannin St, Houston, TX 77002, USA', 'geometry': {'location': {'lat': 29.7478225, 'lng': -95.3708632}, 'location_type': 'RANGE_INTERPOLATED', 'viewport': {'northeast': {'lat': 29.7491714802915, 'lng': -95.3695142197085}, 'southwest': {'lat': 29.7464735197085, 'lng': -95.37221218029151}}}, 'place_id': 'EiYyMTUwIEZhbm5pbiBTdCwgSG91c3RvbiwgVFggNzcwMDIsIFVTQSIbEhkKFAoSCZMjhA4Vv0CGETIt5eN5xLs9EOYQ', 'types': ['street_address']}]"
2016-03-25 18:00:00,10H40,2600-2699,TRAVIS,Theft,bar or night club parking lot,1,18,25,Friday,Mar,2016,2650,2650 TRAVIS,"[{'address_components': [{'long_name': '2650', 'short_name': '2650', 'types': ['street_number']}, {'long_name': 'Travis Street', 'short_name': 'Travis St', 'types': ['route']}, {'long_name': 'South Central Houston', 'short_name': 'South Central Houston', 'types': ['neighborhood', 'political']}, {'long_name': 'Houston', 'short_name': 'Houston', 'types': ['locality', 'political']}, {'long_name': 'Harris County', 'short_name': 'Harris County', 'types': ['administrative_area_level_2', 'political']}, {'long_name': 'Texas', 'short_name': 'TX', 'types': ['administrative_area_level_1', 'political']}, {'long_name': 'United States', 'short_name': 'US', 'types': ['country', 'political']}, {'long_name': '77006', 'short_name': '77006', 'types': ['postal_code']}], 'formatted_address': '2650 Travis St, Houston, TX 77006, USA', 'geometry': {'location': {'lat': 29.7456322, 'lng': -95.3754846}, 'location_type': 'RANGE_INTERPOLATED', 'viewport': {'northeast': {'lat': 29.7469811802915, 'lng': -95.37413561970848}, 'southwest': {'lat': 29.7442832197085, 'lng': -95.37683358029149}}}, 'place_id': 'EiYyNjUwIFRyYXZpcyBTdCwgSG91c3RvbiwgVFggNzcwMDYsIFVTQSIbEhkKFAoSCYkPvg5rv0CGERSNc2joKbVsENoU', 'types': ['street_address']}]"
2016-03-25 19:00:00,10H40,4200-4299,MAIN,Theft,department/discount store,1,19,25,Friday,Mar,2016,4250,4250 MAIN,"[{'address_components': [{'long_name': '4250', 'short_name': '4250', 'types': ['street_number']}, {'long_name': 'South Main Street', 'short_name': 'S Main St', 'types': ['route']}, {'long_name': 'South Central Houston', 'short_name': 'South Central Houston', 'types': ['neighborhood', 'political']}, {'long_name': 'Houston', 'short_name': 'Houston', 'types': ['locality', 'political']}, {'long_name': 'Harris County', 'short_name': 'Harris County', 'types': ['administrative_area_level_2', 'political']}, {'long_name': 'Texas', 'short_name': 'TX', 'types': ['administrative_area_level_1', 'political']}, {'long_name': 'United States', 'short_name': 'US', 'types': ['country', 'political']}, {'long_name': '77002', 'short_name': '77002', 'types': ['postal_code']}, {'long_name': '9621', 'short_name': '9621', 'types': ['postal_code_suffix']}], 'formatted_address': '4250 S Main St, Houston, TX 77002, USA', 'geometry': {'location': {'lat': 29.7349112, 'lng': -95.3829581}, 'location_type': 'RANGE_INTERPOLATED', 'viewport': {'northeast': {'lat': 29.7362601802915, 'lng': -95.38160911970849}, 'southwest': {'lat': 29.7335622197085, 'lng': -95.3843070802915}}}, 'place_id': 'EiY0MjUwIFMgTWFpbiBTdCwgSG91c3RvbiwgVFggNzcwMDIsIFVTQSIbEhkKFAoSCVM5dGFwv0CGEfWI13zSrxyQEJoh', 'types': ['street_address']}]"
2016-03-26 00:00:00,10H40,2100-2199,TRAVIS,Theft,road/street/sidewalk,1,0,26,Saturday,Mar,2016,2150,2150 TRAVIS,"[{'address_components': [{'long_name': '2150', 'short_name': '2150', 'types': ['street_number']}, {'long_name': 'Travis Street', 'short_name': 'Travis St', 'types': ['route']}, {'long_name': 'Central Business District', 'short_name': 'Central Business District', 'types': ['neighborhood', 'political']}, {'long_name': 'Houston', 'short_name': 'Houston', 'types': ['locality', 'political']}, {'long_name': 'Harris County', 'short_name': 'Harris County', 'types': ['administrative_area_level_2', 'political']}, {'long_name': 'Texas', 'short_name': 'TX', 'types': ['administrative_area_level_1', 'political']}, {'long_name': 'United States', 'short_name': 'US', 'types': ['country', 'political']}, {'long_name': '77002', 'short_name': '77002', 'types': ['postal_code']}, {'long_name': '8709', 'short_name': '8709', 'types': ['postal_code_suffix']}], 'formatted_address': '2150 Travis St, Houston, TX 77002, USA', 'geometry': {'location': {'lat': 29.7488528, 'lng': -95.37303519999999}, 'location_type': 'RANGE_INTERPOLATED', 'viewport': {'northeast': {'lat': 29.7502017802915, 'lng': -95.3716862197085}, 'southwest': {'lat': 29.7475038197085, 'lng': -95.3743841802915}}}, 'place_id': 'EiYyMTUwIFRyYXZpcyBTdCwgSG91c3RvbiwgVFggNzcwMDIsIFVTQSIbEhkKFAoSCQ8l3VEVv0CGEebAXeyW7SgGEOYQ', 'types': ['street_address']}]"
2016-03-26 07:00:00,10H40,3600-3699,MAIN,Burglary,restaurant/cafeteria parking lot,1,7,26,Saturday,Mar,2016,3650,3650 MAIN,"[{'address_components': [{'long_name': '3650', 'short_name': '3650', 'types': ['street_number']}, {'long_name': 'South Main Street', 'short_name': 'S Main St', 'types': ['route']}, {'long_name': 'South Central Houston', 'short_name': 'South Central Houston', 'types': ['neighborhood', 'political']}, {'long_name': 'Houston', 'short_name': 'Houston', 'types': ['locality', 'political']}, {'long_name': 'Harris County', 'short_name': 'Harris County', 'types': ['administrative_area_level_2', 'political']}, {'long_name': 'Texas', 'short_name': 'TX', 'types': ['administrative_area_level_1', 'political']}, {'long_name': 'United States', 'short_name': 'US', 'types': ['country', 'political']}, {'long_name': '77002', 'short_name': '77002', 'types': ['postal_code']}, {'long_name': '9502', 'short_name': '9502', 'types': ['postal_code_suffix']}], 'formatted_address': '3650 S Main St, Houston, TX 77002, USA', 'geometry': {'location': {'lat': 29.7387534, 'lng': -95.37975139999999}, 'location_type': 'RANGE_INTERPOLATED', 'viewport': {'northeast': {'lat': 29.7401023802915, 'lng': -95.3784024197085}, 'southwest': {'lat': 29.7374044197085, 'lng': -95.3811003802915}}}, 'place_id': 'EiYzNjUwIFMgTWFpbiBTdCwgSG91c3RvbiwgVFggNzcwMDIsIFVTQSIbEhkKFAoSCeHhjxZuv0CGEVKjlZAiYxmDEMIc', 'types': ['street_address']}]"
2016-03-26 22:00:00,10H40,3300-3399,MAIN,Theft,road/street/sidewalk,1,22,26,Saturday,Mar,2016,3350,3350 MAIN,"[{'address_components': [{'long_name': '3350', 'short_name': '3350', 'types': ['street_number']}, {'long_name': 'South Main Street', 'short_name': 'S Main St', 'types': ['route']}, {'long_name': 'South Central Houston', 'short_name': 'South Central Houston', 'types': ['neighborhood', 'political']}, {'long_name': 'Houston', 'short_name': 'Houston', 'types': ['locality', 'political']}, {'long_name': 'Harris County', 'short_name': 'Harris County', 'types': ['administrative_area_level_2', 'political']}, {'long_name': 'Texas', 'short_name': 'TX', 'types': ['administrative_area_level_1', 'political']}, {'long_name': 'United States', 'short_name': 'US', 'types': ['country', 'political']}, {'long_name': '77002', 'short_name': '77002', 'types': ['postal_code']}, {'long_name': '9316', 'short_name': '9316', 'types': ['postal_code_suffix']}], 'formatted_address': '3350 S Main St, Houston, TX 77002, USA', 'geometry': {'location': {'lat': 29.7405423, 'lng': -95.3781104}, 'location_type': 'RANGE_INTERPOLATED', 'viewport': {'northeast': {'lat': 29.7418912802915, 'lng': -95.37676141970849}, 'southwest': {'lat': 29.7391933197085, 'lng': -95.3794593802915}}}, 'place_id': 'EiYzMzUwIFMgTWFpbiBTdCwgSG91c3RvbiwgVFggNzcwMDIsIFVTQSIbEhkKFAoSCWVvTtNtv0CGEaWDwDdRDHX9EJYa', 'types': ['street_address']}]"
2016-03-27 07:00:00,10H40,2200-2299,MAIN,Aggravated Assault,road/street/sidewalk,1,7,27,Sunday,Mar,2016,2250,2250 MAIN,"[{'address_components': [{'long_name': '2250', 'short_name': '2250', 'types': ['street_number']}, {'long_name': 'South Main Street', 'short_name': 'S Main St', 'types': ['route']}, {'long_name': 'South Central Houston', 'short_name': 'South Central Houston', 'types': ['neighborhood', 'political']}, {'long_name': 'Houston', 'short_name': 'Houston', 'types': ['locality', 'political']}, {'long_name': 'Harris County', 'short_name': 'Harris County', 'types': ['administrative_area_level_2', 'political']}, {'long_name': 'Texas', 'short_name': 'TX', 'types': ['administrative_area_level_1', 'political']}, {'long_name': 'United States', 'short_name': 'US', 'types': ['country', 'political']}, {'long_name': '77002', 'short_name': '77002', 'types': ['postal_code']}, {'long_name': '8814', 'short_name': '8814', 'types': ['postal_code_suffix']}], 'formatted_address': '2250 S Main St, Houston, TX 77002, USA', 'geometry': {'location': {'lat': 29.7475069, 'lng': -95.3727603}, 'location_type': 'RANGE_INTERPOLATED', 'viewport': {'northeast': {'lat': 29.7488558802915, 'lng': -95.3714113197085}, 'southwest': {'lat': 29.7461579197085, 'lng': -95.3741092802915}}}, 'place_id': 'EiYyMjUwIFMgTWFpbiBTdCwgSG91c3RvbiwgVFggNzcwMDIsIFVTQSIbEhkKFAoSCe3QbzoVv0CGEWSI9S2e6SyPEMoR', 'types': ['street_address']}]"
2016-03-27 21:00:00,10H40,2300-2399,MAIN,Theft,bar or night club,1,21,27,Sunday,Mar,2016,2350,2350 MAIN,"[{'address_components': [{'long_name': '2350', 'short_name': '2350', 'types': ['street_number']}, {'long_name': 'South Main Street', 'short_name': 'S Main St', 'types': ['route']}, {'long_name': 'South Central Houston', 'short_name': 'South Central Houston', 'types': ['neighborhood', 'political']}, {'long_name': 'Houston', 'short_name': 'Houston', 'types': ['locality', 'political']}, {'long_name': 'Harris County', 'short_name': 'Harris County', 'types': ['administrative_area_level_2', 'political']}, {'long_name': 'Texas', 'short_name': 'TX', 'types': ['administrative_area_level_1', 'political']}, {'long_name': 'United States', 'short_name': 'US', 'types': ['country', 'political']}, {'long_name': '77002', 'short_name': '77002', 'types': ['postal_code']}], 'formatted_address': '2350 S Main St, Houston, TX 77002, USA', 'geometry': {'location': {'lat': 29.7470675, 'lng': -95.3735174}, 'location_type': 'RANGE_INTERPOLATED', 'viewport': {'northeast': {'lat': 29.7484164802915, 'lng': -95.3721684197085}, 'southwest': {'lat': 29.7457185197085, 'lng': -95.37486638029151}}}, 'place_id': 'EiYyMzUwIFMgTWFpbiBTdCwgSG91c3RvbiwgVFggNzcwMDIsIFVTQSIbEhkKFAoSCQ8cFSsVv0CGEcWo8JGL0fliEK4S', 'types': ['street_address']}]"
2016-03-28 20:00:00,10H40,4200-4299,SAN JACINTO,Theft,residence/house,1,20,28,Monday,Mar,2016,4250,4250 SAN JACINTO,"[{'address_components': [{'long_name': '4250', 'short_name': '4250', 'types': ['street_number']}, {'long_name': 'San Jacinto Street', 'short_name': 'San Jacinto St', 'types': ['route']}, {'long_name': 'South Central Houston', 'short_name': 'South Central Houston', 'types': ['neighborhood', 'political']}, {'long_name': 'Houston', 'short_name': 'Houston', 'types': ['locality', 'political']}, {'long_name': 'Harris County', 'short_name': 'Harris County', 'types': ['administrative_area_level_2', 'political']}, {'long_name': 'Texas', 'short_name': 'TX', 'types': ['administrative_area_level_1', 'political']}, {'long_name': 'United States', 'short_name': 'US', 'types': ['country', 'political']}, {'long_name': '77004', 'short_name': '77004', 'types': ['postal_code']}, {'long_name': '4853', 'short_name': '4853', 'types': ['postal_code_suffix']}], 'formatted_address': '4250 San Jacinto St, Houston, TX 77004, USA', 'geometry': {'location': {'lat': 29.733958, 'lng': -95.3806013}, 'location_type': 'RANGE_INTERPOLATED', 'viewport': {'northeast': {'lat': 29.7353069802915, 'lng': -95.3792523197085}, 'southwest': {'lat': 29.7326090197085, 'lng': -95.3819502802915}}}, 'place_id': 'Eis0MjUwIFNhbiBKYWNpbnRvIFN0LCBIb3VzdG9uLCBUWCA3NzAwNCwgVVNBIhsSGQoUChIJjYyQHHG_QIYR6W6JtYfpoMkQmiE', 'types': ['street_address']}]"
2016-03-30 02:00:00,10H40,2200-2299,FANNIN,Murder,"other, unknown, or not listed",1,2,30,Wednesday,Mar,2016,2250,2250 FANNIN,"[{'address_components': [{'long_name': '2250', 'short_name': '2250', 'types': ['street_number']}, {'long_name': 'Fannin Street', 'short_name': 'Fannin St', 'types': ['route']}, {'long_name': 'South Central Houston', 'short_name': 'South Central Houston', 'types': ['neighborhood', 'political']}, {'long_name': 'Houston', 'short_name': 'Houston', 'types': ['locality', 'political']}, {'long_name': 'Harris County', 'short_name': 'Harris County', 'types': ['administrative_area_level_2', 'political']}, {'long_name': 'Texas', 'short_name': 'TX', 'types': ['administrative_area_level_1', 'political']}, {'long_name': 'United States', 'short_name': 'US', 'types': ['country', 'political']}, {'long_name': '77002', 'short_name': '77002', 'types': ['postal_code']}], 'formatted_address': '2250 Fannin St, Houston, TX 77002, USA', 'geometry': {'location': {'lat': 29.7470879, 'lng': -95.37207629999999}, 'location_type': 'RANGE_INTERPOLATED', 'viewport': {'northeast': {'lat': 29.7484368802915, 'lng': -95.3707273197085}, 'southwest': {'lat': 29.7457389197085, 'lng': -95.3734252802915}}}, 'place_id': 'EiYyMjUwIEZhbm5pbiBTdCwgSG91c3RvbiwgVFggNzcwMDIsIFVTQSIbEhkKFAoSCXc-vR8Vv0CGEX3JaSX6J9ycEMoR', 'types': ['street_address']}]"
2016-03-30 06:00:00,10H40,3800-3899,FANNIN,Robbery,no label,1,6,30,Wednesday,Mar,2016,3850,3850 FANNIN,"[{'address_components': [{'long_name': '3850', 'short_name': '3850', 'types': ['street_number']}, {'long_name': 'Fannin Street', 'short_name': 'Fannin St', 'types': ['route']}, {'long_name': 'South Central Houston', 'short_name': 'South Central Houston', 'types': ['neighborhood', 'political']}, {'long_name': 'Houston', 'short_name': 'Houston', 'types': ['locality', 'political']}, {'long_name': 'Harris County', 'short_name': 'Harris County', 'types': ['administrative_area_level_2', 'political']}, {'long_name': 'Texas', 'short_name': 'TX', 'types': ['administrative_area_level_1', 'political']}, {'long_name': 'United States', 'short_name': 'US', 'types': ['country', 'political']}, {'long_name': '77004', 'short_name': '77004', 'types': ['postal_code']}, {'long_name': '3918', 'short_name': '3918', 'types': ['postal_code_suffix']}], 'formatted_address': '3850 Fannin St, Houston, TX 77004, USA', 'geometry': {'location': {'lat': 29.7368503, 'lng': -95.379859}, 'location_type': 'RANGE_INTERPOLATED', 'viewport': {'northeast': {'lat': 29.7381992802915, 'lng': -95.37851001970849}, 'southwest': {'lat': 29.7355013197085, 'lng': -95.3812079802915}}}, 'place_id': 'EiYzODUwIEZhbm5pbiBTdCwgSG91c3RvbiwgVFggNzcwMDQsIFVTQSIbEhkKFAoSCZuEKeZxv0CGEYWVmHQYC8YYEIoe', 'types': ['street_address']}]"
2016-03-30 15:00:00,10H40,1200-1299,MCGOWEN,Auto Theft,nursing home,1,15,30,Wednesday,Mar,2016,1250,1250 MCGOWEN,"[{'address_components': [{'long_name': '1250', 'short_name': '1250', 'types': ['street_number']}, {'long_name': 'McGowen Street', 'short_name': 'McGowen St', 'types': ['route']}, {'long_name': 'South Central Houston', 'short_name': 'South Central Houston', 'types': ['neighborhood', 'political']}, {'long_name': 'Houston', 'short_name': 'Houston', 'types': ['locality', 'political']}, {'long_name': 'Harris County', 'short_name': 'Harris County', 'types': ['administrative_area_level_2', 'political']}, {'long_name': 'Texas', 'short_name': 'TX', 'types': ['administrative_area_level_1', 'political']}, {'long_name': 'United States', 'short_name': 'US', 'types': ['country', 'political']}, {'long_name': '77004', 'short_name': '77004', 'types': ['postal_code']}, {'long_name': '1108', 'short_name': '1108', 'types': ['postal_code_suffix']}], 'formatted_address': '1250 McGowen St, Houston, TX 77004, USA', 'geometry': {'location': {'lat': 29.74369429999999, 'lng': -95.371798}, 'location_type': 'RANGE_INTERPOLATED', 'viewport': {'northeast': {'lat': 29.74504328029149, 'lng': -95.37044901970849}, 'southwest': {'lat': 29.7423453197085, 'lng': -95.3731469802915}}}, 'place_id': 'EicxMjUwIE1jR293ZW4gU3QsIEhvdXN0b24sIFRYIDc3MDA0LCBVU0EiGxIZChQKEglnZg2hFL9AhhFx-7kXx5a3YBDiCQ', 'types': ['street_address']}]"
2016-03-30 17:00:00,10H40,1600-1699,MCGOWEN,Theft,road/street/sidewalk,1,17,30,Wednesday,Mar,2016,1650,1650 MCGOWEN,"[{'address_components': [{'long_name': '1650', 'short_name': '1650', 'types': ['street_number']}, {'long_name': 'McGowen Street', 'short_name': 'McGowen St', 'types': ['route']}, {'long_name': 'South Central Houston', 'short_name': 'South Central Houston', 'types': ['neighborhood', 'political']}, {'long_name': 'Houston', 'short_name': 'Houston', 'types': ['locality', 'political']}, {'long_name': 'Harris County', 'short_name': 'Harris County', 'types': ['administrative_area_level_2', 'political']}, {'long_name': 'Texas', 'short_name': 'TX', 'types': ['administrative_area_level_1', 'political']}, {'long_name': 'United States', 'short_name': 'US', 'types': ['country', 'political']}, {'long_name': '77004', 'short_name': '77004', 'types': ['postal_code']}, {'long_name': '1147', 'short_name': '1147', 'types': ['postal_code_suffix']}], 'formatted_address': '1650 McGowen St, Houston, TX 77004, USA', 'geometry': {'location': {'lat': 29.7416443, 'lng': -95.3686907}, 'location_type': 'RANGE_INTERPOLATED', 'viewport': {'northeast': {'lat': 29.7429932802915, 'lng': -95.3673417197085}, 'southwest': {'lat': 29.7402953197085, 'lng': -95.37003968029151}}}, 'place_id': 'EicxNjUwIE1jR293ZW4gU3QsIEhvdXN0b24sIFRYIDc3MDA0LCBVU0EiGxIZChQKEgl_ytrEE79AhhHJ96C526O_XxDyDA', 'types': ['street_address']}]"
2016-03-30 20:00:00,10H40,4200-4299,SAN JACINTO,Theft,grocery store or supermarket,1,20,30,Wednesday,Mar,2016,4250,4250 SAN JACINTO,"[{'address_components': [{'long_name': '4250', 'short_name': '4250', 'types': ['street_number']}, {'long_name': 'San Jacinto Street', 'short_name': 'San Jacinto St', 'types': ['route']}, {'long_name': 'South Central Houston', 'short_name': 'South Central Houston', 'types': ['neighborhood', 'political']}, {'long_name': 'Houston', 'short_name': 'Houston', 'types': ['locality', 'political']}, {'long_name': 'Harris County', 'short_name': 'Harris County', 'types': ['administrative_area_level_2', 'political']}, {'long_name': 'Texas', 'short_name': 'TX', 'types': ['administrative_area_level_1', 'political']}, {'long_name': 'United States', 'short_name': 'US', 'types': ['country', 'political']}, {'long_name': '77004', 'short_name': '77004', 'types': ['postal_code']}, {'long_name': '4853', 'short_name': '4853', 'types': ['postal_code_suffix']}], 'formatted_address': '4250 San Jacinto St, Houston, TX 77004, USA', 'geometry': {'location': {'lat': 29.733958, 'lng': -95.3806013}, 'location_type': 'RANGE_INTERPOLATED', 'viewport': {'northeast': {'lat': 29.7353069802915, 'lng': -95.3792523197085}, 'southwest': {'lat': 29.7326090197085, 'lng': -95.3819502802915}}}, 'place_id': 'Eis0MjUwIFNhbiBKYWNpbnRvIFN0LCBIb3VzdG9uLCBUWCA3NzAwNCwgVVNBIhsSGQoUChIJjYyQHHG_QIYR6W6JtYfpoMkQmiE', 'types': ['street_address']}]"
2016-03-30 20:00:00,10H40,2100-2199,FANNIN,Theft,bus station,1,20,30,Wednesday,Mar,2016,2150,2150 FANNIN,"[{'address_components': [{'long_name': '2150', 'short_name': '2150', 'types': ['street_number']}, {'long_name': 'Fannin Street', 'short_name': 'Fannin St', 'types': ['route']}, {'long_name': 'South Central Houston', 'short_name': 'South Central Houston', 'types': ['neighborhood', 'political']}, {'long_name': 'Houston', 'short_name': 'Houston', 'types': ['locality', 'political']}, {'long_name': 'Harris County', 'short_name': 'Harris County', 'types': ['administrative_area_level_2', 'political']}, {'long_name': 'Texas', 'short_name': 'TX', 'types': ['administrative_area_level_1', 'political']}, {'long_name': 'United States', 'short_name': 'US', 'types': ['country', 'political']}, {'long_name': '77002', 'short_name': '77002', 'types': ['postal_code']}], 'formatted_address': '2150 Fannin St, Houston, TX 77002, USA', 'geometry': {'location': {'lat': 29.7478225, 'lng': -95.3708632}, 'location_type': 'RANGE_INTERPOLATED', 'viewport': {'northeast': {'lat': 29.7491714802915, 'lng': -95.3695142197085}, 'southwest': {'lat': 29.7464735197085, 'lng': -95.37221218029151}}}, 'place_id': 'EiYyMTUwIEZhbm5pbiBTdCwgSG91c3RvbiwgVFggNzcwMDIsIFVTQSIbEhkKFAoSCZMjhA4Vv0CGETIt5eN5xLs9EOYQ', 'types': ['street_address']}]"
2016-03-30 23:00:00,10H40,3000-3099,TRAVIS,Theft,restaurant/cafeteria parking lot,1,23,30,Wednesday,Mar,2016,3050,3050 TRAVIS,"[{'address_components': [{'long_name': '3050', 'short_name': '3050', 'types': ['street_number']}, {'long_name': 'Travis Street', 'short_name': 'Travis St', 'types': ['route']}, {'long_name': 'South Central Houston', 'short_name': 'South Central Houston', 'types': ['neighborhood', 'political']}, {'long_name': 'Houston', 'short_name': 'Houston', 'types': ['locality', 'political']}, {'long_name': 'Harris County', 'short_name': 'Harris County', 'types': ['administrative_area_level_2', 'political']}, {'long_name': 'Texas', 'short_name': 'TX', 'types': ['administrative_area_level_1', 'political']}, {'long_name': 'United States', 'short_name': 'US', 'types': ['country', 'political']}, {'long_name': '77006', 'short_name': '77006', 'types': ['postal_code']}], 'formatted_address': '3050 Travis St, Houston, TX 77006, USA', 'geometry': {'location': {'lat': 29.7432923, 'lng': -95.3776079}, 'location_type': 'RANGE_INTERPOLATED', 'viewport': {'northeast': {'lat': 29.7446412802915, 'lng': -95.3762589197085}, 'southwest': {'lat': 29.7419433197085, 'lng': -95.37895688029151}}}, 'place_id': 'EiYzMDUwIFRyYXZpcyBTdCwgSG91c3RvbiwgVFggNzcwMDYsIFVTQSIbEhkKFAoSCa0yyQ1sv0CGEYFTeNrk8ywoEOoX', 'types': ['street_address']}]"
2016-03-31 01:00:00,10H40,800-899,BERRY,Theft,road/street/sidewalk,1,1,31,Thursday,Mar,2016,850,850 BERRY,"[{'address_components': [{'long_name': '850', 'short_name': '850', 'types': ['street_number']}, {'long_name': 'Berry Road', 'short_name': 'Berry Rd', 'types': ['route']}, {'long_name': 'Northside', 'short_name': 'Northside', 'types': ['neighborhood', 'political']}, {'long_name': 'Houston', 'short_name': 'Houston', 'types': ['locality', 'political']}, {'long_name': 'Harris County', 'short_name': 'Harris County', 'types': ['administrative_area_level_2', 'political']}, {'long_name': 'Texas', 'short_name': 'TX', 'types': ['administrative_area_level_1', 'political']}, {'long_name': 'United States', 'short_name': 'US', 'types': ['country', 'political']}, {'long_name': '77022', 'short_name': '77022', 'types': ['postal_code']}, {'long_name': '3308', 'short_name': '3308', 'types': ['postal_code_suffix']}], 'formatted_address': '850 Berry Rd, Houston, TX 77022, USA', 'geometry': {'location': {'lat': 29.837277, 'lng': -95.363135}, 'location_type': 'RANGE_INTERPOLATED', 'viewport': {'northeast': {'lat': 29.8386259802915, 'lng': -95.36178601970849}, 'southwest': {'lat': 29.8359280197085, 'lng': -95.36448398029151}}}, 'place_id': 'EiQ4NTAgQmVycnkgUmQsIEhvdXN0b24sIFRYIDc3MDIyLCBVU0EiGxIZChQKEgkphBccRrhAhhGj_fg9UzDqTRDSBg', 'types': ['street_address']}]"
2016-03-31 08:00:00,10H40,3700-3799,MAIN,Theft,road/street/sidewalk,1,8,31,Thursday,Mar,2016,3750,3750 MAIN,"[{'address_components': [{'long_name': '3750', 'short_name': '3750', 'types': ['street_number']}, {'long_name': 'South Main Street', 'short_name': 'S Main St', 'types': ['route']}, {'long_name': 'South Central Houston', 'short_name': 'South Central Houston', 'types': ['neighborhood', 'political']}, {'long_name': 'Houston', 'short_name': 'Houston', 'types': ['locality', 'political']}, {'long_name': 'Harris County', 'short_name': 'Harris County', 'types': ['administrative_area_level_2', 'political']}, {'long_name': 'Texas', 'short_name': 'TX', 'types': ['administrative_area_level_1', 'political']}, {'long_name': 'United States', 'short_name': 'US', 'types': ['country', 'political']}, {'long_name': '77002', 'short_name': '77002', 'types': ['postal_code']}, {'long_name': '9504', 'short_name': '9504', 'types': ['postal_code_suffix']}], 'formatted_address': '3750 S Main St, Houston, TX 77002, USA', 'geometry': {'location': {'lat': 29.7381825, 'lng': -95.3800591}, 'location_type': 'RANGE_INTERPOLATED', 'viewport': {'northeast': {'lat': 29.7395314802915, 'lng': -95.37871011970849}, 'southwest': {'lat': 29.7368335197085, 'lng': -95.38140808029151}}}, 'place_id': 'EiYzNzUwIFMgTWFpbiBTdCwgSG91c3RvbiwgVFggNzcwMDIsIFVTQSIbEhkKFAoSCXMrlSNuv0CGEdT6AmcnndtQEKYd', 'types': ['street_address']}]"
2016-03-31 09:00:00,10H40,3200-3299,MILAM,Theft,road/street/sidewalk,1,9,31,Thursday,Mar,2016,3250,3250 MILAM,"[{'address_components': [{'long_name': '3250', 'short_name': '3250', 'types': ['street_number']}, {'long_name': 'Milam Street', 'short_name': 'Milam St', 'types': ['route']}, {'long_name': 'South Central Houston', 'short_name': 'South Central Houston', 'types': ['neighborhood', 'political']}, {'long_name': 'Houston', 'short_name': 'Houston', 'types': ['locality', 'political']}, {'long_name': 'Harris County', 'short_name': 'Harris County', 'types': ['administrative_area_level_2', 'political']}, {'long_name': 'Texas', 'short_name': 'TX', 'types': ['administrative_area_level_1', 'political']}, {'long_name': 'United States', 'short_name': 'US', 'types': ['country', 'political']}, {'long_name': '77006', 'short_name': '77006', 'types': ['postal_code']}], 'formatted_address': '3250 Milam St, Houston, TX 77006, USA', 'geometry': {'location': {'lat': 29.7423077, 'lng': -95.3790681}, 'location_type': 'RANGE_INTERPOLATED', 'viewport': {'northeast': {'lat': 29.7436566802915, 'lng': -95.37771911970849}, 'southwest': {'lat': 29.7409587197085, 'lng': -95.38041708029151}}}, 'place_id': 'EiUzMjUwIE1pbGFtIFN0LCBIb3VzdG9uLCBUWCA3NzAwNiwgVVNBIhsSGQoUChIJwT6UvG6_QIYRClcaAFYFbJIQshk', 'types': ['street_address']}]"
2016-03-31 10:00:00,10H40,2900-2999,JACKSON,Theft,residence/house,1,10,31,Thursday,Mar,2016,2950,2950 JACKSON,"[{'address_components': [{'long_name': '2950', 'short_name': '2950', 'types': ['street_number']}, {'long_name': 'Jackson Street', 'short_name': 'Jackson St', 'types': ['route']}, {'long_name': 'Midtown', 'short_name': 'Midtown', 'types': ['neighborhood', 'political']}, {'long_name': 'Houston', 'short_name': 'Houston', 'types': ['locality', 'political']}, {'long_name': 'Harris County', 'short_name': 'Harris County', 'types': ['administrative_area_level_2', 'political']}, {'long_name': 'Texas', 'short_name': 'TX', 'types': ['administrative_area_level_1', 'political']}, {'long_name': 'United States', 'short_name': 'US', 'types': ['country', 'political']}, {'long_name': '77004', 'short_name': '77004', 'types': ['postal_code']}, {'long_name': '3032', 'short_name': '3032', 'types': ['postal_code_suffix']}], 'formatted_address': '2950 Jackson St, Houston, TX 77004, USA', 'geometry': {'bounds': {'northeast': {'lat': 29.7393112, 'lng': -95.3703758}, 'southwest': {'lat': 29.7390471, 'lng': -95.3707239}}, 'location': {'lat': 29.7391744, 'lng': -95.370544}, 'location_type': 'ROOFTOP', 'viewport': {'northeast': {'lat': 29.7405281302915, 'lng': -95.36920086970851}, 'southwest': {'lat': 29.7378301697085, 'lng': -95.37189883029151}}}, 'place_id': 'ChIJvXOBiRK_QIYRB0Ts1vEeMq8', 'types': ['premise']}]"
2016-03-31 12:00:00,10H40,2100-2199,MAIN,Theft,bus station,1,12,31,Thursday,Mar,2016,2150,2150 MAIN,"[{'address_components': [{'long_name': '2150', 'short_name': '2150', 'types': ['street_number']}, {'long_name': 'South Main Street', 'short_name': 'S Main St', 'types': ['route']}, {'long_name': 'South Central Houston', 'short_name': 'South Central Houston', 'types': ['neighborhood', 'political']}, {'long_name': 'Houston', 'short_name': 'Houston', 'types': ['locality', 'political']}, {'long_name': 'Harris County', 'short_name': 'Harris County', 'types': ['administrative_area_level_2', 'political']}, {'long_name': 'Texas', 'short_name': 'TX', 'types': ['administrative_area_level_1', 'political']}, {'long_name': 'United States', 'short_name': 'US', 'types': ['country', 'political']}, {'long_name': '77002', 'short_name': '77002', 'types': ['postal_code']}], 'formatted_address': '2150 S Main St, Houston, TX 77002, USA', 'geometry': {'location': {'lat': 29.7486553, 'lng': -95.3716125}, 'location_type': 'RANGE_INTERPOLATED', 'viewport': {'northeast': {'lat': 29.7500042802915, 'lng': -95.37026351970849}, 'southwest': {'lat': 29.7473063197085, 'lng': -95.37296148029151}}},