Date_Hour,Beat,BlockRange,StreetName,OffenseType,Premise,NumOffenses,Hour,day,weekday,month,year,block,address,tup_add
2010-01-01 00:00:00,10H60,2500-2599,SOUTHMORE,Burglary,apartment,1,0,1,Friday,Jan,2010,2550,2550 SOUTHMORE,"[{'address_components': [{'long_name': '2550', 'short_name': '2550', 'types': ['street_number']}, {'long_name': 'Southmore Boulevard', 'short_name': 'Southmore Blvd', 'types': ['route']}, {'long_name': 'South Central Houston', 'short_name': 'South Central Houston', 'types': ['neighborhood', 'political']}, {'long_name': 'Houston', 'short_name': 'Houston', 'types': ['locality', 'political']}, {'long_name': 'Harris County', 'short_name': 'Harris County', 'types': ['administrative_area_level_2', 'political']}, {'long_name': 'Texas', 'short_name': 'TX', 'types': ['administrative_area_level_1', 'political']}, {'long_name': 'United States', 'short_name': 'US', 'types': ['country', 'political']}, {'long_name': '77004', 'short_name': '77004', 'types': ['postal_code']}, {'long_name': '7421', 'short_name': '7421', 'types': ['postal_code_suffix']}], 'formatted_address': '2550 Southmore Blvd, Houston, TX 77004, USA', 'geometry': {'location': {'lat': 29.7195976, 'lng': -95.373216}, 'location_type': 'RANGE_INTERPOLATED', 'viewport': {'northeast': {'lat': 29.7209465802915, 'lng': -95.3718670197085}, 'southwest': {'lat': 29.7182486197085, 'lng': -95.37456498029151}}}, 'place_id': 'EisyNTUwIFNvdXRobW9yZSBCbHZkLCBIb3VzdG9uLCBUWCA3NzAwNCwgVVNBIhsSGQoUChIJAcM0rpi_QIYRyfD3Iw1XJqcQ9hM', 'types': ['street_address']}]"
2010-01-01 00:00:00,10H60,3500-3599,MACGREGOR,Theft,apartment,1,0,1,Friday,Jan,2010,3550,3550 MACGREGOR,"[{'address_components': [{'long_name': '3550', 'short_name': '3550', 'types': ['street_number']}, {'long_name': 'South Macgregor Way', 'short_name': 'S MacGregor Way', 'types': ['route']}, {'long_name': 'South Central Houston', 'short_name': 'South Central Houston', 'types': ['neighborhood', 'political']}, {'long_name': 'Houston', 'short_name': 'Houston', 'types': ['locality', 'political']}, {'long_name': 'Harris County', 'short_name': 'Harris County', 'types': ['administrative_area_level_2', 'political']}, {'long_name': 'Texas', 'short_name': 'TX', 'types': ['administrative_area_level_1', 'political']}, {'long_name': 'United States', 'short_name': 'US', 'types': ['country', 'political']}, {'long_name': '77021', 'short_name': '77021', 'types': ['postal_code']}], 'formatted_address': '3550 S MacGregor Way, Houston, TX 77021, USA', 'geometry': {'location': {'lat': 29.7093567, 'lng': -95.36242089999999}, 'location_type': 'RANGE_INTERPOLATED', 'viewport': {'northeast': {'lat': 29.7107056802915, 'lng': -95.3610719197085}, 'southwest': {'lat': 29.7080077197085, 'lng': -95.3637698802915}}}, 'place_id': 'EiwzNTUwIFMgTWFjR3JlZ29yIFdheSwgSG91c3RvbiwgVFggNzcwMjEsIFVTQSIbEhkKFAoSCSGGzim6v0CGEaNmhYVnpPp6EN4b', 'types': ['street_address']}]"
2010-01-01 04:00:00,10H60,4000-4099,CANFIELD,Robbery,bank/saving institution parking lot,1,4,1,Friday,Jan,2010,4050,4050 CANFIELD,"[{'address_components': [{'long_name': '4050', 'short_name': '4050', 'types': ['street_number']}, {'long_name': 'Canfield Street', 'short_name': 'Canfield St', 'types': ['route']}, {'long_name': 'Southeast Houston', 'short_name': 'Southeast Houston', 'types': ['neighborhood', 'political']}, {'long_name': 'Houston', 'short_name': 'Houston', 'types': ['locality', 'political']}, {'long_name': 'Harris County', 'short_name': 'Harris County', 'types': ['administrative_area_level_2', 'political']}, {'long_name': 'Texas', 'short_name': 'TX', 'types': ['administrative_area_level_1', 'political']}, {'long_name': 'United States', 'short_name': 'US', 'types': ['country', 'political']}, {'long_name': '77004', 'short_name': '77004', 'types': ['postal_code']}, {'long_name': '5502', 'short_name': '5502', 'types': ['postal_code_suffix']}], 'formatted_address': '4050 Canfield St, Houston, TX 77004, USA', 'geometry': {'location': {'lat': 29.7203483, 'lng': -95.3548611}, 'location_type': 'RANGE_INTERPOLATED', 'viewport': {'northeast': {'lat': 29.7216972802915, 'lng': -95.35351211970848}, 'southwest': {'lat': 29.7189993197085, 'lng': -95.3562100802915}}}, 'place_id': 'Eig0MDUwIENhbmZpZWxkIFN0LCBIb3VzdG9uLCBUWCA3NzAwNCwgVVNBIhsSGQoUChIJR0n4h6y_QIYRWfNHbm6L2mEQ0h8', 'types': ['street_address']}]"
2010-01-01 06:00:00,10H60,3700-3799,ODIN,Theft,apartment,1,6,1,Friday,Jan,2010,3750,3750 ODIN,"[{'address_components': [{'long_name': 'Houston', 'short_name': 'Houston', 'types': ['locality', 'political']}, {'long_name': 'Harris County', 'short_name': 'Harris County', 'types': ['administrative_area_level_2', 'political']}, {'long_name': 'Texas', 'short_name': 'TX', 'types': ['administrative_area_level_1', 'political']}, {'long_name': 'United States', 'short_name': 'US', 'types': ['country', 'political']}], 'formatted_address': 'Houston, TX, USA', 'geometry': {'bounds': {'northeast': {'lat': 30.1107319, 'lng': -95.014496}, 'southwest': {'lat': 29.523624, 'lng': -95.78808690000001}}, 'location': {'lat': 29.7604267, 'lng': -95.3698028}, 'location_type': 'APPROXIMATE', 'viewport': {'northeast': {'lat': 30.1107319, 'lng': -95.014496}, 'southwest': {'lat': 29.523624, 'lng': -95.78808690000001}}}, 'partial_match': True, 'place_id': 'ChIJAYWNSLS4QIYROwVl894CDco', 'types': ['locality', 'political']}]"
2010-01-01 14:00:00,10H60,5500-5599,LIVE OAK,Theft,apartment,1,14,1,Friday,Jan,2010,5550,5550 LIVE OAK,"[{'address_components': [{'long_name': '5550', 'short_name': '5550', 'types': ['street_number']}, {'long_name': 'Live Oak Street', 'short_name': 'Live Oak St', 'types': ['route']}, {'long_name': 'South Side', 'short_name': 'South Side', 'types': ['neighborhood', 'political']}, {'long_name': 'Houston', 'short_name': 'Houston', 'types': ['locality', 'political']}, {'long_name': 'Harris County', 'short_name': 'Harris County', 'types': ['administrative_area_level_2', 'political']}, {'long_name': 'Texas', 'short_name': 'TX', 'types': ['administrative_area_level_1', 'political']}, {'long_name': 'United States', 'short_name': 'US', 'types': ['country', 'political']}, {'long_name': '77004', 'short_name': '77004', 'types': ['postal_code']}, {'long_name': '7789', 'short_name': '7789', 'types': ['postal_code_suffix']}], 'formatted_address': '5550 Live Oak St, Houston, TX 77004, USA', 'geometry': {'location': {'lat': 29.716282, 'lng': -95.3755484}, 'location_type': 'RANGE_INTERPOLATED', 'viewport': {'northeast': {'lat': 29.7176309802915, 'lng': -95.3741994197085}, 'southwest': {'lat': 29.7149330197085, 'lng': -95.37689738029151}}}, 'place_id': 'Eig1NTUwIExpdmUgT2FrIFN0LCBIb3VzdG9uLCBUWCA3NzAwNCwgVVNBIhsSGQoUChIJy3kPNpi_QIYR9Cu5BcoMbGUQris', 'types': ['street_address']}]"
2010-01-01 17:00:00,10H60,3200-3299,TAMPA,Burglary,residence/house,1,17,1,Friday,Jan,2010,3250,3250 TAMPA,"[{'address_components': [{'long_name': '3250', 'short_name': '3250', 'types': ['street_number']}, {'long_name': 'Tampa Street', 'short_name': 'Tampa St', 'types': ['route']}, {'long_name': 'MacGregor', 'short_name': 'MacGregor', 'types': ['neighborhood', 'political']}, {'long_name': 'Houston', 'short_name': 'Houston', 'types': ['locality', 'political']}, {'long_name': 'Harris County', 'short_name': 'Harris County', 'types': ['administrative_area_level_2', 'political']}, {'long_name': 'Texas', 'short_name': 'TX', 'types': ['administrative_area_level_1', 'political']}, {'long_name': 'United States', 'short_name': 'US', 'types': ['country', 'political']}, {'long_name': '77021', 'short_name': '77021', 'types': ['postal_code']}], 'formatted_address': '3250 Tampa St, Houston, TX 77021, USA', 'geometry': {'location': {'lat': 29.705757, 'lng': -95.37289899999999}, 'location_type': 'ROOFTOP', 'viewport': {'northeast': {'lat': 29.7071059802915, 'lng': -95.3715500197085}, 'southwest': {'lat': 29.7044080197085, 'lng': -95.3742479802915}}}, 'place_id': 'ChIJ6cFP1r-_QIYRAl3RzZ8ways', 'types': ['street_address']}]"
2010-01-02 10:00:00,10H60,4400-4499,MACGREGOR,Burglary,apartment,1,10,2,Saturday,Jan,2010,4450,4450 MACGREGOR,"[{'address_components': [{'long_name': '4450', 'short_name': '4450', 'types': ['street_number']}, {'long_name': 'South Macgregor Way', 'short_name': 'S MacGregor Way', 'types': ['route']}, {'long_name': 'MacGregor', 'short_name': 'MacGregor', 'types': ['neighborhood', 'political']}, {'long_name': 'Houston', 'short_name': 'Houston', 'types': ['locality', 'political']}, {'long_name': 'Harris County', 'short_name': 'Harris County', 'types': ['administrative_area_level_2', 'political']}, {'long_name': 'Texas', 'short_name': 'TX', 'types': ['administrative_area_level_1', 'political']}, {'long_name': 'United States', 'short_name': 'US', 'types': ['country', 'political']}, {'long_name': '77021', 'short_name': '77021', 'types': ['postal_code']}, {'long_name': '1613', 'short_name': '1613', 'types': ['postal_code_suffix']}], 'formatted_address': '4450 S MacGregor Way, Houston, TX 77021, USA', 'geometry': {'bounds': {'northeast': {'lat': 29.7113883, 'lng': -95.3427225}, 'southwest': {'lat': 29.7111502, 'lng': -95.3430108}}, 'location': {'lat': 29.7112187, 'lng': -95.3428105}, 'location_type': 'ROOFTOP', 'viewport': {'northeast': {'lat': 29.7126182302915, 'lng': -95.3415176697085}, 'southwest': {'lat': 29.7099202697085, 'lng': -95.3442156302915}}}, 'place_id': 'ChIJYUELR0--QIYRorQ8YpfAxRU', 'types': ['premise']}]"
2010-01-02 19:00:00,10H60,4300-4399,LIVE OAK,Theft,road/street/sidewalk,1,19,2,Saturday,Jan,2010,4350,4350 LIVE OAK,"[{'address_components': [{'long_name': '4350', 'short_name': '4350', 'types': ['street_number']}, {'long_name': 'Live Oak Street', 'short_name': 'Live Oak St', 'types': ['route']}, {'long_name': 'South Side', 'short_name': 'South Side', 'types': ['neighborhood', 'political']}, {'long_name': 'Houston', 'short_name': 'Houston', 'types': ['locality', 'political']}, {'long_name': 'Harris County', 'short_name': 'Harris County', 'types': ['administrative_area_level_2', 'political']}, {'long_name': 'Texas', 'short_name': 'TX', 'types': ['administrative_area_level_1', 'political']}, {'long_name': 'United States', 'short_name': 'US', 'types': ['country', 'political']}, {'long_name': '77004', 'short_name': '77004', 'types': ['postal_code']}, {'long_name': '5330', 'short_name': '5330', 'types': ['postal_code_suffix']}], 'formatted_address': '4350 Live Oak St, Houston, TX 77004, USA', 'geometry': {'location': {'lat': 29.726318, 'lng': -95.36920029999999}, 'location_type': 'RANGE_INTERPOLATED', 'viewport': {'northeast': {'lat': 29.7276669802915, 'lng': -95.36785131970849}, 'southwest': {'lat': 29.7249690197085, 'lng': -95.3705492802915}}}, 'place_id': 'Eig0MzUwIExpdmUgT2FrIFN0LCBIb3VzdG9uLCBUWCA3NzAwNCwgVVNBIhsSGQoUChIJaZoXoqC_QIYRUpqGUSX83HkQ_iE', 'types': ['street_address']}]"
2010-01-02 22:00:00,10H60,3800-3899,ROSEDALE,Burglary,residence/house,1,22,2,Saturday,Jan,2010,3850,3850 ROSEDALE,"[{'address_components': [{'long_name': '3850', 'short_name': '3850', 'types': ['street_number']}, {'long_name': 'Rosedale Street', 'short_name': 'Rosedale St', 'types': ['route']}, {'long_name': 'Southeast Houston', 'short_name': 'Southeast Houston', 'types': ['neighborhood', 'political']}, {'long_name': 'Houston', 'short_name': 'Houston', 'types': ['locality', 'political']}, {'long_name': 'Harris County', 'short_name': 'Harris County', 'types': ['administrative_area_level_2', 'political']}, {'long_name': 'Texas', 'short_name': 'TX', 'types': ['administrative_area_level_1', 'political']}, {'long_name': 'United States', 'short_name': 'US', 'types': ['country', 'political']}, {'long_name': '77004', 'short_name': '77004', 'types': ['postal_code']}, {'long_name': '6534', 'short_name': '6534', 'types': ['postal_code_suffix']}], 'formatted_address': '3850 Rosedale St, Houston, TX 77004, USA', 'geometry': {'location': {'lat': 29.7137873, 'lng': -95.35239560000001}, 'location_type': 'RANGE_INTERPOLATED', 'viewport': {'northeast': {'lat': 29.7151362802915, 'lng': -95.35104661970851}, 'southwest': {'lat': 29.7124383197085, 'lng': -95.35374458029152}}}, 'place_id': 'EigzODUwIFJvc2VkYWxlIFN0LCBIb3VzdG9uLCBUWCA3NzAwNCwgVVNBIhsSGQoUChIJzblMxrK_QIYRbq-ogCcHDs0Qih4', 'types': ['street_address']}]"
2010-01-03 01:00:00,10H60,6500-6599,BOWLING GREEN,Aggravated Assault,road/street/sidewalk,1,1,3,Sunday,Jan,2010,6550,6550 BOWLING GREEN,"[{'address_components': [{'long_name': '6550', 'short_name': '6550', 'types': ['street_number']}, {'long_name': 'Bowling Green Street', 'short_name': 'Bowling Green St', 'types': ['route']}, {'long_name': 'South Side', 'short_name': 'South Side', 'types': ['neighborhood', 'political']}, {'long_name': 'Houston', 'short_name': 'Houston', 'types': ['locality', 'political']}, {'long_name': 'Harris County', 'short_name': 'Harris County', 'types': ['administrative_area_level_2', 'political']}, {'long_name': 'Texas', 'short_name': 'TX', 'types': ['administrative_area_level_1', 'political']}, {'long_name': 'United States', 'short_name': 'US', 'types': ['country', 'political']}, {'long_name': '77021', 'short_name': '77021', 'types': ['postal_code']}], 'formatted_address': '6550 Bowling Green St, Houston, TX 77021, USA', 'geometry': {'location': {'lat': 29.7034937, 'lng': -95.3740062}, 'location_type': 'RANGE_INTERPOLATED', 'viewport': {'northeast': {'lat': 29.7048426802915, 'lng': -95.37265721970849}, 'southwest': {'lat': 29.7021447197085, 'lng': -95.37535518029149}}}, 'place_id': 'Ei02NTUwIEJvd2xpbmcgR3JlZW4gU3QsIEhvdXN0b24sIFRYIDc3MDIxLCBVU0EiGxIZChQKEgnzFqZSlb9AhhEdJl10KRhCJhCWMw', 'types': ['street_address']}]"
2010-01-03 20:00:00,10H60,3100-3199,SOUTHMORE,Theft,other parking lot,1,20,3,Sunday,Jan,2010,3150,3150 SOUTHMORE,"[{'address_components': [{'long_name': '3150', 'short_name': '3150', 'types': ['street_number']}, {'long_name': 'Southmore Boulevard', 'short_name': 'Southmore Blvd', 'types': ['route']}, {'long_name': 'South Central Houston', 'short_name': 'South Central Houston', 'types': ['neighborhood', 'political']}, {'long_name': 'Houston', 'short_name': 'Houston', 'types': ['locality', 'political']}, {'long_name': 'Harris County', 'short_name': 'Harris County', 'types': ['administrative_area_level_2', 'political']}, {'long_name': 'Texas', 'short_name': 'TX', 'types': ['administrative_area_level_1', 'political']}, {'long_name': 'United States', 'short_name': 'US', 'types': ['country', 'political']}, {'long_name': '77004', 'short_name': '77004', 'types': ['postal_code']}, {'long_name': '6215', 'short_name': '6215', 'types': ['postal_code_suffix']}], 'formatted_address': '3150 Southmore Blvd, Houston, TX 77004, USA', 'geometry': {'location': {'lat': 29.7160591, 'lng': -95.3672476}, 'location_type': 'RANGE_INTERPOLATED', 'viewport': {'northeast': {'lat': 29.7174080802915, 'lng': -95.36589861970849}, 'southwest': {'lat': 29.7147101197085, 'lng': -95.36859658029151}}}, 'place_id': 'EiszMTUwIFNvdXRobW9yZSBCbHZkLCBIb3VzdG9uLCBUWCA3NzAwNCwgVVNBIhsSGQoUChIJkQ_JoaS_QIYRwSG5K4IK530Qzhg', 'types': ['street_address']}]"
2010-01-05 09:00:00,10H60,2400-2499,SOUTHMORE,Burglary,residence/house,1,9,5,Tuesday,Jan,2010,2450,2450 SOUTHMORE,"[{'address_components': [{'long_name': '2450', 'short_name': '2450', 'types': ['street_number']}, {'long_name': 'Southmore Boulevard', 'short_name': 'Southmore Blvd', 'types': ['route']}, {'long_name': 'South Central Houston', 'short_name': 'South Central Houston', 'types': ['neighborhood', 'political']}, {'long_name': 'Houston', 'short_name': 'Houston', 'types': ['locality', 'political']}, {'long_name': 'Harris County', 'short_name': 'Harris County', 'types': ['administrative_area_level_2', 'political']}, {'long_name': 'Texas', 'short_name': 'TX', 'types': ['administrative_area_level_1', 'political']}, {'long_name': 'United States', 'short_name': 'US', 'types': ['country', 'political']}, {'long_name': '77004', 'short_name': '77004', 'types': ['postal_code']}], 'formatted_address': '2450 Southmore Blvd, Houston, TX 77004, USA', 'geometry': {'location': {'lat': 29.7204113, 'lng': -95.3742675}, 'location_type': 'RANGE_INTERPOLATED', 'viewport': {'northeast': {'lat': 29.7217602802915, 'lng': -95.37291851970849}, 'southwest': {'lat': 29.7190623197085, 'lng': -95.37561648029151}}}, 'place_id': 'EisyNDUwIFNvdXRobW9yZSBCbHZkLCBIb3VzdG9uLCBUWCA3NzAwNCwgVVNBIhsSGQoUChIJI6RMMp-_QIYRCdDJEJS8fRYQkhM', 'types': ['street_address']}]"
2010-01-05 09:00:00,10H60,2500-2599,MACGREGOR,Theft,road/street/sidewalk,1,9,5,Tuesday,Jan,2010,2550,2550 MACGREGOR,"[{'address_components': [{'long_name': '2550', 'short_name': '2550', 'types': ['street_number']}, {'long_name': 'South Macgregor Way', 'short_name': 'S MacGregor Way', 'types': ['route']}, {'long_name': 'South Central Houston', 'short_name': 'South Central Houston', 'types': ['neighborhood', 'political']}, {'long_name': 'Houston', 'short_name': 'Houston', 'types': ['locality', 'political']}, {'long_name': 'Harris County', 'short_name': 'Harris County', 'types': ['administrative_area_level_2', 'political']}, {'long_name': 'Texas', 'short_name': 'TX', 'types': ['administrative_area_level_1', 'political']}, {'long_name': 'United States', 'short_name': 'US', 'types': ['country', 'political']}, {'long_name': '77021', 'short_name': '77021', 'types': ['postal_code']}], 'formatted_address': '2550 S MacGregor Way, Houston, TX 77021, USA', 'geometry': {'location': {'lat': 29.7116433, 'lng': -95.3784099}, 'location_type': 'RANGE_INTERPOLATED', 'viewport': {'northeast': {'lat': 29.7129922802915, 'lng': -95.37706091970848}, 'southwest': {'lat': 29.7102943197085, 'lng': -95.3797588802915}}}, 'place_id': 'EiwyNTUwIFMgTWFjR3JlZ29yIFdheSwgSG91c3RvbiwgVFggNzcwMjEsIFVTQSIbEhkKFAoSCaG1M9WWv0CGEddbVjwHz30IEPYT', 'types': ['street_address']}]"
2010-01-05 13:00:00,10H60,2500-2599,OAKDALE,Theft,"vacant single occupancy residence (houses,townhouses,duplexes, etc.)",1,13,5,Tuesday,Jan,2010,2550,2550 OAKDALE,"[{'address_components': [{'long_name': '2550', 'short_name': '2550', 'types': ['street_number']}, {'long_name': 'Oakdale Street', 'short_name': 'Oakdale St', 'types': ['route']}, {'long_name': 'South Central Houston', 'short_name': 'South Central Houston', 'types': ['neighborhood', 'political']}, {'long_name': 'Houston', 'short_name': 'Houston', 'types': ['locality', 'political']}, {'long_name': 'Harris County', 'short_name': 'Harris County', 'types': ['administrative_area_level_2', 'political']}, {'long_name': 'Texas', 'short_name': 'TX', 'types': ['administrative_area_level_1', 'political']}, {'long_name': 'United States', 'short_name': 'US', 'types': ['country', 'political']}, {'long_name': '77004', 'short_name': '77004', 'types': ['postal_code']}], 'formatted_address': '2550 Oakdale St, Houston, TX 77004, USA', 'geometry': {'location': {'lat': 29.7187177, 'lng': -95.3734937}, 'location_type': 'RANGE_INTERPOLATED', 'viewport': {'northeast': {'lat': 29.7200666802915, 'lng': -95.3721447197085}, 'southwest': {'lat': 29.7173687197085, 'lng': -95.37484268029151}}}, 'place_id': 'EicyNTUwIE9ha2RhbGUgU3QsIEhvdXN0b24sIFRYIDc3MDA0LCBVU0EiGxIZChQKEgkNrSnEmL9AhhHCLj1cMxhE6BD2Ew', 'types': ['street_address']}]"
2010-01-06 02:00:00,10H60,2600-2699,CALUMET,Aggravated Assault,apartment,1,2,6,Wednesday,Jan,2010,2650,2650 CALUMET,"[{'address_components': [{'long_name': '2650', 'short_name': '2650', 'types': ['street_number']}, {'long_name': 'South Calumet Street', 'short_name': 'S Calumet St', 'types': ['route']}, {'long_name': 'Southeast Houston', 'short_name': 'Southeast Houston', 'types': ['neighborhood', 'political']}, {'long_name': 'Houston', 'short_name': 'Houston', 'types': ['locality', 'political']}, {'long_name': 'Harris County', 'short_name': 'Harris County', 'types': ['administrative_area_level_2', 'political']}, {'long_name': 'Texas', 'short_name': 'TX', 'types': ['administrative_area_level_1', 'political']}, {'long_name': 'United States', 'short_name': 'US', 'types': ['country', 'political']}, {'long_name': '77004', 'short_name': '77004', 'types': ['postal_code']}], 'formatted_address': '2650 S Calumet St, Houston, TX 77004, USA', 'geometry': {'location': {'lat': 29.7167092, 'lng': -95.37381959999999}, 'location_type': 'RANGE_INTERPOLATED', 'viewport': {'northeast': {'lat': 29.7180581802915, 'lng': -95.3724706197085}, 'southwest': {'lat': 29.7153602197085, 'lng': -95.3751685802915}}}, 'place_id': 'EikyNjUwIFMgQ2FsdW1ldCBTdCwgSG91c3RvbiwgVFggNzcwMDQsIFVTQSIbEhkKFAoSCbFcXnWYv0CGEY2EtFEXK3oZENoU', 'types': ['street_address']}]"
2010-01-07 07:00:00,10H60,5000-5099,PAIGE,Theft,apartment parking lot,1,7,7,Thursday,Jan,2010,5050,5050 PAIGE,"[{'address_components': [{'long_name': 'Houston', 'short_name': 'Houston', 'types': ['locality', 'political']}, {'long_name': 'Harris County', 'short_name': 'Harris County', 'types': ['administrative_area_level_2', 'political']}, {'long_name': 'Texas', 'short_name': 'TX', 'types': ['administrative_area_level_1', 'political']}, {'long_name': 'United States', 'short_name': 'US', 'types': ['country', 'political']}], 'formatted_address': 'Houston, TX, USA', 'geometry': {'bounds': {'northeast': {'lat': 30.1107319, 'lng': -95.014496}, 'southwest': {'lat': 29.523624, 'lng': -95.78808690000001}}, 'location': {'lat': 29.7604267, 'lng': -95.3698028}, 'location_type': 'APPROXIMATE', 'viewport': {'northeast': {'lat': 30.1107319, 'lng': -95.014496}, 'southwest': {'lat': 29.523624, 'lng': -95.78808690000001}}}, 'partial_match': True, 'place_id': 'ChIJAYWNSLS4QIYROwVl894CDco', 'types': ['locality', 'political']}]"
2010-01-07 10:00:00,10H60,3300-3399,PARKWOOD,Burglary,residence/house,1,10,7,Thursday,Jan,2010,3350,3350 PARKWOOD,"[{'address_components': [{'long_name': '3350', 'short_name': '3350', 'types': ['street_number']}, {'long_name': 'Parkwood Drive', 'short_name': 'Parkwood Dr', 'types': ['route']}, {'long_name': 'MacGregor', 'short_name': 'MacGregor', 'types': ['neighborhood', 'political']}, {'long_name': 'Houston', 'short_name': 'Houston', 'types': ['locality', 'political']}, {'long_name': 'Harris County', 'short_name': 'Harris County', 'types': ['administrative_area_level_2', 'political']}, {'long_name': 'Texas', 'short_name': 'TX', 'types': ['administrative_area_level_1', 'political']}, {'long_name': 'United States', 'short_name': 'US', 'types': ['country', 'political']}, {'long_name': '77021', 'short_name': '77021', 'types': ['postal_code']}, {'long_name': '1139', 'short_name': '1139', 'types': ['postal_code_suffix']}], 'formatted_address': '3350 Parkwood Dr, Houston, TX 77021, USA', 'geometry': {'bounds': {'northeast': {'lat': 29.7079699, 'lng': -95.3672666}, 'southwest': {'lat': 29.7078305, 'lng': -95.3675379}}, 'location': {'lat': 29.7079031, 'lng': -95.367396}, 'location_type': 'ROOFTOP', 'viewport': {'northeast': {'lat': 29.7092491802915, 'lng': -95.36605326970849}, 'southwest': {'lat': 29.7065512197085, 'lng': -95.36875123029151}}}, 'place_id': 'ChIJIcwbNrm_QIYRzIkF1ruNrsY', 'types': ['premise']}]"
2010-01-07 16:00:00,10H60,5500-5599,LIVE OAK,Theft,grocery/supermarket,1,16,7,Thursday,Jan,2010,5550,5550 LIVE OAK,"[{'address_components': [{'long_name': '5550', 'short_name': '5550', 'types': ['street_number']}, {'long_name': 'Live Oak Street', 'short_name': 'Live Oak St', 'types': ['route']}, {'long_name': 'South Side', 'short_name': 'South Side', 'types': ['neighborhood', 'political']}, {'long_name': 'Houston', 'short_name': 'Houston', 'types': ['locality', 'political']}, {'long_name': 'Harris County', 'short_name': 'Harris County', 'types': ['administrative_area_level_2', 'political']}, {'long_name': 'Texas', 'short_name': 'TX', 'types': ['administrative_area_level_1', 'political']}, {'long_name': 'United States', 'short_name': 'US', 'types': ['country', 'political']}, {'long_name': '77004', 'short_name': '77004', 'types': ['postal_code']}, {'long_name': '7789', 'short_name': '7789', 'types': ['postal_code_suffix']}], 'formatted_address': '5550 Live Oak St, Houston, TX 77004, USA', 'geometry': {'location': {'lat': 29.716282, 'lng': -95.3755484}, 'location_type': 'RANGE_INTERPOLATED', 'viewport': {'northeast': {'lat': 29.7176309802915, 'lng': -95.3741994197085}, 'southwest': {'lat': 29.7149330197085, 'lng': -95.37689738029151}}}, 'place_id': 'Eig1NTUwIExpdmUgT2FrIFN0LCBIb3VzdG9uLCBUWCA3NzAwNCwgVVNBIhsSGQoUChIJy3kPNpi_QIYR9Cu5BcoMbGUQris', 'types': ['street_address']}]"
2010-01-07 17:00:00,10H60,3800-3899,RUTH,Theft,driveway,1,17,7,Thursday,Jan,2010,3850,3850 RUTH,"[{'address_components': [{'long_name': '3850', 'short_name': '3850', 'types': ['street_number']}, {'long_name': 'Ruth Street', 'short_name': 'Ruth St', 'types': ['route']}, {'long_name': 'South Central Houston', 'short_name': 'South Central Houston', 'types': ['neighborhood', 'political']}, {'long_name': 'Houston', 'short_name': 'Houston', 'types': ['locality', 'political']}, {'long_name': 'Harris County', 'short_name': 'Harris County', 'types': ['administrative_area_level_2', 'political']}, {'long_name': 'Texas', 'short_name': 'TX', 'types': ['administrative_area_level_1', 'political']}, {'long_name': 'United States', 'short_name': 'US', 'types': ['country', 'political']}, {'long_name': '77004', 'short_name': '77004', 'types': ['postal_code']}, {'long_name': '6506', 'short_name': '6506', 'types': ['postal_code_suffix']}], 'formatted_address': '3850 Ruth St, Houston, TX 77004, USA', 'geometry': {'location': {'lat': 29.71685, 'lng': -95.3513112}, 'location_type': 'RANGE_INTERPOLATED', 'viewport': {'northeast': {'lat': 29.71819898029149, 'lng': -95.34996221970849}, 'southwest': {'lat': 29.7155010197085, 'lng': -95.35266018029151}}}, 'place_id': 'EiQzODUwIFJ1dGggU3QsIEhvdXN0b24sIFRYIDc3MDA0LCBVU0EiGxIZChQKEgkfRB62Ur5AhhGur9DlZN3D0BCKHg', 'types': ['street_address']}]"
2010-01-07 22:00:00,10H60,3300-3399,RALEIGH,Theft,bar/night club parking lot,1,22,7,Thursday,Jan,2010,3350,3350 RALEIGH,"[{'address_components': [{'long_name': '3350', 'short_name': '3350', 'types': ['street_number']}, {'long_name': 'Raleigh Street', 'short_name': 'Raleigh St', 'types': ['route']}, {'long_name': 'South Central Houston', 'short_name': 'South Central Houston', 'types': ['neighborhood', 'political']}, {'long_name': 'Houston', 'short_name': 'Houston', 'types': ['locality', 'political']}, {'long_name': 'Harris County', 'short_name': 'Harris County', 'types': ['administrative_area_level_2', 'political']}, {'long_name': 'Texas', 'short_name': 'TX', 'types': ['administrative_area_level_1', 'political']}, {'long_name': 'United States', 'short_name': 'US', 'types': ['country', 'political']}, {'long_name': '77021', 'short_name': '77021', 'types': ['postal_code']}], 'formatted_address': '3350 Raleigh St, Houston, TX 77021, USA', 'geometry': {'location': {'lat': 29.7018092, 'lng': -95.3733072}, 'location_type': 'RANGE_INTERPOLATED', 'viewport': {'northeast': {'lat': 29.7031581802915, 'lng': -95.3719582197085}, 'southwest': {'lat': 29.7004602197085, 'lng': -95.37465618029151}}}, 'place_id': 'EiczMzUwIFJhbGVpZ2ggU3QsIEhvdXN0b24sIFRYIDc3MDIxLCBVU0EiGxIZChQKEgkL2XaY6r9AhhEn9mmudwl-chCWGg', 'types': ['street_address']}]"
2010-01-09 00:00:00,10H60,3400-3499,WICHITA,Auto Theft,road/street/sidewalk,1,0,9,Saturday,Jan,2010,3450,3450 WICHITA,"[{'address_components': [{'long_name': '3450', 'short_name': '3450', 'types': ['street_number']}, {'long_name': 'Wichita Street', 'short_name': 'Wichita St', 'types': ['route']}, {'long_name': 'MacGregor', 'short_name': 'MacGregor', 'types': ['neighborhood', 'political']}, {'long_name': 'Houston', 'short_name': 'Houston', 'types': ['locality', 'political']}, {'long_name': 'Harris County', 'short_name': 'Harris County', 'types': ['administrative_area_level_2', 'political']}, {'long_name': 'Texas', 'short_name': 'TX', 'types': ['administrative_area_level_1', 'political']}, {'long_name': 'United States', 'short_name': 'US', 'types': ['country', 'political']}, {'long_name': '77004', 'short_name': '77004', 'types': ['postal_code']}, {'long_name': '6333', 'short_name': '6333', 'types': ['postal_code_suffix']}], 'formatted_address': '3450 Wichita St, Houston, TX 77004, USA', 'geometry': {'location': {'lat': 29.7152855, 'lng': -95.3603232}, 'location_type': 'ROOFTOP', 'viewport': {'northeast': {'lat': 29.7166344802915, 'lng': -95.35897421970849}, 'southwest': {'lat': 29.7139365197085, 'lng': -95.3616721802915}}}, 'place_id': 'ChIJpymaKbC_QIYRyAUBHxHH4kQ', 'types': ['street_address']}]"
2010-01-10 00:00:00,10H60,3900-3999,ENGLAND,Theft,residence/house,1,0,10,Sunday,Jan,2010,3950,3950 ENGLAND,"[{'address_components': [{'long_name': '3950', 'short_name': '3950', 'types': ['street_number']}, {'long_name': 'England Street', 'short_name': 'England St', 'types': ['route']}, {'long_name': 'Southeast Houston', 'short_name': 'Southeast Houston', 'types': ['neighborhood', 'political']}, {'long_name': 'Houston', 'short_name': 'Houston', 'types': ['locality', 'political']}, {'long_name': 'Harris County', 'short_name': 'Harris County', 'types': ['administrative_area_level_2', 'political']}, {'long_name': 'Texas', 'short_name': 'TX', 'types': ['administrative_area_level_1', 'political']}, {'long_name': 'United States', 'short_name': 'US', 'types': ['country', 'political']}, {'long_name': '77021', 'short_name': '77021', 'types': ['postal_code']}], 'formatted_address': '3950 England St, Houston, TX 77021, USA', 'geometry': {'location': {'lat': 29.7029535, 'lng': -95.3525773}, 'location_type': 'RANGE_INTERPOLATED', 'viewport': {'northeast': {'lat': 29.7043024802915, 'lng': -95.35122831970848}, 'southwest': {'lat': 29.7016045197085, 'lng': -95.35392628029149}}}, 'place_id': 'EiczOTUwIEVuZ2xhbmQgU3QsIEhvdXN0b24sIFRYIDc3MDIxLCBVU0EiGxIZChQKEglfiwm2yr9AhhG2eEqA1M-3AxDuHg', 'types': ['street_address']}]"
2010-01-10 04:00:00,10H60,3500-3599,DIXIE,Theft,apartment parking lot,1,4,10,Sunday,Jan,2010,3550,3550 DIXIE,"[{'address_components': [{'long_name': '3550', 'short_name': '3550', 'types': ['street_number']}, {'long_name': 'Dixie Drive', 'short_name': 'Dixie Dr', 'types': ['route']}, {'long_name': 'Southeast Houston', 'short_name': 'Southeast Houston', 'types': ['neighborhood', 'political']}, {'long_name': 'Houston', 'short_name': 'Houston', 'types': ['locality', 'political']}, {'long_name': 'Harris County', 'short_name': 'Harris County', 'types': ['administrative_area_level_2', 'political']}, {'long_name': 'Texas', 'short_name': 'TX', 'types': ['administrative_area_level_1', 'political']}, {'long_name': 'United States', 'short_name': 'US', 'types': ['country', 'political']}, {'long_name': '77021', 'short_name': '77021', 'types': ['postal_code']}], 'formatted_address': '3550 Dixie Dr, Houston, TX 77021, USA', 'geometry': {'location': {'lat': 29.7030348, 'lng': -95.3664994}, 'location_type': 'RANGE_INTERPOLATED', 'viewport': {'northeast': {'lat': 29.7043837802915, 'lng': -95.3651504197085}, 'southwest': {'lat': 29.7016858197085, 'lng': -95.3678483802915}}}, 'place_id': 'EiUzNTUwIERpeGllIERyLCBIb3VzdG9uLCBUWCA3NzAyMSwgVVNBIhsSGQoUChIJ7VmXXse_QIYRq5DhpePW8DkQ3hs', 'types': ['street_address']}]"
2010-01-10 10:00:00,10H60,2500-2599,SOUTHMORE,Robbery,restaurant/cafeteria,1,10,10,Sunday,Jan,2010,2550,2550 SOUTHMORE,"[{'address_components': [{'long_name': '2550', 'short_name': '2550', 'types': ['street_number']}, {'long_name': 'Southmore Boulevard', 'short_name': 'Southmore Blvd', 'types': ['route']}, {'long_name': 'South Central Houston', 'short_name': 'South Central Houston', 'types': ['neighborhood', 'political']}, {'long_name': 'Houston', 'short_name': 'Houston', 'types': ['locality', 'political']}, {'long_name': 'Harris County', 'short_name': 'Harris County', 'types': ['administrative_area_level_2', 'political']}, {'long_name': 'Texas', 'short_name': 'TX', 'types': ['administrative_area_level_1', 'political']}, {'long_name': 'United States', 'short_name': 'US', 'types': ['country', 'political']}, {'long_name': '77004', 'short_name': '77004', 'types': ['postal_code']}, {'long_name': '7421', 'short_name': '7421', 'types': ['postal_code_suffix']}], 'formatted_address': '2550 Southmore Blvd, Houston, TX 77004, USA', 'geometry': {'location': {'lat': 29.7195976, 'lng': -95.373216}, 'location_type': 'RANGE_INTERPOLATED', 'viewport': {'northeast': {'lat': 29.7209465802915, 'lng': -95.3718670197085}, 'southwest': {'lat': 29.7182486197085, 'lng': -95.37456498029151}}}, 'place_id': 'EisyNTUwIFNvdXRobW9yZSBCbHZkLCBIb3VzdG9uLCBUWCA3NzAwNCwgVVNBIhsSGQoUChIJAcM0rpi_QIYRyfD3Iw1XJqcQ9hM', 'types': ['street_address']}]"
2010-01-10 17:00:00,10H60,5900-5999,SCOTT,Robbery,department/discount store,1,17,10,Sunday,Jan,2010,5950,5950 SCOTT,"[{'address_components': [{'long_name': '5950', 'short_name': '5950', 'types': ['street_number']}, {'long_name': 'Scott Street', 'short_name': 'Scott St', 'types': ['route']}, {'long_name': 'Southeast Houston', 'short_name': 'Southeast Houston', 'types': ['neighborhood', 'political']}, {'long_name': 'Houston', 'short_name': 'Houston', 'types': ['locality', 'political']}, {'long_name': 'Harris County', 'short_name': 'Harris County', 'types': ['administrative_area_level_2', 'political']}, {'long_name': 'Texas', 'short_name': 'TX', 'types': ['administrative_area_level_1', 'political']}, {'long_name': 'United States', 'short_name': 'US', 'types': ['country', 'political']}, {'long_name': '77021', 'short_name': '77021', 'types': ['postal_code']}], 'formatted_address': '5950 Scott St, Houston, TX 77021, USA', 'geometry': {'location': {'lat': 29.7033977, 'lng': -95.35910129999999}, 'location_type': 'RANGE_INTERPOLATED', 'viewport': {'northeast': {'lat': 29.7047466802915, 'lng': -95.3577523197085}, 'southwest': {'lat': 29.7020487197085, 'lng': -95.3604502802915}}}, 'place_id': 'EiU1OTUwIFNjb3R0IFN0LCBIb3VzdG9uLCBUWCA3NzAyMSwgVVNBIhsSGQoUChIJs3n92sm_QIYRe94X3RXQfSwQvi4', 'types': ['street_address']}]"
2010-01-11 09:00:00,10H60,3000-3099,ARBOR,Theft,residence/house,1,9,11,Monday,Jan,2010,3050,3050 ARBOR,"[{'address_components': [{'long_name': '3050', 'short_name': '3050', 'types': ['street_number']}, {'long_name': 'Arbor Street', 'short_name': 'Arbor St', 'types': ['route']}, {'long_name': 'South Side', 'short_name': 'South Side', 'types': ['neighborhood', 'political']}, {'long_name': 'Houston', 'short_name': 'Houston', 'types': ['locality', 'political']}, {'long_name': 'Harris County', 'short_name': 'Harris County', 'types': ['administrative_area_level_2', 'political']}, {'long_name': 'Texas', 'short_name': 'TX', 'types': ['administrative_area_level_1', 'political']}, {'long_name': 'United States', 'short_name': 'US', 'types': ['country', 'political']}, {'long_name': '77004', 'short_name': '77004', 'types': ['postal_code']}], 'formatted_address': '3050 Arbor St, Houston, TX 77004, USA', 'geometry': {'location': {'lat': 29.7200245, 'lng': -95.3675871}, 'location_type': 'RANGE_INTERPOLATED', 'viewport': {'northeast': {'lat': 29.7213734802915, 'lng': -95.36623811970848}, 'southwest': {'lat': 29.7186755197085, 'lng': -95.3689360802915}}}, 'place_id': 'EiUzMDUwIEFyYm9yIFN0LCBIb3VzdG9uLCBUWCA3NzAwNCwgVVNBIhsSGQoUChIJVSs8BqS_QIYRVPVKSit_58EQ6hc', 'types': ['street_address']}]"
2010-01-11 23:00:00,10H60,3200-3299,MACGREGOR,Burglary,convenience store,1,23,11,Monday,Jan,2010,3250,3250 MACGREGOR,"[{'address_components': [{'long_name': '3250', 'short_name': '3250', 'types': ['street_number']}, {'long_name': 'South Macgregor Way', 'short_name': 'S MacGregor Way', 'types': ['route']}, {'long_name': 'South Central Houston', 'short_name': 'South Central Houston', 'types': ['neighborhood', 'political']}, {'long_name': 'Houston', 'short_name': 'Houston', 'types': ['locality', 'political']}, {'long_name': 'Harris County', 'short_name': 'Harris County', 'types': ['administrative_area_level_2', 'political']}, {'long_name': 'Texas', 'short_name': 'TX', 'types': ['administrative_area_level_1', 'political']}, {'long_name': 'United States', 'short_name': 'US', 'types': ['country', 'political']}, {'long_name': '77021', 'short_name': '77021', 'types': ['postal_code']}, {'long_name': '1105', 'short_name': '1105', 'types': ['postal_code_suffix']}], 'formatted_address': '3250 S MacGregor Way, Houston, TX 77021, USA', 'geometry': {'location': {'lat': 29.708978, 'lng': -95.3712429}, 'location_type': 'RANGE_INTERPOLATED', 'viewport': {'northeast': {'lat': 29.7103269802915, 'lng': -95.3698939197085}, 'southwest': {'lat': 29.7076290197085, 'lng': -95.37259188029151}}}, 'place_id': 'EiwzMjUwIFMgTWFjR3JlZ29yIFdheSwgSG91c3RvbiwgVFggNzcwMjEsIFVTQSIbEhkKFAoSCW90z9C9v0CGEaMlz97m4I8xELIZ', 'types': ['street_address']}]"
2010-01-12 09:00:00,10H60,3000-3099,WHEELER,Theft,road/street/sidewalk,1,9,12,Tuesday,Jan,2010,3050,3050 WHEELER,"[{'address_components': [{'long_name': '3050', 'short_name': '3050', 'types': ['street_number']}, {'long_name': 'Wheeler Avenue', 'short_name': 'Wheeler Ave', 'types': ['route']}, {'long_name': 'Southeast Houston', 'short_name': 'Southeast Houston', 'types': ['neighborhood', 'political']}, {'long_name': 'Houston', 'short_name': 'Houston', 'types': ['locality', 'political']}, {'long_name': 'Harris County', 'short_name': 'Harris County', 'types': ['administrative_area_level_2', 'political']}, {'long_name': 'Texas', 'short_name': 'TX', 'types': ['administrative_area_level_1', 'political']}, {'long_name': 'United States', 'short_name': 'US', 'types': ['country', 'political']}, {'long_name': '77004', 'short_name': '77004', 'types': ['postal_code']}], 'formatted_address': '3050 Wheeler Ave, Houston, TX 77004, USA', 'geometry': {'location': {'lat': 29.7236177, 'lng': -95.36546589999999}, 'location_type': 'RANGE_INTERPOLATED', 'viewport': {'northeast': {'lat': 29.7249666802915, 'lng': -95.3641169197085}, 'southwest': {'lat': 29.7222687197085, 'lng': -95.3668148802915}}}, 'place_id': 'EigzMDUwIFdoZWVsZXIgQXZlLCBIb3VzdG9uLCBUWCA3NzAwNCwgVVNBIhsSGQoUChIJ56yp_aa_QIYRq4xFZSZORXIQ6hc', 'types': ['street_address']}]"
2010-01-12 15:00:00,10H60,2500-2599,MACGREGOR,Theft,bar/night club,1,15,12,Tuesday,Jan,2010,2550,2550 MACGREGOR,"[{'address_components': [{'long_name': '2550', 'short_name': '2550', 'types': ['street_number']}, {'long_name': 'South Macgregor Way', 'short_name': 'S MacGregor Way', 'types': ['route']}, {'long_name': 'South Central Houston', 'short_name': 'South Central Houston', 'types': ['neighborhood', 'political']}, {'long_name': 'Houston', 'short_name': 'Houston', 'types': ['locality', 'political']}, {'long_name': 'Harris County', 'short_name': 'Harris County', 'types': ['administrative_area_level_2', 'political']}, {'long_name': 'Texas', 'short_name': 'TX', 'types': ['administrative_area_level_1', 'political']}, {'long_name': 'United States', 'short_name': 'US', 'types': ['country', 'political']}, {'long_name': '77021', 'short_name': '77021', 'types': ['postal_code']}], 'formatted_address': '2550 S MacGregor Way, Houston, TX 77021, USA', 'geometry': {'location': {'lat': 29.7116433, 'lng': -95.3784099}, 'location_type': 'RANGE_INTERPOLATED', 'viewport': {'northeast': {'lat': 29.7129922802915, 'lng': -95.37706091970848}, 'southwest': {'lat': 29.7102943197085, 'lng': -95.3797588802915}}}, 'place_id': 'EiwyNTUwIFMgTWFjR3JlZ29yIFdheSwgSG91c3RvbiwgVFggNzcwMjEsIFVTQSIbEhkKFAoSCaG1M9WWv0CGEddbVjwHz30IEPYT', 'types': ['street_address']}]"
2010-01-12 18:00:00,10H60,6400-6499,DEL RIO,Burglary,apartment,1,18,12,Tuesday,Jan,2010,6450,6450 DEL RIO,"[{'address_components': [{'long_name': '6450', 'short_name': '6450', 'types': ['street_number']}, {'long_name': 'Del Rio Street', 'short_name': 'Del Rio St', 'types': ['route']}, {'long_name': 'South Central Houston', 'short_name': 'South Central Houston', 'types': ['neighborhood', 'political']}, {'long_name': 'Houston', 'short_name': 'Houston', 'types': ['locality', 'political']}, {'long_name': 'Harris County', 'short_name': 'Harris County', 'types': ['administrative_area_level_2', 'political']}, {'long_name': 'Texas', 'short_name': 'TX', 'types': ['administrative_area_level_1', 'political']}, {'long_name': 'United States', 'short_name': 'US', 'types': ['country', 'political']}, {'long_name': '77021', 'short_name': '77021', 'types': ['postal_code']}], 'formatted_address': '6450 Del Rio St, Houston, TX 77021, USA', 'geometry': {'location': {'lat': 29.7027029, 'lng': -95.36974359999999}, 'location_type': 'RANGE_INTERPOLATED', 'viewport': {'northeast': {'lat': 29.7040518802915, 'lng': -95.3683946197085}, 'southwest': {'lat': 29.7013539197085, 'lng': -95.3710925802915}}}, 'place_id': 'Eic2NDUwIERlbCBSaW8gU3QsIEhvdXN0b24sIFRYIDc3MDIxLCBVU0EiGxIZChQKEgn7flSXwL9AhhEgExhcqv57rxCyMg', 'types': ['street_address']}]"
2010-01-12 20:00:00,10H60,6400-6499,DEL RIO,Auto Theft,field/woods,1,20,12,Tuesday,Jan,2010,6450,6450 DEL RIO,"[{'address_components': [{'long_name': '6450', 'short_name': '6450', 'types': ['street_number']}, {'long_name': 'Del Rio Street', 'short_name': 'Del Rio St', 'types': ['route']}, {'long_name': 'South Central Houston', 'short_name': 'South Central Houston', 'types': ['neighborhood', 'political']}, {'long_name': 'Houston', 'short_name': 'Houston', 'types': ['locality', 'political']}, {'long_name': 'Harris County', 'short_name': 'Harris County', 'types': ['administrative_area_level_2', 'political']}, {'long_name': 'Texas', 'short_name': 'TX', 'types': ['administrative_area_level_1', 'political']}, {'long_name': 'United States', 'short_name': 'US', 'types': ['country', 'political']}, {'long_name': '77021', 'short_name': '77021', 'types': ['postal_code']}], 'formatted_address': '6450 Del Rio St, Houston, TX 77021, USA', 'geometry': {'location': {'lat': 29.7027029, 'lng': -95.36974359999999}, 'location_type': 'RANGE_INTERPOLATED', 'viewport': {'northeast': {'lat': 29.7040518802915, 'lng': -95.3683946197085}, 'southwest': {'lat': 29.7013539197085, 'lng': -95.3710925802915}}}, 'place_id': 'Eic2NDUwIERlbCBSaW8gU3QsIEhvdXN0b24sIFRYIDc3MDIxLCBVU0EiGxIZChQKEgn7flSXwL9AhhEgExhcqv57rxCyMg', 'types': ['street_address']}]"
2010-01-13 04:00:00,10H60,3000-3099,WICHITA,Theft,residence/house,1,4,13,Wednesday,Jan,2010,3050,3050 WICHITA,"[{'address_components': [{'long_name': '3050', 'short_name': '3050', 'types': ['street_number']}, {'long_name': 'Wichita Street', 'short_name': 'Wichita St', 'types': ['route']}, {'long_name': 'South Central Houston', 'short_name': 'South Central Houston', 'types': ['neighborhood', 'political']}, {'long_name': 'Houston', 'short_name': 'Houston', 'types': ['locality', 'political']}, {'long_name': 'Harris County', 'short_name': 'Harris County', 'types': ['administrative_area_level_2', 'political']}, {'long_name': 'Texas', 'short_name': 'TX', 'types': ['administrative_area_level_1', 'political']}, {'long_name': 'United States', 'short_name': 'US', 'types': ['country', 'political']}, {'long_name': '77004', 'short_name': '77004', 'types': ['postal_code']}], 'formatted_address': '3050 Wichita St, Houston, TX 77004, USA', 'geometry': {'location': {'lat': 29.7181585, 'lng': -95.3690682}, 'location_type': 'RANGE_INTERPOLATED', 'viewport': {'northeast': {'lat': 29.7195074802915, 'lng': -95.36771921970849}, 'southwest': {'lat': 29.7168095197085, 'lng': -95.3704171802915}}}, 'place_id': 'EiczMDUwIFdpY2hpdGEgU3QsIEhvdXN0b24sIFRYIDc3MDA0LCBVU0EiGxIZChQKEgnD2wqio79AhhFTPmrA3qC_sxDqFw', 'types': ['street_address']}]"
2010-01-13 06:00:00,10H60,3400-3499,ROSEDALE,Theft,apartment,1,6,13,Wednesday,Jan,2010,3450,3450 ROSEDALE,"[{'address_components': [{'long_name': '3450', 'short_name': '3450', 'types': ['street_number']}, {'long_name': 'Rosedale Street', 'short_name': 'Rosedale St', 'types': ['route']}, {'long_name': 'Southeast Houston', 'short_name': 'Southeast Houston', 'types': ['neighborhood', 'political']}, {'long_name': 'Houston', 'short_name': 'Houston', 'types': ['locality', 'political']}, {'long_name': 'Harris County', 'short_name': 'Harris County', 'types': ['administrative_area_level_2', 'political']}, {'long_name': 'Texas', 'short_name': 'TX', 'types': ['administrative_area_level_1', 'political']}, {'long_name': 'United States', 'short_name': 'US', 'types': ['country', 'political']}, {'long_name': '77004', 'short_name': '77004', 'types': ['postal_code']}], 'formatted_address': '3450 Rosedale St, Houston, TX 77004, USA', 'geometry': {'location': {'lat': 29.7161107, 'lng': -95.36010120000002}, 'location_type': 'RANGE_INTERPOLATED', 'viewport': {'northeast': {'lat': 29.7174596802915, 'lng': -95.35875221970852}, 'southwest': {'lat': 29.7147617197085, 'lng': -95.36145018029153}}}, 'place_id': 'EigzNDUwIFJvc2VkYWxlIFN0LCBIb3VzdG9uLCBUWCA3NzAwNCwgVVNBIhsSGQoUChIJi9U_wa-_QIYRaK19m0s_mT8Q-ho', 'types': ['street_address']}]"
2010-01-13 11:00:00,10H60,4000-4099,GLEN COVE,Theft,residence/house,1,11,13,Wednesday,Jan,2010,4050,4050 GLEN COVE,"[{'address_components': [{'long_name': '4050', 'short_name': '4050', 'types': ['street_number']}, {'long_name': 'Glen Cove Drive', 'short_name': 'Glen Cove Dr', 'types': ['route']}, {'long_name': 'South Side', 'short_name': 'South Side', 'types': ['neighborhood', 'political']}, {'long_name': 'Houston', 'short_name': 'Houston', 'types': ['locality', 'political']}, {'long_name': 'Harris County', 'short_name': 'Harris County', 'types': ['administrative_area_level_2', 'political']}, {'long_name': 'Texas', 'short_name': 'TX', 'types': ['administrative_area_level_1', 'political']}, {'long_name': 'United States', 'short_name': 'US', 'types': ['country', 'political']}, {'long_name': '77021', 'short_name': '77021', 'types': ['postal_code']}, {'long_name': '2249', 'short_name': '2249', 'types': ['postal_code_suffix']}], 'formatted_address': '4050 Glen Cove Dr, Houston, TX 77021, USA', 'geometry': {'location': {'lat': 29.7048592, 'lng': -95.34948949999999}, 'location_type': 'RANGE_INTERPOLATED', 'viewport': {'northeast': {'lat': 29.7062081802915, 'lng': -95.34814051970848}, 'southwest': {'lat': 29.7035102197085, 'lng': -95.3508384802915}}}, 'place_id': 'Eik0MDUwIEdsZW4gQ292ZSBEciwgSG91c3RvbiwgVFggNzcwMjEsIFVTQSIbEhkKFAoSCVVF5IdKvkCGEXR9eXIXhn_zENIf', 'types': ['street_address']}]"
2010-01-15 00:00:00,10H60,2500-2599,ROSEDALE,Theft,driveway,1,0,15,Friday,Jan,2010,2550,2550 ROSEDALE,"[{'address_components': [{'long_name': '2550', 'short_name': '2550', 'types': ['street_number']}, {'long_name': 'Rosedale Street', 'short_name': 'Rosedale St', 'types': ['route']}, {'long_name': 'Southeast Houston', 'short_name': 'Southeast Houston', 'types': ['neighborhood', 'political']}, {'long_name': 'Houston', 'short_name': 'Houston', 'types': ['locality', 'political']}, {'long_name': 'Harris County', 'short_name': 'Harris County', 'types': ['administrative_area_level_2', 'political']}, {'long_name': 'Texas', 'short_name': 'TX', 'types': ['administrative_area_level_1', 'political']}, {'long_name': 'United States', 'short_name': 'US', 'types': ['country', 'political']}, {'long_name': '77004', 'short_name': '77004', 'types': ['postal_code']}], 'formatted_address': '2550 Rosedale St, Houston, TX 77004, USA', 'geometry': {'location': {'lat': 29.7217468, 'lng': -95.37275819999999}, 'location_type': 'RANGE_INTERPOLATED', 'viewport': {'northeast': {'lat': 29.7230957802915, 'lng': -95.37140921970848}, 'southwest': {'lat': 29.7203978197085, 'lng': -95.3741071802915}}}, 'place_id': 'EigyNTUwIFJvc2VkYWxlIFN0LCBIb3VzdG9uLCBUWCA3NzAwNCwgVVNBIhsSGQoUChIJi4hBYZ-_QIYRNMJ3v29ZIzMQ9hM', 'types': ['street_address']}]"
2010-01-15 15:00:00,10H60,2300-2399,SOUTHMORE,Theft,service/gas station,1,15,15,Friday,Jan,2010,2350,2350 SOUTHMORE,"[{'address_components': [{'long_name': '2350', 'short_name': '2350', 'types': ['street_number']}, {'long_name': 'Southmore Boulevard', 'short_name': 'Southmore Blvd', 'types': ['route']}, {'long_name': 'South Central Houston', 'short_name': 'South Central Houston', 'types': ['neighborhood', 'political']}, {'long_name': 'Houston', 'short_name': 'Houston', 'types': ['locality', 'political']}, {'long_name': 'Harris County', 'short_name': 'Harris County', 'types': ['administrative_area_level_2', 'political']}, {'long_name': 'Texas', 'short_name': 'TX', 'types': ['administrative_area_level_1', 'political']}, {'long_name': 'United States', 'short_name': 'US', 'types': ['country', 'political']}, {'long_name': '77004', 'short_name': '77004', 'types': ['postal_code']}, {'long_name': '7417', 'short_name': '7417', 'types': ['postal_code_suffix']}], 'formatted_address': '2350 Southmore Blvd, Houston, TX 77004, USA', 'geometry': {'location': {'lat': 29.7211281, 'lng': -95.3760198}, 'location_type': 'RANGE_INTERPOLATED', 'viewport': {'northeast': {'lat': 29.7224770802915, 'lng': -95.3746708197085}, 'southwest': {'lat': 29.7197791197085, 'lng': -95.3773687802915}}}, 'place_id': 'EisyMzUwIFNvdXRobW9yZSBCbHZkLCBIb3VzdG9uLCBUWCA3NzAwNCwgVVNBIhsSGQoUChIJX_Or3p6_QIYRlyQfGFAtQ5MQrhI', 'types': ['street_address']}]"
2010-01-15 17:00:00,10H60,2900-2999,PALM,Burglary,"vacant single occupancy residence (houses,townhouses,duplexes, etc.)",1,17,15,Friday,Jan,2010,2950,2950 PALM,"[{'address_components': [{'long_name': '2950', 'short_name': '2950', 'types': ['street_number']}, {'long_name': 'Palm Street', 'short_name': 'Palm St', 'types': ['route']}, {'long_name': 'South Central Houston', 'short_name': 'South Central Houston', 'types': ['neighborhood', 'political']}, {'long_name': 'Houston', 'short_name': 'Houston', 'types': ['locality', 'political']}, {'long_name': 'Harris County', 'short_name': 'Harris County', 'types': ['administrative_area_level_2', 'political']}, {'long_name': 'Texas', 'short_name': 'TX', 'types': ['administrative_area_level_1', 'political']}, {'long_name': 'United States', 'short_name': 'US', 'types': ['country', 'political']}, {'long_name': '77004', 'short_name': '77004', 'types': ['postal_code']}], 'formatted_address': '2950 Palm St, Houston, TX 77004, USA', 'geometry': {'location': {'lat': 29.7194245, 'lng': -95.36955139999999}, 'location_type': 'RANGE_INTERPOLATED', 'viewport': {'northeast': {'lat': 29.7207734802915, 'lng': -95.36820241970848}, 'southwest': {'lat': 29.7180755197085, 'lng': -95.3709003802915}}}, 'place_id': 'EiQyOTUwIFBhbG0gU3QsIEhvdXN0b24sIFRYIDc3MDA0LCBVU0EiGxIZChQKEgmNFf3Fo79AhhH3tJ8MLEfIcxCGFw', 'types': ['street_address']}]"
2010-01-15 21:00:00,10H60,3500-3599,ROSEWOOD,Burglary,residence/house,1,21,15,Friday,Jan,2010,3550,3550 ROSEWOOD,"[{'address_components': [{'long_name': '3550', 'short_name': '3550', 'types': ['street_number']}, {'long_name': 'Rosewood Street', 'short_name': 'Rosewood St', 'types': ['route']}, {'long_name': 'South Central Houston', 'short_name': 'South Central Houston', 'types': ['neighborhood', 'political']}, {'long_name': 'Houston', 'short_name': 'Houston', 'types': ['locality', 'political']}, {'long_name': 'Harris County', 'short_name': 'Harris County', 'types': ['administrative_area_level_2', 'political']}, {'long_name': 'Texas', 'short_name': 'TX', 'types': ['administrative_area_level_1', 'political']}, {'long_name': 'United States', 'short_name': 'US', 'types': ['country', 'political']}, {'long_name': '77004', 'short_name': '77004', 'types': ['postal_code']}, {'long_name': '5512', 'short_name': '5512', 'types': ['postal_code_suffix']}], 'formatted_address': '3550 Rosewood St, Houston, TX 77004, USA', 'geometry': {'location': {'lat': 29.7195137, 'lng': -95.3561584}, 'location_type': 'RANGE_INTERPOLATED', 'viewport': {'northeast': {'lat': 29.7208626802915, 'lng': -95.35480941970849}, 'southwest': {'lat': 29.7181647197085, 'lng': -95.35750738029151}}}, 'place_id': 'EigzNTUwIFJvc2V3b29kIFN0LCBIb3VzdG9uLCBUWCA3NzAwNCwgVVNBIhsSGQoUChIJi5TbPay_QIYR8LmU36PXUpAQ3hs', 'types': ['street_address']}]"
2010-01-15 22:00:00,10H60,3400-3499,TAMPA,Murder,residence/house,1,22,15,Friday,Jan,2010,3450,3450 TAMPA,"[{'address_components': [{'long_name': '3450', 'short_name': '3450', 'types': ['street_number']}, {'long_name': 'Tampa Street', 'short_name': 'Tampa St', 'types': ['route']}, {'long_name': 'South Side', 'short_name': 'South Side', 'types': ['neighborhood', 'political']}, {'long_name': 'Houston', 'short_name': 'Houston', 'types': ['locality', 'political']}, {'long_name': 'Harris County', 'short_name': 'Harris County', 'types': ['administrative_area_level_2', 'political']}, {'long_name': 'Texas', 'short_name': 'TX', 'types': ['administrative_area_level_1', 'political']}, {'long_name': 'United States', 'short_name': 'US', 'types': ['country', 'political']}, {'long_name': '77021', 'short_name': '77021', 'types': ['postal_code']}, {'long_name': '1242', 'short_name': '1242', 'types': ['postal_code_suffix']}], 'formatted_address': '3450 Tampa St, Houston, TX 77021, USA', 'geometry': {'location': {'lat': 29.7044551, 'lng': -95.3670659}, 'location_type': 'RANGE_INTERPOLATED', 'viewport': {'northeast': {'lat': 29.7058040802915, 'lng': -95.36571691970849}, 'southwest': {'lat': 29.7031061197085, 'lng': -95.36841488029151}}}, 'place_id': 'EiUzNDUwIFRhbXBhIFN0LCBIb3VzdG9uLCBUWCA3NzAyMSwgVVNBIhsSGQoUChIJq-RNtLi_QIYROgm-XnZxttoQ-ho', 'types': ['street_address']}]"
2010-01-15 23:00:00,10H60,2500-2599,WENTWORTH,Theft,road/street/sidewalk,1,23,15,Friday,Jan,2010,2550,2550 WENTWORTH,"[{'address_components': [{'long_name': '2550', 'short_name': '2550', 'types': ['street_number']}, {'long_name': 'Wentworth Street', 'short_name': 'Wentworth St', 'types': ['route']}, {'long_name': 'Southeast Houston', 'short_name': 'Southeast Houston', 'types': ['neighborhood', 'political']}, {'long_name': 'Houston', 'short_name': 'Houston', 'types': ['locality', 'political']}, {'long_name': 'Harris County', 'short_name': 'Harris County', 'types': ['administrative_area_level_2', 'political']}, {'long_name': 'Texas', 'short_name': 'TX', 'types': ['administrative_area_level_1', 'political']}, {'long_name': 'United States', 'short_name': 'US', 'types': ['country', 'political']}, {'long_name': '77004', 'short_name': '77004', 'types': ['postal_code']}], 'formatted_address': '2550 Wentworth St, Houston, TX 77004, USA', 'geometry': {'location': {'lat': 29.7232256, 'lng': -95.3715675}, 'location_type': 'RANGE_INTERPOLATED', 'viewport': {'northeast': {'lat': 29.7245745802915, 'lng': -95.37021851970849}, 'southwest': {'lat': 29.7218766197085, 'lng': -95.37291648029151}}}, 'place_id': 'EikyNTUwIFdlbnR3b3J0aCBTdCwgSG91c3RvbiwgVFggNzcwMDQsIFVTQSIbEhkKFAoSCfGErzOgv0CGESEIntNoAgTFEPYT', 'types': ['street_address']}]"
2010-01-16 00:00:00,10H60,5500-5599,LIVE OAK,Aggravated Assault,other/unknown,1,0,16,Saturday,Jan,2010,5550,5550 LIVE OAK,"[{'address_components': [{'long_name': '5550', 'short_name': '5550', 'types': ['street_number']}, {'long_name': 'Live Oak Street', 'short_name': 'Live Oak St', 'types': ['route']}, {'long_name': 'South Side', 'short_name': 'South Side', 'types': ['neighborhood', 'political']}, {'long_name': 'Houston', 'short_name': 'Houston', 'types': ['locality', 'political']}, {'long_name': 'Harris County', 'short_name': 'Harris County', 'types': ['administrative_area_level_2', 'political']}, {'long_name': 'Texas', 'short_name': 'TX', 'types': ['administrative_area_level_1', 'political']}, {'long_name': 'United States', 'short_name': 'US', 'types': ['country', 'political']}, {'long_name': '77004', 'short_name': '77004', 'types': ['postal_code']}, {'long_name': '7789', 'short_name': '7789', 'types': ['postal_code_suffix']}], 'formatted_address': '5550 Live Oak St, Houston, TX 77004, USA', 'geometry': {'location': {'lat': 29.716282, 'lng': -95.3755484}, 'location_type': 'RANGE_INTERPOLATED', 'viewport': {'northeast': {'lat': 29.7176309802915, 'lng': -95.3741994197085}, 'southwest': {'lat': 29.7149330197085, 'lng': -95.37689738029151}}}, 'place_id': 'Eig1NTUwIExpdmUgT2FrIFN0LCBIb3VzdG9uLCBUWCA3NzAwNCwgVVNBIhsSGQoUChIJy3kPNpi_QIYR9Cu5BcoMbGUQris', 'types': ['street_address']}]"
2010-01-17 00:00:00,10H60,3300-3399,DIXIE,Theft,road/street/sidewalk,1,0,17,Sunday,Jan,2010,3350,3350 DIXIE,"[{'address_components': [{'long_name': '3350', 'short_name': '3350', 'types': ['street_number']}, {'long_name': 'Dixie Drive', 'short_name': 'Dixie Dr', 'types': ['route']}, {'long_name': 'MacGregor', 'short_name': 'MacGregor', 'types': ['neighborhood', 'political']}, {'long_name': 'Houston', 'short_name': 'Houston', 'types': ['locality', 'political']}, {'long_name': 'Harris County', 'short_name': 'Harris County', 'types': ['administrative_area_level_2', 'political']}, {'long_name': 'Texas', 'short_name': 'TX', 'types': ['administrative_area_level_1', 'political']}, {'long_name': 'United States', 'short_name': 'US', 'types': ['country', 'political']}, {'long_name': '77021', 'short_name': '77021', 'types': ['postal_code']}, {'long_name': '1147', 'short_name': '1147', 'types': ['postal_code_suffix']}], 'formatted_address': '3350 Dixie Dr, Houston, TX 77021, USA', 'geometry': {'bounds': {'northeast': {'lat': 29.7045631, 'lng': -95.37080139999999}, 'southwest': {'lat': 29.7041598, 'lng': -95.37122}}, 'location': {'lat': 29.7044639, 'lng': -95.3709937}, 'location_type': 'ROOFTOP', 'viewport': {'northeast': {'lat': 29.7057104302915, 'lng': -95.36966171970849}, 'southwest': {'lat': 29.7030124697085, 'lng': -95.3723596802915}}}, 'place_id': 'ChIJLzl9mr-_QIYR4wfrqeZvhQU', 'types': ['premise']}]"
2010-01-17 18:00:00,10H60,6500-6599,PEERLESS,Theft,bar/night club parking lot,1,18,17,Sunday,Jan,2010,6550,6550 PEERLESS,"[{'address_components': [{'long_name': '6550', 'short_name': '6550', 'types': ['street_number']}, {'long_name': 'Peerless Street', 'short_name': 'Peerless St', 'types': ['route']}, {'long_name': 'Southeast Houston', 'short_name': 'Southeast Houston', 'types': ['neighborhood', 'political']}, {'long_name': 'Houston', 'short_name': 'Houston', 'types': ['locality', 'political']}, {'long_name': 'Harris County', 'short_name': 'Harris County', 'types': ['administrative_area_level_2', 'political']}, {'long_name': 'Texas', 'short_name': 'TX', 'types': ['administrative_area_level_1', 'political']}, {'long_name': 'United States', 'short_name': 'US', 'types': ['country', 'political']}, {'long_name': '77021', 'short_name': '77021', 'types': ['postal_code']}], 'formatted_address': '6550 Peerless St, Houston, TX 77021, USA', 'geometry': {'location': {'lat': 29.7020887, 'lng': -95.3709446}, 'location_type': 'RANGE_INTERPOLATED', 'viewport': {'northeast': {'lat': 29.7034376802915, 'lng': -95.36959561970849}, 'southwest': {'lat': 29.7007397197085, 'lng': -95.37229358029151}}}, 'place_id': 'Eig2NTUwIFBlZXJsZXNzIFN0LCBIb3VzdG9uLCBUWCA3NzAyMSwgVVNBIhsSGQoUChIJjThThsC_QIYRoaN2cqEeUGsQljM', 'types': ['street_address']}]"
2010-01-17 21:00:00,10H60,2400-2499,BINZ,Theft,driveway,1,21,17,Sunday,Jan,2010,2450,2450 BINZ,"[{'address_components': [{'long_name': '2450', 'short_name': '2450', 'types': ['street_number']}, {'long_name': 'Binz Street', 'short_name': 'Binz St', 'types': ['route']}, {'long_name': 'South Central Houston', 'short_name': 'South Central Houston', 'types': ['neighborhood', 'political']}, {'long_name': 'Houston', 'short_name': 'Houston', 'types': ['locality', 'political']}, {'long_name': 'Harris County', 'short_name': 'Harris County', 'types': ['administrative_area_level_2', 'political']}, {'long_name': 'Texas', 'short_name': 'TX', 'types': ['administrative_area_level_1', 'political']}, {'long_name': 'United States', 'short_name': 'US', 'types': ['country', 'political']}, {'long_name': '77004', 'short_name': '77004', 'types': ['postal_code']}], 'formatted_address': '2450 Binz St, Houston, TX 77004, USA', 'geometry': {'location': {'lat': 29.7173575, 'lng': -95.3767755}, 'location_type': 'RANGE_INTERPOLATED', 'viewport': {'northeast': {'lat': 29.7187064802915, 'lng': -95.37542651970848}, 'southwest': {'lat': 29.7160085197085, 'lng': -95.3781244802915}}}, 'place_id': 'EiQyNDUwIEJpbnogU3QsIEhvdXN0b24sIFRYIDc3MDA0LCBVU0EiGxIZChQKEgm5J4eomb9AhhHSROiLko70PBCSEw', 'types': ['street_address']}]"
2010-01-18 00:00:00,10H60,3300-3399,DIXIE,Theft,bar/night club parking lot,1,0,18,Monday,Jan,2010,3350,3350 DIXIE,"[{'address_components': [{'long_name': '3350', 'short_name': '3350', 'types': ['street_number']}, {'long_name': 'Dixie Drive', 'short_name': 'Dixie Dr', 'types': ['route']}, {'long_name': 'MacGregor', 'short_name': 'MacGregor', 'types': ['neighborhood', 'political']}, {'long_name': 'Houston', 'short_name': 'Houston', 'types': ['locality', 'political']}, {'long_name': 'Harris County', 'short_name': 'Harris County', 'types': ['administrative_area_level_2', 'political']}, {'long_name': 'Texas', 'short_name': 'TX', 'types': ['administrative_area_level_1', 'political']}, {'long_name': 'United States', 'short_name': 'US', 'types': ['country', 'political']}, {'long_name': '77021', 'short_name': '77021', 'types': ['postal_code']}, {'long_name': '1147', 'short_name': '1147', 'types': ['postal_code_suffix']}], 'formatted_address': '3350 Dixie Dr, Houston, TX 77021, USA', 'geometry': {'bounds': {'northeast': {'lat': 29.7045631, 'lng': -95.37080139999999}, 'southwest': {'lat': 29.7041598, 'lng': -95.37122}}, 'location': {'lat': 29.7044639, 'lng': -95.3709937}, 'location_type': 'ROOFTOP', 'viewport': {'northeast': {'lat': 29.7057104302915, 'lng': -95.36966171970849}, 'southwest': {'lat': 29.7030124697085, 'lng': -95.3723596802915}}}, 'place_id': 'ChIJLzl9mr-_QIYR4wfrqeZvhQU', 'types': ['premise']}]"
2010-01-18 01:00:00,10H60,2400-2499,BINZ,Robbery,road/street/sidewalk,1,1,18,Monday,Jan,2010,2450,2450 BINZ,"[{'address_components': [{'long_name': '2450', 'short_name': '2450', 'types': ['street_number']}, {'long_name': 'Binz Street', 'short_name': 'Binz St', 'types': ['route']}, {'long_name': 'South Central Houston', 'short_name': 'South Central Houston', 'types': ['neighborhood', 'political']}, {'long_name': 'Houston', 'short_name': 'Houston', 'types': ['locality', 'political']}, {'long_name': 'Harris County', 'short_name': 'Harris County', 'types': ['administrative_area_level_2', 'political']}, {'long_name': 'Texas', 'short_name': 'TX', 'types': ['administrative_area_level_1', 'political']}, {'long_name': 'United States', 'short_name': 'US', 'types': ['country', 'political']}, {'long_name': '77004', 'short_name': '77004', 'types': ['postal_code']}], 'formatted_address': '2450 Binz St, Houston, TX 77004, USA', 'geometry': {'location': {'lat': 29.7173575, 'lng': -95.3767755}, 'location_type': 'RANGE_INTERPOLATED', 'viewport': {'northeast': {'lat': 29.7187064802915, 'lng': -95.37542651970848}, 'southwest': {'lat': 29.7160085197085, 'lng': -95.3781244802915}}}, 'place_id': 'EiQyNDUwIEJpbnogU3QsIEhvdXN0b24sIFRYIDc3MDA0LCBVU0EiGxIZChQKEgm5J4eomb9AhhHSROiLko70PBCSEw', 'types': ['street_address']}]"
2010-01-19 10:00:00,10H60,3000-3099,BLODGETT,Theft,road/street/sidewalk,1,10,19,Tuesday,Jan,2010,3050,3050 BLODGETT,"[{'address_components': [{'long_name': '3050', 'short_name': '3050', 'types': ['street_number']}, {'long_name': 'Blodgett Street', 'short_name': 'Blodgett St', 'types': ['route']}, {'long_name': 'South Side', 'short_name': 'South Side', 'types': ['neighborhood', 'political']}, {'long_name': 'Houston', 'short_name': 'Houston', 'types': ['locality', 'political']}, {'long_name': 'Harris County', 'short_name': 'Harris County', 'types': ['administrative_area_level_2', 'political']}, {'long_name': 'Texas', 'short_name': 'TX', 'types': ['administrative_area_level_1', 'political']}, {'long_name': 'United States', 'short_name': 'US', 'types': ['country', 'political']}, {'long_name': '77004', 'short_name': '77004', 'types': ['postal_code']}], 'formatted_address': '3050 Blodgett St, Houston, TX 77004, USA', 'geometry': {'location': {'lat': 29.7211427, 'lng': -95.3663899}, 'location_type': 'RANGE_INTERPOLATED', 'viewport': {'northeast': {'lat': 29.7224916802915, 'lng': -95.36504091970849}, 'southwest': {'lat': 29.7197937197085, 'lng': -95.3677388802915}}}, 'place_id': 'EigzMDUwIEJsb2RnZXR0IFN0LCBIb3VzdG9uLCBUWCA3NzAwNCwgVVNBIhsSGQoUChIJdVIfnKa_QIYR415UPnehQnQQ6hc', 'types': ['street_address']}]"
2010-01-19 13:00:00,10H60,6400-6499,DEL RIO,Aggravated Assault,apartment,1,13,19,Tuesday,Jan,2010,6450,6450 DEL RIO,"[{'address_components': [{'long_name': '6450', 'short_name': '6450', 'types': ['street_number']}, {'long_name': 'Del Rio Street', 'short_name': 'Del Rio St', 'types': ['route']}, {'long_name': 'South Central Houston', 'short_name': 'South Central Houston', 'types': ['neighborhood', 'political']}, {'long_name': 'Houston', 'short_name': 'Houston', 'types': ['locality', 'political']}, {'long_name': 'Harris County', 'short_name': 'Harris County', 'types': ['administrative_area_level_2', 'political']}, {'long_name': 'Texas', 'short_name': 'TX', 'types': ['administrative_area_level_1', 'political']}, {'long_name': 'United States', 'short_name': 'US', 'types': ['country', 'political']}, {'long_name': '77021', 'short_name': '77021', 'types': ['postal_code']}], 'formatted_address': '6450 Del Rio St, Houston, TX 77021, USA', 'geometry': {'location': {'lat': 29.7027029, 'lng': -95.36974359999999}, 'location_type': 'RANGE_INTERPOLATED', 'viewport': {'northeast': {'lat': 29.7040518802915, 'lng': -95.3683946197085}, 'southwest': {'lat': 29.7013539197085, 'lng': -95.3710925802915}}}, 'place_id': 'Eic2NDUwIERlbCBSaW8gU3QsIEhvdXN0b24sIFRYIDc3MDIxLCBVU0EiGxIZChQKEgn7flSXwL9AhhEgExhcqv57rxCyMg', 'types': ['street_address']}]"
2010-01-19 20:00:00,10H60,4700-4799,CANFIELD,Theft,road/street/sidewalk,1,20,19,Tuesday,Jan,2010,4750,4750 CANFIELD,"[{'address_components': [{'long_name': '4750', 'short_name': '4750', 'types': ['street_number']}, {'long_name': 'Canfield Street', 'short_name': 'Canfield St', 'types': ['route']}, {'long_name': 'Southeast Houston', 'short_name': 'Southeast Houston', 'types': ['neighborhood', 'political']}, {'long_name': 'Houston', 'short_name': 'Houston', 'types': ['locality', 'political']}, {'long_name': 'Harris County', 'short_name': 'Harris County', 'types': ['administrative_area_level_2', 'political']}, {'long_name': 'Texas', 'short_name': 'TX', 'types': ['administrative_area_level_1', 'political']}, {'long_name': 'United States', 'short_name': 'US', 'types': ['country', 'political']}, {'long_name': '77004', 'short_name': '77004', 'types': ['postal_code']}], 'formatted_address': '4750 Canfield St, Houston, TX 77004, USA', 'geometry': {'location': {'lat': 29.7159369, 'lng': -95.3571485}, 'location_type': 'RANGE_INTERPOLATED', 'viewport': {'northeast': {'lat': 29.7172858802915, 'lng': -95.35579951970848}, 'southwest': {'lat': 29.7145879197085, 'lng': -95.3584974802915}}}, 'place_id': 'Eig0NzUwIENhbmZpZWxkIFN0LCBIb3VzdG9uLCBUWCA3NzAwNCwgVVNBIhsSGQoUChIJnY8n-62_QIYROCviBAZsMHMQjiU', 'types': ['street_address']}]"
2010-01-19 23:00:00,10H60,3500-3599,DIXIE,Theft,apartment parking lot,1,23,19,Tuesday,Jan,2010,3550,3550 DIXIE,"[{'address_components': [{'long_name': '3550', 'short_name': '3550', 'types': ['street_number']}, {'long_name': 'Dixie Drive', 'short_name': 'Dixie Dr', 'types': ['route']}, {'long_name': 'Southeast Houston', 'short_name': 'Southeast Houston', 'types': ['neighborhood', 'political']}, {'long_name': 'Houston', 'short_name': 'Houston', 'types': ['locality', 'political']}, {'long_name': 'Harris County', 'short_name': 'Harris County', 'types': ['administrative_area_level_2', 'political']}, {'long_name': 'Texas', 'short_name': 'TX', 'types': ['administrative_area_level_1', 'political']}, {'long_name': 'United States', 'short_name': 'US', 'types': ['country', 'political']}, {'long_name': '77021', 'short_name': '77021', 'types': ['postal_code']}], 'formatted_address': '3550 Dixie Dr, Houston, TX 77021, USA', 'geometry': {'location': {'lat': 29.7030348, 'lng': -95.3664994}, 'location_type': 'RANGE_INTERPOLATED', 'viewport': {'northeast': {'lat': 29.7043837802915, 'lng': -95.3651504197085}, 'southwest': {'lat': 29.7016858197085, 'lng': -95.3678483802915}}}, 'place_id': 'EiUzNTUwIERpeGllIERyLCBIb3VzdG9uLCBUWCA3NzAyMSwgVVNBIhsSGQoUChIJ7VmXXse_QIYRq5DhpePW8DkQ3hs', 'types': ['street_address']}]"
2010-01-20 05:00:00,10H60,4500-4599,UNIVERSITY OAKS,Burglary,garage/carport,1,5,20,Wednesday,Jan,2010,4550,4550 UNIVERSITY OAKS,"[{'address_components': [{'long_name': '4550', 'short_name': '4550', 'types': ['street_number']}, {'long_name': 'University Oaks Boulevard', 'short_name': 'University Oaks Blvd', 'types': ['route']}, {'long_name': 'South Central Houston', 'short_name': 'South Central Houston', 'types': ['neighborhood', 'political']}, {'long_name': 'Houston', 'short_name': 'Houston', 'types': ['locality', 'political']}, {'long_name': 'Harris County', 'short_name': 'Harris County', 'types': ['administrative_area_level_2', 'political']}, {'long_name': 'Texas', 'short_name': 'TX', 'types': ['administrative_area_level_1', 'political']}, {'long_name': 'United States', 'short_name': 'US', 'types': ['country', 'political']}, {'long_name': '77004', 'short_name': '77004', 'types': ['postal_code']}, {'long_name': '6704', 'short_name': '6704', 'types': ['postal_code_suffix']}], 'formatted_address': '4550 University Oaks Blvd, Houston, TX 77004, USA', 'geometry': {'location': {'lat': 29.7152663, 'lng': -95.3428879}, 'location_type': 'RANGE_INTERPOLATED', 'viewport': {'northeast': {'lat': 29.7166152802915, 'lng': -95.34153891970848}, 'southwest': {'lat': 29.7139173197085, 'lng': -95.3442368802915}}}, 'place_id': 'EjE0NTUwIFVuaXZlcnNpdHkgT2FrcyBCbHZkLCBIb3VzdG9uLCBUWCA3NzAwNCwgVVNBIhsSGQoUChIJfaC46E--QIYRDajDMmWSt-kQxiM', 'types': ['street_address']}]"
2010-01-20 18:00:00,10H60,2500-2599,SOUTHMORE,Robbery,specialty store (non-specific),1,18,20,Wednesday,Jan,2010,2550,2550 SOUTHMORE,"[{'address_components': [{'long_name': '2550', 'short_name': '2550', 'types': ['street_number']}, {'long_name': 'Southmore Boulevard', 'short_name': 'Southmore Blvd', 'types': ['route']}, {'long_name': 'South Central Houston', 'short_name': 'South Central Houston', 'types': ['neighborhood', 'political']}, {'long_name': 'Houston', 'short_name': 'Houston', 'types': ['locality', 'political']}, {'long_name': 'Harris County', 'short_name': 'Harris County', 'types': ['administrative_area_level_2', 'political']}, {'long_name': 'Texas', 'short_name': 'TX', 'types': ['administrative_area_level_1', 'political']}, {'long_name': 'United States', 'short_name': 'US', 'types': ['country', 'political']}, {'long_name': '77004', 'short_name': '77004', 'types': ['postal_code']}, {'long_name': '7421', 'short_name': '7421', 'types': ['postal_code_suffix']}], 'formatted_address': '2550 Southmore Blvd, Houston, TX 77004, USA', 'geometry': {'location': {'lat': 29.7195976, 'lng': -95.373216}, 'location_type': 'RANGE_INTERPOLATED', 'viewport': {'northeast': {'lat': 29.7209465802915, 'lng': -95.3718670197085}, 'southwest': {'lat': 29.7182486197085, 'lng': -95.37456498029151}}}, 'place_id': 'EisyNTUwIFNvdXRobW9yZSBCbHZkLCBIb3VzdG9uLCBUWCA3NzAwNCwgVVNBIhsSGQoUChIJAcM0rpi_QIYRyfD3Iw1XJqcQ9hM', 'types': ['street_address']}]"
2010-01-21 00:00:00,10H60,2900-2999,PALM,Burglary,other/unknown,1,0,21,Thursday,Jan,2010,2950,2950 PALM,"[{'address_components': [{'long_name': '2950', 'short_name': '2950', 'types': ['street_number']}, {'long_name': 'Palm Street', 'short_name': 'Palm St', 'types': ['route']}, {'long_name': 'South Central Houston', 'short_name': 'South Central Houston', 'types': ['neighborhood', 'political']}, {'long_name': 'Houston', 'short_name': 'Houston', 'types': ['locality', 'political']}, {'long_name': 'Harris County', 'short_name': 'Harris County', 'types': ['administrative_area_level_2', 'political']}, {'long_name': 'Texas', 'short_name': 'TX', 'types': ['administrative_area_level_1', 'political']}, {'long_name': 'United States', 'short_name': 'US', 'types': ['country', 'political']}, {'long_name': '77004', 'short_name': '77004', 'types': ['postal_code']}], 'formatted_address': '2950 Palm St, Houston, TX 77004, USA', 'geometry': {'location': {'lat': 29.7194245, 'lng': -95.36955139999999}, 'location_type': 'RANGE_INTERPOLATED', 'viewport': {'northeast': {'lat': 29.7207734802915, 'lng': -95.36820241970848}, 'southwest': {'lat': 29.7180755197085, 'lng': -95.3709003802915}}}, 'place_id': 'EiQyOTUwIFBhbG0gU3QsIEhvdXN0b24sIFRYIDc3MDA0LCBVU0EiGxIZChQKEgmNFf3Fo79AhhH3tJ8MLEfIcxCGFw', 'types': ['street_address']}]"
2010-01-21 02:00:00,10H60,4600-4699,CULLEN,Theft,apartment parking lot,1,2,21,Thursday,Jan,2010,4650,4650 CULLEN,"[{'address_components': [{'long_name': '4650', 'short_name': '4650', 'types': ['street_number']}, {'long_name': 'Cullen Boulevard', 'short_name': 'Cullen Blvd', 'types': ['route']}, {'long_name': 'South Central Houston', 'short_name': 'South Central Houston', 'types': ['neighborhood', 'political']}, {'long_name': 'Houston', 'short_name': 'Houston', 'types': ['locality', 'political']}, {'long_name': 'Harris County', 'short_name': 'Harris County', 'types': ['administrative_area_level_2', 'political']}, {'long_name': 'Texas', 'short_name': 'TX', 'types': ['administrative_area_level_1', 'political']}, {'long_name': 'United States', 'short_name': 'US', 'types': ['country', 'political']}, {'long_name': '77004', 'short_name': '77004', 'types': ['postal_code']}], 'formatted_address': '4650 Cullen Blvd, Houston, TX 77004, USA', 'geometry': {'location': {'lat': 29.71397259999999, 'lng': -95.3491063}, 'location_type': 'RANGE_INTERPOLATED', 'viewport': {'northeast': {'lat': 29.71532158029149, 'lng': -95.3477573197085}, 'southwest': {'lat': 29.7126236197085, 'lng': -95.35045528029151}}}, 'place_id': 'Eig0NjUwIEN1bGxlbiBCbHZkLCBIb3VzdG9uLCBUWCA3NzAwNCwgVVNBIhsSGQoUChIJ-SoJpE2-QIYRAr-xkxy-wBsQqiQ', 'types': ['street_address']}]"
2010-01-21 11:00:00,10H60,3500-3599,MACGREGOR,Auto Theft,apartment parking lot,1,11,21,Thursday,Jan,2010,3550,3550 MACGREGOR,"[{'address_components': [{'long_name': '3550', 'short_name': '3550', 'types': ['street_number']}, {'long_name': 'South Macgregor Way', 'short_name': 'S MacGregor Way', 'types': ['route']}, {'long_name': 'South Central Houston', 'short_name': 'South Central Houston', 'types': ['neighborhood', 'political']}, {'long_name': 'Houston', 'short_name': 'Houston', 'types': ['locality', 'political']}, {'long_name': 'Harris County', 'short_name': 'Harris County', 'types': ['administrative_area_level_2', 'political']}, {'long_name': 'Texas', 'short_name': 'TX', 'types': ['administrative_area_level_1', 'political']}, {'long_name': 'United States', 'short_name': 'US', 'types': ['country', 'political']}, {'long_name': '77021', 'short_name': '77021', 'types': ['postal_code']}], 'formatted_address': '3550 S MacGregor Way, Houston, TX 77021, USA', 'geometry': {'location': {'lat': 29.7093567, 'lng': -95.36242089999999}, 'location_type': 'RANGE_INTERPOLATED', 'viewport': {'northeast': {'lat': 29.7107056802915, 'lng': -95.3610719197085}, 'southwest': {'lat': 29.7080077197085, 'lng': -95.3637698802915}}}, 'place_id': 'EiwzNTUwIFMgTWFjR3JlZ29yIFdheSwgSG91c3RvbiwgVFggNzcwMjEsIFVTQSIbEhkKFAoSCSGGzim6v0CGEaNmhYVnpPp6EN4b', 'types': ['street_address']}]"
2010-01-21 12:00:00,10H60,3300-3399,PARKWOOD,Burglary,residence/house,1,12,21,Thursday,Jan,2010,3350,3350 PARKWOOD,"[{'address_components': [{'long_name': '3350', 'short_name': '3350', 'types': ['street_number']}, {'long_name': 'Parkwood Drive', 'short_name': 'Parkwood Dr', 'types': ['route']}, {'long_name': 'MacGregor', 'short_name': 'MacGregor', 'types': ['neighborhood', 'political']}, {'long_name': 'Houston', 'short_name': 'Houston', 'types': ['locality', 'political']}, {'long_name': 'Harris County', 'short_name': 'Harris County', 'types': ['administrative_area_level_2', 'political']}, {'long_name': 'Texas', 'short_name': 'TX', 'types': ['administrative_area_level_1', 'political']}, {'long_name': 'United States', 'short_name': 'US', 'types': ['country', 'political']}, {'long_name': '77021', 'short_name': '77021', 'types': ['postal_code']}, {'long_name': '1139', 'short_name': '1139', 'types': ['postal_code_suffix']}], 'formatted_address': '3350 Parkwood Dr, Houston, TX 77021, USA', 'geometry': {'bounds': {'northeast': {'lat': 29.7079699, 'lng': -95.3672666}, 'southwest': {'lat': 29.7078305, 'lng': -95.3675379}}, 'location': {'lat': 29.7079031, 'lng': -95.367396}, 'location_type': 'ROOFTOP', 'viewport': {'northeast': {'lat': 29.7092491802915, 'lng': -95.36605326970849}, 'southwest': {'lat': 29.7065512197085, 'lng': -95.36875123029151}}}, 'place_id': 'ChIJIcwbNrm_QIYRzIkF1ruNrsY', 'types': ['premise']}]"
2010-01-22 00:00:00,10H60,3700-3799,SOUTHMORE,Auto Theft,apartment parking lot,1,0,22,Friday,Jan,2010,3750,3750 SOUTHMORE,"[{'address_components': [{'long_name': '3750', 'short_name': '3750', 'types': ['street_number']}, {'long_name': 'Southmore Boulevard', 'short_name': 'Southmore Blvd', 'types': ['route']}, {'long_name': 'MacGregor', 'short_name': 'MacGregor', 'types': ['neighborhood', 'political']}, {'long_name': 'Houston', 'short_name': 'Houston', 'types': ['locality', 'political']}, {'long_name': 'Harris County', 'short_name': 'Harris County', 'types': ['administrative_area_level_2', 'political']}, {'long_name': 'Texas', 'short_name': 'TX', 'types': ['administrative_area_level_1', 'political']}, {'long_name': 'United States', 'short_name': 'US', 'types': ['country', 'political']}, {'long_name': '77004', 'short_name': '77004', 'types': ['postal_code']}], 'formatted_address': '3750 Southmore Blvd, Houston, TX 77004, USA', 'geometry': {'location': {'lat': 29.71159399999999, 'lng': -95.356414}, 'location_type': 'ROOFTOP', 'viewport': {'northeast': {'lat': 29.71294298029149, 'lng': -95.3550650197085}, 'southwest': {'lat': 29.71024501970849, 'lng': -95.35776298029151}}}, 'place_id': 'ChIJSWHzw7O_QIYRJGP5DNFLpMQ', 'types': ['street_address']}]"
2010-01-22 18:00:00,10H60,2600-2699,BLODGETT,Aggravated Assault,road/street/sidewalk,1,18,22,Friday,Jan,2010,2650,2650 BLODGETT,"[{'address_components': [{'long_name': '2650', 'short_name': '2650', 'types': ['street_number']}, {'long_name': 'Blodgett Street', 'short_name': 'Blodgett St', 'types': ['route']}, {'long_name': 'South Side', 'short_name': 'South Side', 'types': ['neighborhood', 'political']}, {'long_name': 'Houston', 'short_name': 'Houston', 'types': ['locality', 'political']}, {'long_name': 'Harris County', 'short_name': 'Harris County', 'types': ['administrative_area_level_2', 'political']}, {'long_name': 'Texas', 'short_name': 'TX', 'types': ['administrative_area_level_1', 'political']}, {'long_name': 'United States', 'short_name': 'US', 'types': ['country', 'political']}, {'long_name': '77004', 'short_name': '77004', 'types': ['postal_code']}], 'formatted_address': '2650 Blodgett St, Houston, TX 77004, USA', 'geometry': {'location': {'lat': 29.7231244, 'lng': -95.36995879999999}, 'location_type': 'RANGE_INTERPOLATED', 'viewport': {'northeast': {'lat': 29.7244733802915, 'lng': -95.36860981970848}, 'southwest': {'lat': 29.7217754197085, 'lng': -95.3713077802915}}}, 'place_id': 'EigyNjUwIEJsb2RnZXR0IFN0LCBIb3VzdG9uLCBUWCA3NzAwNCwgVVNBIhsSGQoUChIJbzkBA6G_QIYRK0WSMorVXaIQ2hQ', 'types': ['street_address']}]"
2010-01-22 20:00:00,10H60,3500-3599,DIXIE,Auto Theft,apartment parking lot,1,20,22,Friday,Jan,2010,3550,3550 DIXIE,"[{'address_components': [{'long_name': '3550', 'short_name': '3550', 'types': ['street_number']}, {'long_name': 'Dixie Drive', 'short_name': 'Dixie Dr', 'types': ['route']}, {'long_name': 'Southeast Houston', 'short_name': 'Southeast Houston', 'types': ['neighborhood', 'political']}, {'long_name': 'Houston', 'short_name': 'Houston', 'types': ['locality', 'political']}, {'long_name': 'Harris County', 'short_name': 'Harris County', 'types': ['administrative_area_level_2', 'political']}, {'long_name': 'Texas', 'short_name': 'TX', 'types': ['administrative_area_level_1', 'political']}, {'long_name': 'United States', 'short_name': 'US', 'types': ['country', 'political']}, {'long_name': '77021', 'short_name': '77021', 'types': ['postal_code']}], 'formatted_address': '3550 Dixie Dr, Houston, TX 77021, USA', 'geometry': {'location': {'lat': 29.7030348, 'lng': -95.3664994}, 'location_type': 'RANGE_INTERPOLATED', 'viewport': {'northeast': {'lat': 29.7043837802915, 'lng': -95.3651504197085}, 'southwest': {'lat': 29.7016858197085, 'lng': -95.3678483802915}}}, 'place_id': 'EiUzNTUwIERpeGllIERyLCBIb3VzdG9uLCBUWCA3NzAyMSwgVVNBIhsSGQoUChIJ7VmXXse_QIYRq5DhpePW8DkQ3hs', 'types': ['street_address']}]"
2010-01-23 00:00:00,10H60,2300-2399,SOUTHMORE,Theft,road/street/sidewalk,1,0,23,Saturday,Jan,2010,2350,2350 SOUTHMORE,"[{'address_components': [{'long_name': '2350', 'short_name': '2350', 'types': ['street_number']}, {'long_name': 'Southmore Boulevard', 'short_name': 'Southmore Blvd', 'types': ['route']}, {'long_name': 'South Central Houston', 'short_name': 'South Central Houston', 'types': ['neighborhood', 'political']}, {'long_name': 'Houston', 'short_name': 'Houston', 'types': ['locality', 'political']}, {'long_name': 'Harris County', 'short_name': 'Harris County', 'types': ['administrative_area_level_2', 'political']}, {'long_name': 'Texas', 'short_name': 'TX', 'types': ['administrative_area_level_1', 'political']}, {'long_name': 'United States', 'short_name': 'US', 'types': ['country', 'political']}, {'long_name': '77004', 'short_name': '77004', 'types': ['postal_code']}, {'long_name': '7417', 'short_name': '7417', 'types': ['postal_code_suffix']}], 'formatted_address': '2350 Southmore Blvd, Houston, TX 77004, USA', 'geometry': {'location': {'lat': 29.7211281, 'lng': -95.3760198}, 'location_type': 'RANGE_INTERPOLATED', 'viewport': {'northeast': {'lat': 29.7224770802915, 'lng': -95.3746708197085}, 'southwest': {'lat': 29.7197791197085, 'lng': -95.3773687802915}}}, 'place_id': 'EisyMzUwIFNvdXRobW9yZSBCbHZkLCBIb3VzdG9uLCBUWCA3NzAwNCwgVVNBIhsSGQoUChIJX_Or3p6_QIYRlyQfGFAtQ5MQrhI', 'types': ['street_address']}]"
2010-01-23 10:00:00,10H60,6500-6599,PEERLESS,Auto Theft,road/street/sidewalk,1,10,23,Saturday,Jan,2010,6550,6550 PEERLESS,"[{'address_components': [{'long_name': '6550', 'short_name': '6550', 'types': ['street_number']}, {'long_name': 'Peerless Street', 'short_name': 'Peerless St', 'types': ['route']}, {'long_name': 'Southeast Houston', 'short_name': 'Southeast Houston', 'types': ['neighborhood', 'political']}, {'long_name': 'Houston', 'short_name': 'Houston', 'types': ['locality', 'political']}, {'long_name': 'Harris County', 'short_name': 'Harris County', 'types': ['administrative_area_level_2', 'political']}, {'long_name': 'Texas', 'short_name': 'TX', 'types': ['administrative_area_level_1', 'political']}, {'long_name': 'United States', 'short_name': 'US', 'types': ['country', 'political']}, {'long_name': '77021', 'short_name': '77021', 'types': ['postal_code']}], 'formatted_address': '6550 Peerless St, Houston, TX 77021, USA', 'geometry': {'location': {'lat': 29.7020887, 'lng': -95.3709446}, 'location_type': 'RANGE_INTERPOLATED', 'viewport': {'northeast': {'lat': 29.7034376802915, 'lng': -95.36959561970849}, 'southwest': {'lat': 29.7007397197085, 'lng': -95.37229358029151}}}, 'place_id': 'Eig2NTUwIFBlZXJsZXNzIFN0LCBIb3VzdG9uLCBUWCA3NzAyMSwgVVNBIhsSGQoUChIJjThThsC_QIYRoaN2cqEeUGsQljM', 'types': ['street_address']}]"
2010-01-24 17:00:00,10H60,2400-2499,ARBOR,Theft,other/unknown,1,17,24,Sunday,Jan,2010,2450,2450 ARBOR,"[{'address_components': [{'long_name': '2450', 'short_name': '2450', 'types': ['street_number']}, {'long_name': 'Arbor Street', 'short_name': 'Arbor St', 'types': ['route']}, {'long_name': 'South Side', 'short_name': 'South Side', 'types': ['neighborhood', 'political']}, {'long_name': 'Houston', 'short_name': 'Houston', 'types': ['locality', 'political']}, {'long_name': 'Harris County', 'short_name': 'Harris County', 'types': ['administrative_area_level_2', 'political']}, {'long_name': 'Texas', 'short_name': 'TX', 'types': ['administrative_area_level_1', 'political']}, {'long_name': 'United States', 'short_name': 'US', 'types': ['country', 'political']}, {'long_name': '77004', 'short_name': '77004', 'types': ['postal_code']}], 'formatted_address': '2450 Arbor St, Houston, TX 77004, USA', 'geometry': {'location': {'lat': 29.7229906, 'lng': -95.3728447}, 'location_type': 'RANGE_INTERPOLATED', 'viewport': {'northeast': {'lat': 29.7243395802915, 'lng': -95.3714957197085}, 'southwest': {'lat': 29.7216416197085, 'lng': -95.37419368029151}}}, 'place_id': 'EiUyNDUwIEFyYm9yIFN0LCBIb3VzdG9uLCBUWCA3NzAwNCwgVVNBIhsSGQoUChIJ95BO0aG_QIYRJHbX4ku7on4QkhM', 'types': ['street_address']}]"
2010-01-24 20:00:00,10H60,6600-6699,BOWLING GREEN,Theft,road/street/sidewalk,1,20,24,Sunday,Jan,2010,6650,6650 BOWLING GREEN,"[{'address_components': [{'long_name': '6650', 'short_name': '6650', 'types': ['street_number']}, {'long_name': 'Bowling Green Street', 'short_name': 'Bowling Green St', 'types': ['route']}, {'long_name': 'South Side', 'short_name': 'South Side', 'types': ['neighborhood', 'political']}, {'long_name': 'Houston', 'short_name': 'Houston', 'types': ['locality', 'political']}, {'long_name': 'Harris County', 'short_name': 'Harris County', 'types': ['administrative_area_level_2', 'political']}, {'long_name': 'Texas', 'short_name': 'TX', 'types': ['administrative_area_level_1', 'political']}, {'long_name': 'United States', 'short_name': 'US', 'types': ['country', 'political']}, {'long_name': '77021', 'short_name': '77021', 'types': ['postal_code']}], 'formatted_address': '6650 Bowling Green St, Houston, TX 77021, USA', 'geometry': {'location': {'lat': 29.7020288, 'lng': -95.374032}, 'location_type': 'RANGE_INTERPOLATED', 'viewport': {'northeast': {'lat': 29.7033777802915, 'lng': -95.37268301970849}, 'southwest': {'lat': 29.7006798197085, 'lng': -95.37538098029151}}}, 'place_id': 'Ei02NjUwIEJvd2xpbmcgR3JlZW4gU3QsIEhvdXN0b24sIFRYIDc3MDIxLCBVU0EiGxIZChQKEgm7G7i-6r9AhhFFkLBFhl_9oBD6Mw', 'types': ['street_address']}]"
2010-01-24 22:00:00,10H60,5500-5599,SAMPSON,Theft,apartment,1,22,24,Sunday,Jan,2010,5550,5550 SAMPSON,"[{'address_components': [{'long_name': '5550', 'short_name': '5550', 'types': ['street_number']}, {'long_name': 'Sampson Street', 'short_name': 'Sampson St', 'types': ['route']}, {'long_name': 'South Central Houston', 'short_name': 'South Central Houston', 'types': ['neighborhood', 'political']}, {'long_name': 'Houston', 'short_name': 'Houston', 'types': ['locality', 'political']}, {'long_name': 'Harris County', 'short_name': 'Harris County', 'types': ['administrative_area_level_2', 'political']}, {'long_name': 'Texas', 'short_name': 'TX', 'types': ['administrative_area_level_1', 'political']}, {'long_name': 'United States', 'short_name': 'US', 'types': ['country', 'political']}, {'long_name': '77004', 'short_name': '77004', 'types': ['postal_code']}], 'formatted_address': '5550 Sampson St, Houston, TX 77004, USA', 'geometry': {'location': {'lat': 29.7129919, 'lng': -95.36935439999999}, 'location_type': 'RANGE_INTERPOLATED', 'viewport': {'northeast': {'lat': 29.7143408802915, 'lng': -95.36800541970848}, 'southwest': {'lat': 29.7116429197085, 'lng': -95.3707033802915}}}, 'place_id': 'Eic1NTUwIFNhbXBzb24gU3QsIEhvdXN0b24sIFRYIDc3MDA0LCBVU0EiGxIZChQKEgldrfvwvL9AhhFZ1124_zul_RCuKw', 'types': ['street_address']}]"
2010-01-24 23:00:00,10H60,3300-3399,DIXIE,Auto Theft,bar/night club parking lot,1,23,24,Sunday,Jan,2010,3350,3350 DIXIE,"[{'address_components': [{'long_name': '3350', 'short_name': '3350', 'types': ['street_number']}, {'long_name': 'Dixie Drive', 'short_name': 'Dixie Dr', 'types': ['route']}, {'long_name': 'MacGregor', 'short_name': 'MacGregor', 'types': ['neighborhood', 'political']}, {'long_name': 'Houston', 'short_name': 'Houston', 'types': ['locality', 'political']}, {'long_name': 'Harris County', 'short_name': 'Harris County', 'types': ['administrative_area_level_2', 'political']}, {'long_name': 'Texas', 'short_name': 'TX', 'types': ['administrative_area_level_1', 'political']}, {'long_name': 'United States', 'short_name': 'US', 'types': ['country', 'political']}, {'long_name': '77021', 'short_name': '77021', 'types': ['postal_code']}, {'long_name': '1147', 'short_name': '1147', 'types': ['postal_code_suffix']}], 'formatted_address': '3350 Dixie Dr, Houston, TX 77021, USA', 'geometry': {'bounds': {'northeast': {'lat': 29.7045631, 'lng': -95.37080139999999}, 'southwest': {'lat': 29.7041598, 'lng': -95.37122}}, 'location': {'lat': 29.7044639, 'lng': -95.3709937}, 'location_type': 'ROOFTOP', 'viewport': {'northeast': {'lat': 29.7057104302915, 'lng': -95.36966171970849}, 'southwest': {'lat': 29.7030124697085, 'lng': -95.3723596802915}}}, 'place_id': 'ChIJLzl9mr-_QIYR4wfrqeZvhQU', 'types': ['premise']}]"
2010-01-25 02:00:00,10H60,3300-3399,DIXIE,Theft,bar/night club parking lot,1,2,25,Monday,Jan,2010,3350,3350 DIXIE,"[{'address_components': [{'long_name': '3350', 'short_name': '3350', 'types': ['street_number']}, {'long_name': 'Dixie Drive', 'short_name': 'Dixie Dr', 'types': ['route']}, {'long_name': 'MacGregor', 'short_name': 'MacGregor', 'types': ['neighborhood', 'political']}, {'long_name': 'Houston', 'short_name': 'Houston', 'types': ['locality', 'political']}, {'long_name': 'Harris County', 'short_name': 'Harris County', 'types': ['administrative_area_level_2', 'political']}, {'long_name': 'Texas', 'short_name': 'TX', 'types': ['administrative_area_level_1', 'political']}, {'long_name': 'United States', 'short_name': 'US', 'types': ['country', 'political']}, {'long_name': '77021', 'short_name': '77021', 'types': ['postal_code']}, {'long_name': '1147', 'short_name': '1147', 'types': ['postal_code_suffix']}], 'formatted_address': '3350 Dixie Dr, Houston, TX 77021, USA', 'geometry': {'bounds': {'northeast': {'lat': 29.7045631, 'lng': -95.37080139999999}, 'southwest': {'lat': 29.7041598, 'lng': -95.37122}}, 'location': {'lat': 29.7044639, 'lng': -95.3709937}, 'location_type': 'ROOFTOP', 'viewport': {'northeast': {'lat': 29.7057104302915, 'lng': -95.36966171970849}, 'southwest': {'lat': 29.7030124697085, 'lng': -95.3723596802915}}}, 'place_id': 'ChIJLzl9mr-_QIYR4wfrqeZvhQU', 'types': ['premise']}]"
2010-01-25 12:00:00,10H60,3400-3499,CHARLESTON,Theft,driveway,1,12,25,Monday,Jan,2010,3450,3450 CHARLESTON,"[{'address_components': [{'long_name': '3450', 'short_name': '3450', 'types': ['street_number']}, {'long_name': 'Charleston Street', 'short_name': 'Charleston St', 'types': ['route']}, {'long_name': 'South Central Houston', 'short_name': 'South Central Houston', 'types': ['neighborhood', 'political']}, {'long_name': 'Houston', 'short_name': 'Houston', 'types': ['locality', 'political']}, {'long_name': 'Harris County', 'short_name': 'Harris County', 'types': ['administrative_area_level_2', 'political']}, {'long_name': 'Texas', 'short_name': 'TX', 'types': ['administrative_area_level_1', 'political']}, {'long_name': 'United States', 'short_name': 'US', 'types': ['country', 'political']}, {'long_name': '77021', 'short_name': '77021', 'types': ['postal_code']}, {'long_name': '1212', 'short_name': '1212', 'types': ['postal_code_suffix']}], 'formatted_address': '3450 Charleston St, Houston, TX 77021, USA', 'geometry': {'location': {'lat': 29.7058014, 'lng': -95.3658169}, 'location_type': 'RANGE_INTERPOLATED', 'viewport': {'northeast': {'lat': 29.7071503802915, 'lng': -95.36446791970849}, 'southwest': {'lat': 29.7044524197085, 'lng': -95.36716588029151}}}, 'place_id': 'EiozNDUwIENoYXJsZXN0b24gU3QsIEhvdXN0b24sIFRYIDc3MDIxLCBVU0EiGxIZChQKEgm5vJ7guL9AhhHbs7XE8klZlRD6Gg', 'types': ['street_address']}]"
2010-01-25 15:00:00,10H60,3300-3399,DIXIE,Burglary,commercial building,1,15,25,Monday,Jan,2010,3350,3350 DIXIE,"[{'address_components': [{'long_name': '3350', 'short_name': '3350', 'types': ['street_number']}, {'long_name': 'Dixie Drive', 'short_name': 'Dixie Dr', 'types': ['route']}, {'long_name': 'MacGregor', 'short_name': 'MacGregor', 'types': ['neighborhood', 'political']}, {'long_name': 'Houston', 'short_name': 'Houston', 'types': ['locality', 'political']}, {'long_name': 'Harris County', 'short_name': 'Harris County', 'types': ['administrative_area_level_2', 'political']}, {'long_name': 'Texas', 'short_name': 'TX', 'types': ['administrative_area_level_1', 'political']}, {'long_name': 'United States', 'short_name': 'US', 'types': ['country', 'political']}, {'long_name': '77021', 'short_name': '77021', 'types': ['postal_code']}, {'long_name': '1147', 'short_name': '1147', 'types': ['postal_code_suffix']}], 'formatted_address': '3350 Dixie Dr, Houston, TX 77021, USA', 'geometry': {'bounds': {'northeast': {'lat': 29.7045631, 'lng': -95.37080139999999}, 'southwest': {'lat': 29.7041598, 'lng': -95.37122}}, 'location': {'lat': 29.7044639, 'lng': -95.3709937}, 'location_type': 'ROOFTOP', 'viewport': {'northeast': {'lat': 29.7057104302915, 'lng': -95.36966171970849}, 'southwest': {'lat': 29.7030124697085, 'lng': -95.3723596802915}}}, 'place_id': 'ChIJLzl9mr-_QIYR4wfrqeZvhQU', 'types': ['premise']}]"
2010-01-25 16:00:00,10H60,4400-4499,CULLEN,Theft,road/street/sidewalk,1,16,25,Monday,Jan,2010,4450,4450 CULLEN,"[{'address_components': [{'long_name': '4450', 'short_name': '4450', 'types': ['street_number']}, {'long_name': 'Cullen Boulevard', 'short_name': 'Cullen Blvd', 'types': ['route']}, {'long_name': 'South Central Houston', 'short_name': 'South Central Houston', 'types': ['neighborhood', 'political']}, {'long_name': 'Houston', 'short_name': 'Houston', 'types': ['locality', 'political']}, {'long_name': 'Harris County', 'short_name': 'Harris County', 'types': ['administrative_area_level_2', 'political']}, {'long_name': 'Texas', 'short_name': 'TX', 'types': ['administrative_area_level_1', 'political']}, {'long_name': 'United States', 'short_name': 'US', 'types': ['country', 'political']}, {'long_name': '77004', 'short_name': '77004', 'types': ['postal_code']}], 'formatted_address': '4450 Cullen Blvd, Houston, TX 77004, USA', 'geometry': {'location': {'lat': 29.7135738, 'lng': -95.34922309999999}, 'location_type': 'RANGE_INTERPOLATED', 'viewport': {'northeast': {'lat': 29.7149227802915, 'lng': -95.34787411970848}, 'southwest': {'lat': 29.7122248197085, 'lng': -95.3505720802915}}}, 'place_id': 'Eig0NDUwIEN1bGxlbiBCbHZkLCBIb3VzdG9uLCBUWCA3NzAwNCwgVVNBIhsSGQoUChIJvQcNqU2-QIYRHgB0aWLTnmEQ4iI', 'types': ['street_address']}]"
2010-01-26 08:00:00,10H60,3500-3599,DIXIE,Theft,apartment,1,8,26,Tuesday,Jan,2010,3550,3550 DIXIE,"[{'address_components': [{'long_name': '3550', 'short_name': '3550', 'types': ['street_number']}, {'long_name': 'Dixie Drive', 'short_name': 'Dixie Dr', 'types': ['route']}, {'long_name': 'Southeast Houston', 'short_name': 'Southeast Houston', 'types': ['neighborhood', 'political']}, {'long_name': 'Houston', 'short_name': 'Houston', 'types': ['locality', 'political']}, {'long_name': 'Harris County', 'short_name': 'Harris County', 'types': ['administrative_area_level_2', 'political']}, {'long_name': 'Texas', 'short_name': 'TX', 'types': ['administrative_area_level_1', 'political']}, {'long_name': 'United States', 'short_name': 'US', 'types': ['country', 'political']}, {'long_name': '77021', 'short_name': '77021', 'types': ['postal_code']}], 'formatted_address': '3550 Dixie Dr, Houston, TX 77021, USA', 'geometry': {'location': {'lat': 29.7030348, 'lng': -95.3664994}, 'location_type': 'RANGE_INTERPOLATED', 'viewport': {'northeast': {'lat': 29.7043837802915, 'lng': -95.3651504197085}, 'southwest': {'lat': 29.7016858197085, 'lng': -95.3678483802915}}}, 'place_id': 'EiUzNTUwIERpeGllIERyLCBIb3VzdG9uLCBUWCA3NzAyMSwgVVNBIhsSGQoUChIJ7VmXXse_QIYRq5DhpePW8DkQ3hs', 'types': ['street_address']}]"
2010-01-26 19:00:00,10H60,6400-6499,PEERLESS,Burglary,residence/house,1,19,26,Tuesday,Jan,2010,6450,6450 PEERLESS,"[{'address_components': [{'long_name': '6450', 'short_name': '6450', 'types': ['street_number']}, {'long_name': 'Peerless Street', 'short_name': 'Peerless St', 'types': ['route']}, {'long_name': 'Southeast Houston', 'short_name': 'Southeast Houston', 'types': ['neighborhood', 'political']}, {'long_name': 'Houston', 'short_name': 'Houston', 'types': ['locality', 'political']}, {'long_name': 'Harris County', 'short_name': 'Harris County', 'types': ['administrative_area_level_2', 'political']}, {'long_name': 'Texas', 'short_name': 'TX', 'types': ['administrative_area_level_1', 'political']}, {'long_name': 'United States', 'short_name': 'US', 'types': ['country', 'political']}, {'long_name': '77021', 'short_name': '77021', 'types': ['postal_code']}], 'formatted_address': '6450 Peerless St, Houston, TX 77021, USA', 'geometry': {'location': {'lat': 29.7029832, 'lng': -95.370601}, 'location_type': 'RANGE_INTERPOLATED', 'viewport': {'northeast': {'lat': 29.7043321802915, 'lng': -95.36925201970848}, 'southwest': {'lat': 29.7016342197085, 'lng': -95.3719499802915}}}, 'place_id': 'Eig2NDUwIFBlZXJsZXNzIFN0LCBIb3VzdG9uLCBUWCA3NzAyMSwgVVNBIhsSGQoUChIJjThThsC_QIYRoaN2cqEeUGsQsjI', 'types': ['street_address']}]"
2010-01-27 01:00:00,10H60,3500-3599,DIXIE,Theft,driveway,1,1,27,Wednesday,Jan,2010,3550,3550 DIXIE,"[{'address_components': [{'long_name': '3550', 'short_name': '3550', 'types': ['street_number']}, {'long_name': 'Dixie Drive', 'short_name': 'Dixie Dr', 'types': ['route']}, {'long_name': 'Southeast Houston', 'short_name': 'Southeast Houston', 'types': ['neighborhood', 'political']}, {'long_name': 'Houston', 'short_name': 'Houston', 'types': ['locality', 'political']}, {'long_name': 'Harris County', 'short_name': 'Harris County', 'types': ['administrative_area_level_2', 'political']}, {'long_name': 'Texas', 'short_name': 'TX', 'types': ['administrative_area_level_1', 'political']}, {'long_name': 'United States', 'short_name': 'US', 'types': ['country', 'political']}, {'long_name': '77021', 'short_name': '77021', 'types': ['postal_code']}], 'formatted_address': '3550 Dixie Dr, Houston, TX 77021, USA', 'geometry': {'location': {'lat': 29.7030348, 'lng': -95.3664994}, 'location_type': 'RANGE_INTERPOLATED', 'viewport': {'northeast': {'lat': 29.7043837802915, 'lng': -95.3651504197085}, 'southwest': {'lat': 29.7016858197085, 'lng': -95.3678483802915}}}, 'place_id': 'EiUzNTUwIERpeGllIERyLCBIb3VzdG9uLCBUWCA3NzAyMSwgVVNBIhsSGQoUChIJ7VmXXse_QIYRq5DhpePW8DkQ3hs', 'types': ['street_address']}]"
2010-01-27 20:00:00,10H60,5900-5999,ARDMORE,Burglary,apartment,1,20,27,Wednesday,Jan,2010,5950,5950 ARDMORE,"[{'address_components': [{'long_name': '5950', 'short_name': '5950', 'types': ['street_number']}, {'long_name': 'Ardmore Street', 'short_name': 'Ardmore St', 'types': ['route']}, {'long_name': 'South Side', 'short_name': 'South Side', 'types': ['neighborhood', 'political']}, {'long_name': 'Houston', 'short_name': 'Houston', 'types': ['locality', 'political']}, {'long_name': 'Harris County', 'short_name': 'Harris County', 'types': ['administrative_area_level_2', 'political']}, {'long_name': 'Texas', 'short_name': 'TX', 'types': ['administrative_area_level_1', 'political']}, {'long_name': 'United States', 'short_name': 'US', 'types': ['country', 'political']}, {'long_name': '77021', 'short_name': '77021', 'types': ['postal_code']}], 'formatted_address': '5950 Ardmore St, Houston, TX 77021, USA', 'geometry': {'location': {'lat': 29.7087044, 'lng': -95.3745955}, 'location_type': 'RANGE_INTERPOLATED', 'viewport': {'northeast': {'lat': 29.71005338029149, 'lng': -95.37324651970849}, 'southwest': {'lat': 29.7073554197085, 'lng': -95.37594448029151}}}, 'place_id': 'Eic1OTUwIEFyZG1vcmUgU3QsIEhvdXN0b24sIFRYIDc3MDIxLCBVU0EiGxIZChQKEglTiCvdlb9AhhF1Mj5LToqnHBC-Lg', 'types': ['street_address']}]"
2010-01-28 16:00:00,10H60,2900-2999,WENTWORTH,Theft,barber and beauty shops,1,16,28,Thursday,Jan,2010,2950,2950 WENTWORTH,"[{'address_components': [{'long_name': '2950', 'short_name': '2950', 'types': ['street_number']}, {'long_name': 'Wentworth Street', 'short_name': 'Wentworth St', 'types': ['route']}, {'long_name': 'Southeast Houston', 'short_name': 'Southeast Houston', 'types': ['neighborhood', 'political']}, {'long_name': 'Houston', 'short_name': 'Houston', 'types': ['locality', 'political']}, {'long_name': 'Harris County', 'short_name': 'Harris County', 'types': ['administrative_area_level_2', 'political']}, {'long_name': 'Texas', 'short_name': 'TX', 'types': ['administrative_area_level_1', 'political']}, {'long_name': 'United States', 'short_name': 'US', 'types': ['country', 'political']},