Date_Hour,Beat,BlockRange,StreetName,OffenseType,Premise,NumOffenses,Hour,day,weekday,month,year,block,address,tup_add
2015-03-14 14:00:00,1A10,1100-1199,TEXAS,Theft,"hotel, motel, inn, etc.",1,14,14,Saturday,Mar,2015,1150,1150 TEXAS,"[{'address_components': [{'long_name': '1150', 'short_name': '1150', 'types': ['street_number']}, {'long_name': 'Texas Street', 'short_name': 'Texas St', 'types': ['route']}, {'long_name': 'Downtown', 'short_name': 'Downtown', 'types': ['neighborhood', 'political']}, {'long_name': 'Houston', 'short_name': 'Houston', 'types': ['locality', 'political']}, {'long_name': 'Harris County', 'short_name': 'Harris County', 'types': ['administrative_area_level_2', 'political']}, {'long_name': 'Texas', 'short_name': 'TX', 'types': ['administrative_area_level_1', 'political']}, {'long_name': 'United States', 'short_name': 'US', 'types': ['country', 'political']}, {'long_name': '77002', 'short_name': '77002', 'types': ['postal_code']}, {'long_name': '3114', 'short_name': '3114', 'types': ['postal_code_suffix']}], 'formatted_address': '1150 Texas St, Houston, TX 77002, USA', 'geometry': {'location': {'lat': 29.7588655, 'lng': -95.3611744}, 'location_type': 'RANGE_INTERPOLATED', 'viewport': {'northeast': {'lat': 29.7602144802915, 'lng': -95.3598254197085}, 'southwest': {'lat': 29.7575165197085, 'lng': -95.3625233802915}}}, 'place_id': 'EiUxMTUwIFRleGFzIFN0LCBIb3VzdG9uLCBUWCA3NzAwMiwgVVNBIhsSGQoUChIJgWOcGCW_QIYRG7-vbKmYUGgQ_gg', 'types': ['street_address']}]"
2015-03-15 08:00:00,1A10,1200-1299,TRAVIS,Auto Theft,apartment parking lot,1,8,15,Sunday,Mar,2015,1250,1250 TRAVIS,"[{'address_components': [{'long_name': '1250', 'short_name': '1250', 'types': ['street_number']}, {'long_name': 'Travis Street', 'short_name': 'Travis St', 'types': ['route']}, {'long_name': 'Downtown', 'short_name': 'Downtown', 'types': ['neighborhood', 'political']}, {'long_name': 'Houston', 'short_name': 'Houston', 'types': ['locality', 'political']}, {'long_name': 'Harris County', 'short_name': 'Harris County', 'types': ['administrative_area_level_2', 'political']}, {'long_name': 'Texas', 'short_name': 'TX', 'types': ['administrative_area_level_1', 'political']}, {'long_name': 'United States', 'short_name': 'US', 'types': ['country', 'political']}, {'long_name': '77002', 'short_name': '77002', 'types': ['postal_code']}, {'long_name': '6001', 'short_name': '6001', 'types': ['postal_code_suffix']}], 'formatted_address': '1250 Travis St, Houston, TX 77002, USA', 'geometry': {'location': {'lat': 29.7555945, 'lng': -95.36767669999999}, 'location_type': 'RANGE_INTERPOLATED', 'viewport': {'northeast': {'lat': 29.7569434802915, 'lng': -95.36632771970848}, 'southwest': {'lat': 29.7542455197085, 'lng': -95.3690256802915}}}, 'place_id': 'EiYxMjUwIFRyYXZpcyBTdCwgSG91c3RvbiwgVFggNzcwMDIsIFVTQSIbEhkKFAoSCe-AY_g7v0CGEdKmXduT9Zk3EOIJ', 'types': ['street_address']}]"
2015-03-15 11:00:00,1A10,1700-1799,PEASE,Theft,commercial parking lot or garage,1,11,15,Sunday,Mar,2015,1750,1750 PEASE,"[{'address_components': [{'long_name': '1750', 'short_name': '1750', 'types': ['street_number']}, {'long_name': 'Pease Street', 'short_name': 'Pease St', 'types': ['route']}, {'long_name': 'Downtown', 'short_name': 'Downtown', 'types': ['neighborhood', 'political']}, {'long_name': 'Houston', 'short_name': 'Houston', 'types': ['locality', 'political']}, {'long_name': 'Harris County', 'short_name': 'Harris County', 'types': ['administrative_area_level_2', 'political']}, {'long_name': 'Texas', 'short_name': 'TX', 'types': ['administrative_area_level_1', 'political']}, {'long_name': 'United States', 'short_name': 'US', 'types': ['country', 'political']}, {'long_name': '77003', 'short_name': '77003', 'types': ['postal_code']}, {'long_name': '5040', 'short_name': '5040', 'types': ['postal_code_suffix']}], 'formatted_address': '1750 Pease St, Houston, TX 77003, USA', 'geometry': {'location': {'lat': 29.7475072, 'lng': -95.3624806}, 'location_type': 'RANGE_INTERPOLATED', 'viewport': {'northeast': {'lat': 29.7488561802915, 'lng': -95.36113161970849}, 'southwest': {'lat': 29.7461582197085, 'lng': -95.3638295802915}}}, 'place_id': 'EiUxNzUwIFBlYXNlIFN0LCBIb3VzdG9uLCBUWCA3NzAwMywgVVNBIhsSGQoUChIJF2kLiBe_QIYRW2IF72tkvFQQ1g0', 'types': ['street_address']}]"
2015-03-15 11:00:00,1A10,900-999,COMMERCE,Theft,road/street/sidewalk,1,11,15,Sunday,Mar,2015,950,950 COMMERCE,"[{'address_components': [{'long_name': '950', 'short_name': '950', 'types': ['street_number']}, {'long_name': 'Commerce Street', 'short_name': 'Commerce St', 'types': ['route']}, {'long_name': 'Downtown', 'short_name': 'Downtown', 'types': ['neighborhood', 'political']}, {'long_name': 'Houston', 'short_name': 'Houston', 'types': ['locality', 'political']}, {'long_name': 'Harris County', 'short_name': 'Harris County', 'types': ['administrative_area_level_2', 'political']}, {'long_name': 'Texas', 'short_name': 'TX', 'types': ['administrative_area_level_1', 'political']}, {'long_name': 'United States', 'short_name': 'US', 'types': ['country', 'political']}, {'long_name': '77002', 'short_name': '77002', 'types': ['postal_code']}], 'formatted_address': '950 Commerce St, Houston, TX 77002, USA', 'geometry': {'location': {'lat': 29.7638315, 'lng': -95.36010089999999}, 'location_type': 'RANGE_INTERPOLATED', 'viewport': {'northeast': {'lat': 29.7651804802915, 'lng': -95.35875191970848}, 'southwest': {'lat': 29.7624825197085, 'lng': -95.3614498802915}}}, 'place_id': 'Eic5NTAgQ29tbWVyY2UgU3QsIEhvdXN0b24sIFRYIDc3MDAyLCBVU0EiGxIZChQKEgnN34AHL79AhhHZXOkqzUto5hC2Bw', 'types': ['street_address']}]"
2015-03-15 12:00:00,1A10,1200-1299,TRAVIS,Theft,other parking lot,1,12,15,Sunday,Mar,2015,1250,1250 TRAVIS,"[{'address_components': [{'long_name': '1250', 'short_name': '1250', 'types': ['street_number']}, {'long_name': 'Travis Street', 'short_name': 'Travis St', 'types': ['route']}, {'long_name': 'Downtown', 'short_name': 'Downtown', 'types': ['neighborhood', 'political']}, {'long_name': 'Houston', 'short_name': 'Houston', 'types': ['locality', 'political']}, {'long_name': 'Harris County', 'short_name': 'Harris County', 'types': ['administrative_area_level_2', 'political']}, {'long_name': 'Texas', 'short_name': 'TX', 'types': ['administrative_area_level_1', 'political']}, {'long_name': 'United States', 'short_name': 'US', 'types': ['country', 'political']}, {'long_name': '77002', 'short_name': '77002', 'types': ['postal_code']}, {'long_name': '6001', 'short_name': '6001', 'types': ['postal_code_suffix']}], 'formatted_address': '1250 Travis St, Houston, TX 77002, USA', 'geometry': {'location': {'lat': 29.7555945, 'lng': -95.36767669999999}, 'location_type': 'RANGE_INTERPOLATED', 'viewport': {'northeast': {'lat': 29.7569434802915, 'lng': -95.36632771970848}, 'southwest': {'lat': 29.7542455197085, 'lng': -95.3690256802915}}}, 'place_id': 'EiYxMjUwIFRyYXZpcyBTdCwgSG91c3RvbiwgVFggNzcwMDIsIFVTQSIbEhkKFAoSCe-AY_g7v0CGEdKmXduT9Zk3EOIJ', 'types': ['street_address']}]"
2015-03-15 15:00:00,1A10,900-999,TEXAS,Theft,restaurant or cafeteria,1,15,15,Sunday,Mar,2015,950,950 TEXAS,"[{'address_components': [{'long_name': '950', 'short_name': '950', 'types': ['street_number']}, {'long_name': 'Texas Street', 'short_name': 'Texas St', 'types': ['route']}, {'long_name': 'Downtown', 'short_name': 'Downtown', 'types': ['neighborhood', 'political']}, {'long_name': 'Houston', 'short_name': 'Houston', 'types': ['locality', 'political']}, {'long_name': 'Harris County', 'short_name': 'Harris County', 'types': ['administrative_area_level_2', 'political']}, {'long_name': 'Texas', 'short_name': 'TX', 'types': ['administrative_area_level_1', 'political']}, {'long_name': 'United States', 'short_name': 'US', 'types': ['country', 'political']}, {'long_name': '77002', 'short_name': '77002', 'types': ['postal_code']}], 'formatted_address': '950 Texas St, Houston, TX 77002, USA', 'geometry': {'location': {'lat': 29.7597593, 'lng': -95.3630249}, 'location_type': 'RANGE_INTERPOLATED', 'viewport': {'northeast': {'lat': 29.7611082802915, 'lng': -95.36167591970849}, 'southwest': {'lat': 29.7584103197085, 'lng': -95.36437388029151}}}, 'place_id': 'EiQ5NTAgVGV4YXMgU3QsIEhvdXN0b24sIFRYIDc3MDAyLCBVU0EiGxIZChQKEglpCEK2Or9AhhFMGhZiJceC-BC2Bw', 'types': ['street_address']}]"
2015-03-15 17:00:00,1A10,900-999,SAN JACINTO,Theft,other parking lot,1,17,15,Sunday,Mar,2015,950,950 SAN JACINTO,"[{'address_components': [{'long_name': '950', 'short_name': '950', 'types': ['street_number']}, {'long_name': 'San Jacinto Street', 'short_name': 'San Jacinto St', 'types': ['route']}, {'long_name': 'Downtown', 'short_name': 'Downtown', 'types': ['neighborhood', 'political']}, {'long_name': 'Houston', 'short_name': 'Houston', 'types': ['locality', 'political']}, {'long_name': 'Harris County', 'short_name': 'Harris County', 'types': ['administrative_area_level_2', 'political']}, {'long_name': 'Texas', 'short_name': 'TX', 'types': ['administrative_area_level_1', 'political']}, {'long_name': 'United States', 'short_name': 'US', 'types': ['country', 'political']}, {'long_name': '77010', 'short_name': '77010', 'types': ['postal_code']}], 'formatted_address': '950 San Jacinto St, Houston, TX 77010, USA', 'geometry': {'location': {'lat': 29.7563151, 'lng': -95.3629629}, 'location_type': 'RANGE_INTERPOLATED', 'viewport': {'northeast': {'lat': 29.7576640802915, 'lng': -95.36161391970849}, 'southwest': {'lat': 29.7549661197085, 'lng': -95.36431188029151}}}, 'place_id': 'Eio5NTAgU2FuIEphY2ludG8gU3QsIEhvdXN0b24sIFRYIDc3MDEwLCBVU0EiGxIZChQKEgndXn9RO79AhhFsAQ0p6frwEhC2Bw', 'types': ['street_address']}]"
2015-03-15 18:00:00,1A10,900-999,SAN JACINTO,Theft,commercial parking lot or garage,1,18,15,Sunday,Mar,2015,950,950 SAN JACINTO,"[{'address_components': [{'long_name': '950', 'short_name': '950', 'types': ['street_number']}, {'long_name': 'San Jacinto Street', 'short_name': 'San Jacinto St', 'types': ['route']}, {'long_name': 'Downtown', 'short_name': 'Downtown', 'types': ['neighborhood', 'political']}, {'long_name': 'Houston', 'short_name': 'Houston', 'types': ['locality', 'political']}, {'long_name': 'Harris County', 'short_name': 'Harris County', 'types': ['administrative_area_level_2', 'political']}, {'long_name': 'Texas', 'short_name': 'TX', 'types': ['administrative_area_level_1', 'political']}, {'long_name': 'United States', 'short_name': 'US', 'types': ['country', 'political']}, {'long_name': '77010', 'short_name': '77010', 'types': ['postal_code']}], 'formatted_address': '950 San Jacinto St, Houston, TX 77010, USA', 'geometry': {'location': {'lat': 29.7563151, 'lng': -95.3629629}, 'location_type': 'RANGE_INTERPOLATED', 'viewport': {'northeast': {'lat': 29.7576640802915, 'lng': -95.36161391970849}, 'southwest': {'lat': 29.7549661197085, 'lng': -95.36431188029151}}}, 'place_id': 'Eio5NTAgU2FuIEphY2ludG8gU3QsIEhvdXN0b24sIFRYIDc3MDEwLCBVU0EiGxIZChQKEgndXn9RO79AhhFsAQ0p6frwEhC2Bw', 'types': ['street_address']}]"
2015-03-15 18:00:00,1A10,1000-1099,TEXAS,Aggravated Assault,other parking lot,1,18,15,Sunday,Mar,2015,1050,1050 TEXAS,"[{'address_components': [{'long_name': '1050', 'short_name': '1050', 'types': ['street_number']}, {'long_name': 'Texas Street', 'short_name': 'Texas St', 'types': ['route']}, {'long_name': 'Downtown', 'short_name': 'Downtown', 'types': ['neighborhood', 'political']}, {'long_name': 'Houston', 'short_name': 'Houston', 'types': ['locality', 'political']}, {'long_name': 'Harris County', 'short_name': 'Harris County', 'types': ['administrative_area_level_2', 'political']}, {'long_name': 'Texas', 'short_name': 'TX', 'types': ['administrative_area_level_1', 'political']}, {'long_name': 'United States', 'short_name': 'US', 'types': ['country', 'political']}, {'long_name': '77002', 'short_name': '77002', 'types': ['postal_code']}], 'formatted_address': '1050 Texas St, Houston, TX 77002, USA', 'geometry': {'location': {'lat': 29.7593245, 'lng': -95.36218149999999}, 'location_type': 'RANGE_INTERPOLATED', 'viewport': {'northeast': {'lat': 29.7606734802915, 'lng': -95.3608325197085}, 'southwest': {'lat': 29.7579755197085, 'lng': -95.3635304802915}}}, 'place_id': 'EiUxMDUwIFRleGFzIFN0LCBIb3VzdG9uLCBUWCA3NzAwMiwgVVNBIhsSGQoUChIJGZQgMSW_QIYRj66RgjCu7u8Qmgg', 'types': ['street_address']}]"
2015-03-15 19:00:00,1A10,900-999,SAN JACINTO,Theft,commercial parking lot or garage,1,19,15,Sunday,Mar,2015,950,950 SAN JACINTO,"[{'address_components': [{'long_name': '950', 'short_name': '950', 'types': ['street_number']}, {'long_name': 'San Jacinto Street', 'short_name': 'San Jacinto St', 'types': ['route']}, {'long_name': 'Downtown', 'short_name': 'Downtown', 'types': ['neighborhood', 'political']}, {'long_name': 'Houston', 'short_name': 'Houston', 'types': ['locality', 'political']}, {'long_name': 'Harris County', 'short_name': 'Harris County', 'types': ['administrative_area_level_2', 'political']}, {'long_name': 'Texas', 'short_name': 'TX', 'types': ['administrative_area_level_1', 'political']}, {'long_name': 'United States', 'short_name': 'US', 'types': ['country', 'political']}, {'long_name': '77010', 'short_name': '77010', 'types': ['postal_code']}], 'formatted_address': '950 San Jacinto St, Houston, TX 77010, USA', 'geometry': {'location': {'lat': 29.7563151, 'lng': -95.3629629}, 'location_type': 'RANGE_INTERPOLATED', 'viewport': {'northeast': {'lat': 29.7576640802915, 'lng': -95.36161391970849}, 'southwest': {'lat': 29.7549661197085, 'lng': -95.36431188029151}}}, 'place_id': 'Eio5NTAgU2FuIEphY2ludG8gU3QsIEhvdXN0b24sIFRYIDc3MDEwLCBVU0EiGxIZChQKEgndXn9RO79AhhFsAQ0p6frwEhC2Bw', 'types': ['street_address']}]"
2015-03-15 21:00:00,1A10,1300-1399,JACKSON,Theft,no label,1,21,15,Sunday,Mar,2015,1350,1350 JACKSON,"[{'address_components': [{'long_name': '1350', 'short_name': '1350', 'types': ['street_number']}, {'long_name': 'Jackson Street', 'short_name': 'Jackson St', 'types': ['route']}, {'long_name': 'Downtown', 'short_name': 'Downtown', 'types': ['neighborhood', 'political']}, {'long_name': 'Houston', 'short_name': 'Houston', 'types': ['locality', 'political']}, {'long_name': 'Harris County', 'short_name': 'Harris County', 'types': ['administrative_area_level_2', 'political']}, {'long_name': 'Texas', 'short_name': 'TX', 'types': ['administrative_area_level_1', 'political']}, {'long_name': 'United States', 'short_name': 'US', 'types': ['country', 'political']}, {'long_name': '77003', 'short_name': '77003', 'types': ['postal_code']}], 'formatted_address': '1350 Jackson St, Houston, TX 77003, USA', 'geometry': {'location': {'lat': 29.7508782, 'lng': -95.3612952}, 'location_type': 'RANGE_INTERPOLATED', 'viewport': {'northeast': {'lat': 29.7522271802915, 'lng': -95.35994621970849}, 'southwest': {'lat': 29.7495292197085, 'lng': -95.36264418029151}}}, 'place_id': 'EicxMzUwIEphY2tzb24gU3QsIEhvdXN0b24sIFRYIDc3MDAzLCBVU0EiGxIZChQKEgknZ-mZIr9AhhEBGJI3BYI5qRDGCg', 'types': ['street_address']}]"
2015-03-15 23:00:00,1A10,1200-1299,AUSTIN,Theft,other parking lot,1,23,15,Sunday,Mar,2015,1250,1250 AUSTIN,"[{'address_components': [{'long_name': '1250', 'short_name': '1250', 'types': ['street_number']}, {'long_name': 'Austin Street', 'short_name': 'Austin St', 'types': ['route']}, {'long_name': 'Central Business District', 'short_name': 'Central Business District', 'types': ['neighborhood', 'political']}, {'long_name': 'Houston', 'short_name': 'Houston', 'types': ['locality', 'political']}, {'long_name': 'Harris County', 'short_name': 'Harris County', 'types': ['administrative_area_level_2', 'political']}, {'long_name': 'Texas', 'short_name': 'TX', 'types': ['administrative_area_level_1', 'political']}, {'long_name': 'United States', 'short_name': 'US', 'types': ['country', 'political']}, {'long_name': '77002', 'short_name': '77002', 'types': ['postal_code']}], 'formatted_address': '1250 Austin St, Houston, TX 77002, USA', 'geometry': {'location': {'lat': 29.7531931, 'lng': -95.3632576}, 'location_type': 'ROOFTOP', 'viewport': {'northeast': {'lat': 29.7545420802915, 'lng': -95.3619086197085}, 'southwest': {'lat': 29.7518441197085, 'lng': -95.36460658029151}}}, 'place_id': 'ChIJo1X22Ty_QIYRJneLfKNqpj4', 'types': ['street_address']}]"
2015-03-15 23:00:00,1A10,1200-1299,AUSTIN,Theft,commercial parking lot or garage,1,23,15,Sunday,Mar,2015,1250,1250 AUSTIN,"[{'address_components': [{'long_name': '1250', 'short_name': '1250', 'types': ['street_number']}, {'long_name': 'Austin Street', 'short_name': 'Austin St', 'types': ['route']}, {'long_name': 'Central Business District', 'short_name': 'Central Business District', 'types': ['neighborhood', 'political']}, {'long_name': 'Houston', 'short_name': 'Houston', 'types': ['locality', 'political']}, {'long_name': 'Harris County', 'short_name': 'Harris County', 'types': ['administrative_area_level_2', 'political']}, {'long_name': 'Texas', 'short_name': 'TX', 'types': ['administrative_area_level_1', 'political']}, {'long_name': 'United States', 'short_name': 'US', 'types': ['country', 'political']}, {'long_name': '77002', 'short_name': '77002', 'types': ['postal_code']}], 'formatted_address': '1250 Austin St, Houston, TX 77002, USA', 'geometry': {'location': {'lat': 29.7531931, 'lng': -95.3632576}, 'location_type': 'ROOFTOP', 'viewport': {'northeast': {'lat': 29.7545420802915, 'lng': -95.3619086197085}, 'southwest': {'lat': 29.7518441197085, 'lng': -95.36460658029151}}}, 'place_id': 'ChIJo1X22Ty_QIYRJneLfKNqpj4', 'types': ['street_address']}]"
2015-03-16 04:00:00,1A10,900-999,MAIN,Theft,road/street/sidewalk,1,4,16,Monday,Mar,2015,950,950 MAIN,"[{'address_components': [{'long_name': '950', 'short_name': '950', 'types': ['street_number']}, {'long_name': 'South Main Street', 'short_name': 'S Main St', 'types': ['route']}, {'long_name': 'Downtown', 'short_name': 'Downtown', 'types': ['neighborhood', 'political']}, {'long_name': 'Houston', 'short_name': 'Houston', 'types': ['locality', 'political']}, {'long_name': 'Harris County', 'short_name': 'Harris County', 'types': ['administrative_area_level_2', 'political']}, {'long_name': 'Texas', 'short_name': 'TX', 'types': ['administrative_area_level_1', 'political']}, {'long_name': 'United States', 'short_name': 'US', 'types': ['country', 'political']}, {'long_name': '77002', 'short_name': '77002', 'types': ['postal_code']}], 'formatted_address': '950 S Main St, Houston, TX 77002, USA', 'geometry': {'location': {'lat': 29.7574534, 'lng': -95.3648366}, 'location_type': 'RANGE_INTERPOLATED', 'viewport': {'northeast': {'lat': 29.7588023802915, 'lng': -95.36348761970851}, 'southwest': {'lat': 29.7561044197085, 'lng': -95.36618558029151}}}, 'place_id': 'EiU5NTAgUyBNYWluIFN0LCBIb3VzdG9uLCBUWCA3NzAwMiwgVVNBIhsSGQoUChIJ6S-hDTu_QIYRWoC7w-STXScQtgc', 'types': ['street_address']}]"
2015-03-16 06:00:00,1A10,1200-1299,RUSK,Theft,road/street/sidewalk,1,6,16,Monday,Mar,2015,1250,1250 RUSK,"[{'address_components': [{'long_name': '1250', 'short_name': '1250', 'types': ['street_number']}, {'long_name': 'Rusk Street', 'short_name': 'Rusk St', 'types': ['route']}, {'long_name': 'Downtown', 'short_name': 'Downtown', 'types': ['neighborhood', 'political']}, {'long_name': 'Houston', 'short_name': 'Houston', 'types': ['locality', 'political']}, {'long_name': 'Harris County', 'short_name': 'Harris County', 'types': ['administrative_area_level_2', 'political']}, {'long_name': 'Texas', 'short_name': 'TX', 'types': ['administrative_area_level_1', 'political']}, {'long_name': 'United States', 'short_name': 'US', 'types': ['country', 'political']}, {'long_name': '77002', 'short_name': '77002', 'types': ['postal_code']}], 'formatted_address': '1250 Rusk St, Houston, TX 77002, USA', 'geometry': {'location': {'lat': 29.7571353, 'lng': -95.3615507}, 'location_type': 'RANGE_INTERPOLATED', 'viewport': {'northeast': {'lat': 29.7584842802915, 'lng': -95.36020171970848}, 'southwest': {'lat': 29.7557863197085, 'lng': -95.36289968029149}}}, 'place_id': 'EiQxMjUwIFJ1c2sgU3QsIEhvdXN0b24sIFRYIDc3MDAyLCBVU0EiGxIZChQKEgnBho_HJL9AhhFAREoptFbbsBDiCQ', 'types': ['street_address']}]"
2015-03-16 13:00:00,1A10,800-899,TRAVIS,Theft,bus stop,1,13,16,Monday,Mar,2015,850,850 TRAVIS,"[{'address_components': [{'long_name': '850', 'short_name': '850', 'types': ['street_number']}, {'long_name': 'Travis Street', 'short_name': 'Travis St', 'types': ['route']}, {'long_name': 'Downtown', 'short_name': 'Downtown', 'types': ['neighborhood', 'political']}, {'long_name': 'Houston', 'short_name': 'Houston', 'types': ['locality', 'political']}, {'long_name': 'Harris County', 'short_name': 'Harris County', 'types': ['administrative_area_level_2', 'political']}, {'long_name': 'Texas', 'short_name': 'TX', 'types': ['administrative_area_level_1', 'political']}, {'long_name': 'United States', 'short_name': 'US', 'types': ['country', 'political']}, {'long_name': '77002', 'short_name': '77002', 'types': ['postal_code']}], 'formatted_address': '850 Travis St, Houston, TX 77002, USA', 'geometry': {'location': {'lat': 29.75851279999999, 'lng': -95.365254}, 'location_type': 'RANGE_INTERPOLATED', 'viewport': {'northeast': {'lat': 29.75986178029149, 'lng': -95.3639050197085}, 'southwest': {'lat': 29.7571638197085, 'lng': -95.3666029802915}}}, 'place_id': 'EiU4NTAgVHJhdmlzIFN0LCBIb3VzdG9uLCBUWCA3NzAwMiwgVVNBIhsSGQoUChIJD5Ek_jq_QIYR8-baRK4L3_QQ0gY', 'types': ['street_address']}]"
2015-03-17 07:00:00,1A10,300-399,MAIN,Theft,bar or night club,1,7,17,Tuesday,Mar,2015,350,350 MAIN,"[{'address_components': [{'long_name': '350', 'short_name': '350', 'types': ['street_number']}, {'long_name': 'South Main Street', 'short_name': 'S Main St', 'types': ['route']}, {'long_name': 'Downtown', 'short_name': 'Downtown', 'types': ['neighborhood', 'political']}, {'long_name': 'Houston', 'short_name': 'Houston', 'types': ['locality', 'political']}, {'long_name': 'Harris County', 'short_name': 'Harris County', 'types': ['administrative_area_level_2', 'political']}, {'long_name': 'Texas', 'short_name': 'TX', 'types': ['administrative_area_level_1', 'political']}, {'long_name': 'United States', 'short_name': 'US', 'types': ['country', 'political']}, {'long_name': '77002', 'short_name': '77002', 'types': ['postal_code']}], 'formatted_address': '350 S Main St, Houston, TX 77002, USA', 'geometry': {'location': {'lat': 29.7617268, 'lng': -95.36146839999999}, 'location_type': 'RANGE_INTERPOLATED', 'viewport': {'northeast': {'lat': 29.7630757802915, 'lng': -95.36011941970848}, 'southwest': {'lat': 29.7603778197085, 'lng': -95.3628173802915}}}, 'place_id': 'EiUzNTAgUyBNYWluIFN0LCBIb3VzdG9uLCBUWCA3NzAwMiwgVVNBIhsSGQoUChIJdQ2Xiy-_QIYRPn4F0YMyVbMQ3gI', 'types': ['street_address']}]"
2015-03-18 00:00:00,1A10,300-399,FANNIN,Theft,road/street/sidewalk,1,0,18,Wednesday,Mar,2015,350,350 FANNIN,"[{'address_components': [{'long_name': '350', 'short_name': '350', 'types': ['street_number']}, {'long_name': 'Fannin Street', 'short_name': 'Fannin St', 'types': ['route']}, {'long_name': 'Downtown', 'short_name': 'Downtown', 'types': ['neighborhood', 'political']}, {'long_name': 'Houston', 'short_name': 'Houston', 'types': ['locality', 'political']}, {'long_name': 'Harris County', 'short_name': 'Harris County', 'types': ['administrative_area_level_2', 'political']}, {'long_name': 'Texas', 'short_name': 'TX', 'types': ['administrative_area_level_1', 'political']}, {'long_name': 'United States', 'short_name': 'US', 'types': ['country', 'political']}, {'long_name': '77002', 'short_name': '77002', 'types': ['postal_code']}], 'formatted_address': '350 Fannin St, Houston, TX 77002, USA', 'geometry': {'location': {'lat': 29.7614061, 'lng': -95.3604288}, 'location_type': 'RANGE_INTERPOLATED', 'viewport': {'northeast': {'lat': 29.7627550802915, 'lng': -95.35907981970848}, 'southwest': {'lat': 29.7600571197085, 'lng': -95.3617777802915}}}, 'place_id': 'EiUzNTAgRmFubmluIFN0LCBIb3VzdG9uLCBUWCA3NzAwMiwgVVNBIhsSGQoUChIJpdXCfiW_QIYRTub48JvXFucQ3gI', 'types': ['street_address']}]"
2015-03-18 04:00:00,1A10,1500-1599,PEASE,Theft,road/street/sidewalk,1,4,18,Wednesday,Mar,2015,1550,1550 PEASE,"[{'address_components': [{'long_name': '1550', 'short_name': '1550', 'types': ['street_number']}, {'long_name': 'Pease Street', 'short_name': 'Pease St', 'types': ['route']}, {'long_name': 'Downtown', 'short_name': 'Downtown', 'types': ['neighborhood', 'political']}, {'long_name': 'Houston', 'short_name': 'Houston', 'types': ['locality', 'political']}, {'long_name': 'Harris County', 'short_name': 'Harris County', 'types': ['administrative_area_level_2', 'political']}, {'long_name': 'Texas', 'short_name': 'TX', 'types': ['administrative_area_level_1', 'political']}, {'long_name': 'United States', 'short_name': 'US', 'types': ['country', 'political']}, {'long_name': '77002', 'short_name': '77002', 'types': ['postal_code']}], 'formatted_address': '1550 Pease St, Houston, TX 77002, USA', 'geometry': {'location': {'lat': 29.748455, 'lng': -95.36446839999999}, 'location_type': 'RANGE_INTERPOLATED', 'viewport': {'northeast': {'lat': 29.7498039802915, 'lng': -95.3631194197085}, 'southwest': {'lat': 29.7471060197085, 'lng': -95.3658173802915}}}, 'place_id': 'EiUxNTUwIFBlYXNlIFN0LCBIb3VzdG9uLCBUWCA3NzAwMiwgVVNBIhsSGQoUChIJ8_sxxBe_QIYRGwHe50qaDiQQjgw', 'types': ['street_address']}]"
2015-03-18 16:00:00,1A10,1300-1399,CLAY,Theft,other parking lot,1,16,18,Wednesday,Mar,2015,1350,1350 CLAY,"[{'address_components': [{'long_name': '1350', 'short_name': '1350', 'types': ['street_number']}, {'long_name': 'Clay Street', 'short_name': 'Clay St', 'types': ['route']}, {'long_name': 'Downtown', 'short_name': 'Downtown', 'types': ['neighborhood', 'political']}, {'long_name': 'Houston', 'short_name': 'Houston', 'types': ['locality', 'political']}, {'long_name': 'Harris County', 'short_name': 'Harris County', 'types': ['administrative_area_level_2', 'political']}, {'long_name': 'Texas', 'short_name': 'TX', 'types': ['administrative_area_level_1', 'political']}, {'long_name': 'United States', 'short_name': 'US', 'types': ['country', 'political']}, {'long_name': '77002', 'short_name': '77002', 'types': ['postal_code']}, {'long_name': '7102', 'short_name': '7102', 'types': ['postal_code_suffix']}], 'formatted_address': '1350 Clay St, Houston, TX 77002, USA', 'geometry': {'location': {'lat': 29.7521241, 'lng': -95.36424149999999}, 'location_type': 'RANGE_INTERPOLATED', 'viewport': {'northeast': {'lat': 29.7534730802915, 'lng': -95.36289251970848}, 'southwest': {'lat': 29.7507751197085, 'lng': -95.36559048029149}}}, 'place_id': 'EiQxMzUwIENsYXkgU3QsIEhvdXN0b24sIFRYIDc3MDAyLCBVU0EiGxIZChQKEglJAXIXPb9AhhGTSbutKwgDeBDGCg', 'types': ['street_address']}]"
2015-03-19 01:00:00,1A10,900-999,COMMERCE,Theft,restaurant/cafeteria parking lot,1,1,19,Thursday,Mar,2015,950,950 COMMERCE,"[{'address_components': [{'long_name': '950', 'short_name': '950', 'types': ['street_number']}, {'long_name': 'Commerce Street', 'short_name': 'Commerce St', 'types': ['route']}, {'long_name': 'Downtown', 'short_name': 'Downtown', 'types': ['neighborhood', 'political']}, {'long_name': 'Houston', 'short_name': 'Houston', 'types': ['locality', 'political']}, {'long_name': 'Harris County', 'short_name': 'Harris County', 'types': ['administrative_area_level_2', 'political']}, {'long_name': 'Texas', 'short_name': 'TX', 'types': ['administrative_area_level_1', 'political']}, {'long_name': 'United States', 'short_name': 'US', 'types': ['country', 'political']}, {'long_name': '77002', 'short_name': '77002', 'types': ['postal_code']}], 'formatted_address': '950 Commerce St, Houston, TX 77002, USA', 'geometry': {'location': {'lat': 29.7638315, 'lng': -95.36010089999999}, 'location_type': 'RANGE_INTERPOLATED', 'viewport': {'northeast': {'lat': 29.7651804802915, 'lng': -95.35875191970848}, 'southwest': {'lat': 29.7624825197085, 'lng': -95.3614498802915}}}, 'place_id': 'Eic5NTAgQ29tbWVyY2UgU3QsIEhvdXN0b24sIFRYIDc3MDAyLCBVU0EiGxIZChQKEgnN34AHL79AhhHZXOkqzUto5hC2Bw', 'types': ['street_address']}]"
2015-03-19 12:00:00,1A10,1900-1999,MAIN,Aggravated Assault,government or public building,2,12,19,Thursday,Mar,2015,1950,1950 MAIN,"[{'address_components': [{'long_name': '1950', 'short_name': '1950', 'types': ['street_number']}, {'long_name': 'South Main Street', 'short_name': 'S Main St', 'types': ['route']}, {'long_name': 'Downtown', 'short_name': 'Downtown', 'types': ['neighborhood', 'political']}, {'long_name': 'Houston', 'short_name': 'Houston', 'types': ['locality', 'political']}, {'long_name': 'Harris County', 'short_name': 'Harris County', 'types': ['administrative_area_level_2', 'political']}, {'long_name': 'Texas', 'short_name': 'TX', 'types': ['administrative_area_level_1', 'political']}, {'long_name': 'United States', 'short_name': 'US', 'types': ['country', 'political']}, {'long_name': '77002', 'short_name': '77002', 'types': ['postal_code']}, {'long_name': '8130', 'short_name': '8130', 'types': ['postal_code_suffix']}], 'formatted_address': '1950 S Main St, Houston, TX 77002, USA', 'geometry': {'location': {'lat': 29.7498302, 'lng': -95.37093560000001}, 'location_type': 'RANGE_INTERPOLATED', 'viewport': {'northeast': {'lat': 29.7511791802915, 'lng': -95.36958661970851}, 'southwest': {'lat': 29.7484812197085, 'lng': -95.37228458029152}}}, 'place_id': 'EiYxOTUwIFMgTWFpbiBTdCwgSG91c3RvbiwgVFggNzcwMDIsIFVTQSIbEhkKFAoSCbmeYNQ_v0CGEXpcIZ9lgRQIEJ4P', 'types': ['street_address']}]"
2015-03-19 19:00:00,1A10,1500-1599,ST JOSEPH,Theft,apartment,1,19,19,Thursday,Mar,2015,1550,1550 ST JOSEPH,"[{'address_components': [{'long_name': '1550', 'short_name': '1550', 'types': ['street_number']}, {'long_name': 'Saint Joseph Parkway', 'short_name': 'St Joseph Pkwy', 'types': ['route']}, {'long_name': 'Downtown', 'short_name': 'Downtown', 'types': ['neighborhood', 'political']}, {'long_name': 'Houston', 'short_name': 'Houston', 'types': ['locality', 'political']}, {'long_name': 'Harris County', 'short_name': 'Harris County', 'types': ['administrative_area_level_2', 'political']}, {'long_name': 'Texas', 'short_name': 'TX', 'types': ['administrative_area_level_1', 'political']}, {'long_name': 'United States', 'short_name': 'US', 'types': ['country', 'political']}, {'long_name': '77002', 'short_name': '77002', 'types': ['postal_code']}], 'formatted_address': '1550 St Joseph Pkwy, Houston, TX 77002, USA', 'geometry': {'location': {'lat': 29.7473566, 'lng': -95.3655204}, 'location_type': 'RANGE_INTERPOLATED', 'viewport': {'northeast': {'lat': 29.7487055802915, 'lng': -95.36417141970848}, 'southwest': {'lat': 29.7460076197085, 'lng': -95.3668693802915}}}, 'place_id': 'EisxNTUwIFN0IEpvc2VwaCBQa3d5LCBIb3VzdG9uLCBUWCA3NzAwMiwgVVNBIhsSGQoUChIJaThXURa_QIYRu-OEE7zy6QsQjgw', 'types': ['street_address']}]"
2015-03-19 19:00:00,1A10,400-499,FRANKLIN,Theft,"parks and recreation, zoo, swimming pool",1,19,19,Thursday,Mar,2015,450,450 FRANKLIN,"[{'address_components': [{'long_name': '450', 'short_name': '450', 'types': ['street_number']}, {'long_name': 'Franklin Street', 'short_name': 'Franklin St', 'types': ['route']}, {'long_name': 'Downtown', 'short_name': 'Downtown', 'types': ['neighborhood', 'political']}, {'long_name': 'Houston', 'short_name': 'Houston', 'types': ['locality', 'political']}, {'long_name': 'Harris County', 'short_name': 'Harris County', 'types': ['administrative_area_level_2', 'political']}, {'long_name': 'Texas', 'short_name': 'TX', 'types': ['administrative_area_level_1', 'political']}, {'long_name': 'United States', 'short_name': 'US', 'types': ['country', 'political']}, {'long_name': '77002', 'short_name': '77002', 'types': ['postal_code']}], 'formatted_address': '450 Franklin St, Houston, TX 77002, USA', 'geometry': {'location': {'lat': 29.76522749999999, 'lng': -95.3658083}, 'location_type': 'RANGE_INTERPOLATED', 'viewport': {'northeast': {'lat': 29.76657648029149, 'lng': -95.3644593197085}, 'southwest': {'lat': 29.7638785197085, 'lng': -95.36715728029151}}}, 'place_id': 'Eic0NTAgRnJhbmtsaW4gU3QsIEhvdXN0b24sIFRYIDc3MDAyLCBVU0EiGxIZChQKEgkxrE0OMb9AhhFeHKjrrjLZahDCAw', 'types': ['street_address']}]"
2015-03-19 22:00:00,1A10,500-599,TEXAS,Theft,restaurant or cafeteria,1,22,19,Thursday,Mar,2015,550,550 TEXAS,"[{'address_components': [{'long_name': '550', 'short_name': '550', 'types': ['street_number']}, {'long_name': 'Texas Street', 'short_name': 'Texas St', 'types': ['route']}, {'long_name': 'Central Business District', 'short_name': 'Central Business District', 'types': ['neighborhood', 'political']}, {'long_name': 'Houston', 'short_name': 'Houston', 'types': ['locality', 'political']}, {'long_name': 'Harris County', 'short_name': 'Harris County', 'types': ['administrative_area_level_2', 'political']}, {'long_name': 'Texas', 'short_name': 'TX', 'types': ['administrative_area_level_1', 'political']}, {'long_name': 'United States', 'short_name': 'US', 'types': ['country', 'political']}, {'long_name': '77204', 'short_name': '77204', 'types': ['postal_code']}], 'formatted_address': '550 Texas St, Houston, TX 77204, USA', 'geometry': {'location': {'lat': 29.7619082, 'lng': -95.36662869999999}, 'location_type': 'ROOFTOP', 'viewport': {'northeast': {'lat': 29.76325718029149, 'lng': -95.36527971970848}, 'southwest': {'lat': 29.7605592197085, 'lng': -95.3679776802915}}}, 'place_id': 'ChIJIX-spDC_QIYRBnjyhOM3nXA', 'types': ['street_address']}]"
2015-03-20 01:00:00,1A10,1000-1099,PRESTON,Theft,road/street/sidewalk,1,1,20,Friday,Mar,2015,1050,1050 PRESTON,"[{'address_components': [{'long_name': '1050', 'short_name': '1050', 'types': ['street_number']}, {'long_name': 'Preston Street', 'short_name': 'Preston St', 'types': ['route']}, {'long_name': 'Downtown', 'short_name': 'Downtown', 'types': ['neighborhood', 'political']}, {'long_name': 'Houston', 'short_name': 'Houston', 'types': ['locality', 'political']}, {'long_name': 'Harris County', 'short_name': 'Harris County', 'types': ['administrative_area_level_2', 'political']}, {'long_name': 'Texas', 'short_name': 'TX', 'types': ['administrative_area_level_1', 'political']}, {'long_name': 'United States', 'short_name': 'US', 'types': ['country', 'political']}, {'long_name': '77002', 'short_name': '77002', 'types': ['postal_code']}], 'formatted_address': '1050 Preston St, Houston, TX 77002, USA', 'geometry': {'location': {'lat': 29.760989, 'lng': -95.36085639999999}, 'location_type': 'RANGE_INTERPOLATED', 'viewport': {'northeast': {'lat': 29.7623379802915, 'lng': -95.35950741970848}, 'southwest': {'lat': 29.7596400197085, 'lng': -95.3622053802915}}}, 'place_id': 'EicxMDUwIFByZXN0b24gU3QsIEhvdXN0b24sIFRYIDc3MDAyLCBVU0EiGxIZChQKEglvPN1kJb9AhhGn8iWoUs_eqhCaCA', 'types': ['street_address']}]"
2015-03-20 11:00:00,1A10,300-399,MAIN,Theft,bar or night club,1,11,20,Friday,Mar,2015,350,350 MAIN,"[{'address_components': [{'long_name': '350', 'short_name': '350', 'types': ['street_number']}, {'long_name': 'South Main Street', 'short_name': 'S Main St', 'types': ['route']}, {'long_name': 'Downtown', 'short_name': 'Downtown', 'types': ['neighborhood', 'political']}, {'long_name': 'Houston', 'short_name': 'Houston', 'types': ['locality', 'political']}, {'long_name': 'Harris County', 'short_name': 'Harris County', 'types': ['administrative_area_level_2', 'political']}, {'long_name': 'Texas', 'short_name': 'TX', 'types': ['administrative_area_level_1', 'political']}, {'long_name': 'United States', 'short_name': 'US', 'types': ['country', 'political']}, {'long_name': '77002', 'short_name': '77002', 'types': ['postal_code']}], 'formatted_address': '350 S Main St, Houston, TX 77002, USA', 'geometry': {'location': {'lat': 29.7617268, 'lng': -95.36146839999999}, 'location_type': 'RANGE_INTERPOLATED', 'viewport': {'northeast': {'lat': 29.7630757802915, 'lng': -95.36011941970848}, 'southwest': {'lat': 29.7603778197085, 'lng': -95.3628173802915}}}, 'place_id': 'EiUzNTAgUyBNYWluIFN0LCBIb3VzdG9uLCBUWCA3NzAwMiwgVVNBIhsSGQoUChIJdQ2Xiy-_QIYRPn4F0YMyVbMQ3gI', 'types': ['street_address']}]"
2015-03-21 05:00:00,1A10,800-899,COMMERCE,Theft,strip business center parking lot,1,5,21,Saturday,Mar,2015,850,850 COMMERCE,"[{'address_components': [{'long_name': '850', 'short_name': '850', 'types': ['street_number']}, {'long_name': 'Commerce Street', 'short_name': 'Commerce St', 'types': ['route']}, {'long_name': 'Downtown', 'short_name': 'Downtown', 'types': ['neighborhood', 'political']}, {'long_name': 'Houston', 'short_name': 'Houston', 'types': ['locality', 'political']}, {'long_name': 'Harris County', 'short_name': 'Harris County', 'types': ['administrative_area_level_2', 'political']}, {'long_name': 'Texas', 'short_name': 'TX', 'types': ['administrative_area_level_1', 'political']}, {'long_name': 'United States', 'short_name': 'US', 'types': ['country', 'political']}, {'long_name': '77002', 'short_name': '77002', 'types': ['postal_code']}, {'long_name': '1707', 'short_name': '1707', 'types': ['postal_code_suffix']}], 'formatted_address': '850 Commerce St, Houston, TX 77002, USA', 'geometry': {'location': {'lat': 29.7643001, 'lng': -95.3607301}, 'location_type': 'RANGE_INTERPOLATED', 'viewport': {'northeast': {'lat': 29.7656490802915, 'lng': -95.35938111970849}, 'southwest': {'lat': 29.7629511197085, 'lng': -95.3620790802915}}}, 'place_id': 'Eic4NTAgQ29tbWVyY2UgU3QsIEhvdXN0b24sIFRYIDc3MDAyLCBVU0EiGxIZChQKEgmHzCWzL79AhhEenAu0qyv_vBDSBg', 'types': ['street_address']}]"
2015-03-21 06:00:00,1A10,1800-1899,RUIZ,Theft,miscellaneous business (non-specific),1,6,21,Saturday,Mar,2015,1850,1850 RUIZ,"[{'address_components': [{'long_name': '1850', 'short_name': '1850', 'types': ['street_number']}, {'long_name': 'Ruiz Street', 'short_name': 'Ruiz St', 'types': ['route']}, {'long_name': 'Downtown', 'short_name': 'Downtown', 'types': ['neighborhood', 'political']}, {'long_name': 'Houston', 'short_name': 'Houston', 'types': ['locality', 'political']}, {'long_name': 'Harris County', 'short_name': 'Harris County', 'types': ['administrative_area_level_2', 'political']}, {'long_name': 'Texas', 'short_name': 'TX', 'types': ['administrative_area_level_1', 'political']}, {'long_name': 'United States', 'short_name': 'US', 'types': ['country', 'political']}, {'long_name': '77002', 'short_name': '77002', 'types': ['postal_code']}], 'formatted_address': '1850 Ruiz St, Houston, TX 77002, USA', 'geometry': {'location': {'lat': 29.7599941, 'lng': -95.3514096}, 'location_type': 'RANGE_INTERPOLATED', 'viewport': {'northeast': {'lat': 29.7613430802915, 'lng': -95.35006061970849}, 'southwest': {'lat': 29.7586451197085, 'lng': -95.3527585802915}}}, 'place_id': 'EiQxODUwIFJ1aXogU3QsIEhvdXN0b24sIFRYIDc3MDAyLCBVU0EiGxIZChQKEgk7X6Zx2L5AhhGQGcg-CbYgWxC6Dg', 'types': ['street_address']}]"
2015-03-21 11:00:00,1A10,1500-1599,TEXAS,Theft,"hotel, motel, inn, etc.",1,11,21,Saturday,Mar,2015,1550,1550 TEXAS,"[{'address_components': [{'long_name': '1550', 'short_name': '1550', 'types': ['street_number']}, {'long_name': 'Texas Street', 'short_name': 'Texas St', 'types': ['route']}, {'long_name': 'Downtown', 'short_name': 'Downtown', 'types': ['neighborhood', 'political']}, {'long_name': 'Houston', 'short_name': 'Houston', 'types': ['locality', 'political']}, {'long_name': 'Harris County', 'short_name': 'Harris County', 'types': ['administrative_area_level_2', 'political']}, {'long_name': 'Texas', 'short_name': 'TX', 'types': ['administrative_area_level_1', 'political']}, {'long_name': 'United States', 'short_name': 'US', 'types': ['country', 'political']}, {'long_name': '77002', 'short_name': '77002', 'types': ['postal_code']}], 'formatted_address': '1550 Texas St, Houston, TX 77002, USA', 'geometry': {'location': {'lat': 29.7567074, 'lng': -95.35772279999999}, 'location_type': 'RANGE_INTERPOLATED', 'viewport': {'northeast': {'lat': 29.7580563802915, 'lng': -95.35637381970848}, 'southwest': {'lat': 29.7553584197085, 'lng': -95.3590717802915}}}, 'place_id': 'EiUxNTUwIFRleGFzIFN0LCBIb3VzdG9uLCBUWCA3NzAwMiwgVVNBIhsSGQoUChIJ-c8JHCS_QIYR8otsLTD_n90Qjgw', 'types': ['street_address']}]"
2015-03-21 15:00:00,1A10,1000-1099,LAMAR,Theft,sexually oriented business parking lot,1,15,21,Saturday,Mar,2015,1050,1050 LAMAR,"[{'address_components': [{'long_name': '1050', 'short_name': '1050', 'types': ['street_number']}, {'long_name': 'Lamar Street', 'short_name': 'Lamar St', 'types': ['route']}, {'long_name': 'Downtown', 'short_name': 'Downtown', 'types': ['neighborhood', 'political']}, {'long_name': 'Houston', 'short_name': 'Houston', 'types': ['locality', 'political']}, {'long_name': 'Harris County', 'short_name': 'Harris County', 'types': ['administrative_area_level_2', 'political']}, {'long_name': 'Texas', 'short_name': 'TX', 'types': ['administrative_area_level_1', 'political']}, {'long_name': 'United States', 'short_name': 'US', 'types': ['country', 'political']}, {'long_name': '77002', 'short_name': '77002', 'types': ['postal_code']}], 'formatted_address': '1050 Lamar St, Houston, TX 77002, USA', 'geometry': {'location': {'lat': 29.7557297, 'lng': -95.3649607}, 'location_type': 'RANGE_INTERPOLATED', 'viewport': {'northeast': {'lat': 29.7570786802915, 'lng': -95.3636117197085}, 'southwest': {'lat': 29.7543807197085, 'lng': -95.36630968029151}}}, 'place_id': 'EiUxMDUwIExhbWFyIFN0LCBIb3VzdG9uLCBUWCA3NzAwMiwgVVNBIhsSGQoUChIJs5I8fzu_QIYRBZOpBWnow-UQmgg', 'types': ['street_address']}]"
2015-03-21 16:00:00,1A10,1000-1099,AVENIDA DE LAS AMERI,Theft,commercial building,1,16,21,Saturday,Mar,2015,1050,1050 AVENIDA DE LAS AMERI,"[{'address_components': [{'long_name': '1050', 'short_name': '1050', 'types': ['street_number']}, {'long_name': 'Avenida De Las Americas', 'short_name': 'Avenida De Las Americas', 'types': ['route']}, {'long_name': 'Downtown', 'short_name': 'Downtown', 'types': ['neighborhood', 'political']}, {'long_name': 'Houston', 'short_name': 'Houston', 'types': ['locality', 'political']}, {'long_name': 'Harris County', 'short_name': 'Harris County', 'types': ['administrative_area_level_2', 'political']}, {'long_name': 'Texas', 'short_name': 'TX', 'types': ['administrative_area_level_1', 'political']}, {'long_name': 'United States', 'short_name': 'US', 'types': ['country', 'political']}, {'long_name': '77010', 'short_name': '77010', 'types': ['postal_code']}], 'formatted_address': '1050 Avenida De Las Americas, Houston, TX 77010, USA', 'geometry': {'location': {'lat': 29.7520152, 'lng': -95.35918099999999}, 'location_type': 'RANGE_INTERPOLATED', 'viewport': {'northeast': {'lat': 29.7533641802915, 'lng': -95.35783201970848}, 'southwest': {'lat': 29.7506662197085, 'lng': -95.36052998029149}}}, 'place_id': 'EjQxMDUwIEF2ZW5pZGEgRGUgTGFzIEFtZXJpY2FzLCBIb3VzdG9uLCBUWCA3NzAxMCwgVVNBIhsSGQoUChIJeb1WQyK_QIYRDjCAfIqMDAcQmgg', 'types': ['street_address']}]"
2015-03-21 17:00:00,1A10,1600-1699,LAMAR,Auto Theft,hotel or motel parking lot,1,17,21,Saturday,Mar,2015,1650,1650 LAMAR,"[{'address_components': [{'long_name': '1650', 'short_name': '1650', 'types': ['street_number']}, {'long_name': 'Lamar Street', 'short_name': 'Lamar St', 'types': ['route']}, {'long_name': 'Downtown', 'short_name': 'Downtown', 'types': ['neighborhood', 'political']}, {'long_name': 'Houston', 'short_name': 'Houston', 'types': ['locality', 'political']}, {'long_name': 'Harris County', 'short_name': 'Harris County', 'types': ['administrative_area_level_2', 'political']}, {'long_name': 'Texas', 'short_name': 'TX', 'types': ['administrative_area_level_1', 'political']}, {'long_name': 'United States', 'short_name': 'US', 'types': ['country', 'political']}, {'long_name': '77010', 'short_name': '77010', 'types': ['postal_code']}], 'formatted_address': '1650 Lamar St, Houston, TX 77010, USA', 'geometry': {'location': {'lat': 29.7522176, 'lng': -95.3604837}, 'location_type': 'RANGE_INTERPOLATED', 'viewport': {'northeast': {'lat': 29.7535665802915, 'lng': -95.3591347197085}, 'southwest': {'lat': 29.7508686197085, 'lng': -95.36183268029151}}}, 'place_id': 'EiUxNjUwIExhbWFyIFN0LCBIb3VzdG9uLCBUWCA3NzAxMCwgVVNBIhsSGQoUChIJtZqJ8CK_QIYRDKRPHQ7LeyoQ8gw', 'types': ['street_address']}]"
2015-03-21 18:00:00,1A10,700-799,SAN JACINTO,Theft,commercial parking lot or garage,1,18,21,Saturday,Mar,2015,750,750 SAN JACINTO,"[{'address_components': [{'long_name': '750', 'short_name': '750', 'types': ['street_number']}, {'long_name': 'San Jacinto Street', 'short_name': 'San Jacinto St', 'types': ['route']}, {'long_name': 'Downtown', 'short_name': 'Downtown', 'types': ['neighborhood', 'political']}, {'long_name': 'Houston', 'short_name': 'Houston', 'types': ['locality', 'political']}, {'long_name': 'Harris County', 'short_name': 'Harris County', 'types': ['administrative_area_level_2', 'political']}, {'long_name': 'Texas', 'short_name': 'TX', 'types': ['administrative_area_level_1', 'political']}, {'long_name': 'United States', 'short_name': 'US', 'types': ['country', 'political']}, {'long_name': '77002', 'short_name': '77002', 'types': ['postal_code']}], 'formatted_address': '750 San Jacinto St, Houston, TX 77002, USA', 'geometry': {'location': {'lat': 29.757785, 'lng': -95.3621323}, 'location_type': 'RANGE_INTERPOLATED', 'viewport': {'northeast': {'lat': 29.7591339802915, 'lng': -95.36078331970849}, 'southwest': {'lat': 29.7564360197085, 'lng': -95.36348128029151}}}, 'place_id': 'Eio3NTAgU2FuIEphY2ludG8gU3QsIEhvdXN0b24sIFRYIDc3MDAyLCBVU0EiGxIZChQKEgnZvFPEJL9AhhGBrPE7EYxZfBDuBQ', 'types': ['street_address']}]"
2015-03-21 21:00:00,1A10,700-799,SAN JACINTO,Theft,commercial parking lot or garage,1,21,21,Saturday,Mar,2015,750,750 SAN JACINTO,"[{'address_components': [{'long_name': '750', 'short_name': '750', 'types': ['street_number']}, {'long_name': 'San Jacinto Street', 'short_name': 'San Jacinto St', 'types': ['route']}, {'long_name': 'Downtown', 'short_name': 'Downtown', 'types': ['neighborhood', 'political']}, {'long_name': 'Houston', 'short_name': 'Houston', 'types': ['locality', 'political']}, {'long_name': 'Harris County', 'short_name': 'Harris County', 'types': ['administrative_area_level_2', 'political']}, {'long_name': 'Texas', 'short_name': 'TX', 'types': ['administrative_area_level_1', 'political']}, {'long_name': 'United States', 'short_name': 'US', 'types': ['country', 'political']}, {'long_name': '77002', 'short_name': '77002', 'types': ['postal_code']}], 'formatted_address': '750 San Jacinto St, Houston, TX 77002, USA', 'geometry': {'location': {'lat': 29.757785, 'lng': -95.3621323}, 'location_type': 'RANGE_INTERPOLATED', 'viewport': {'northeast': {'lat': 29.7591339802915, 'lng': -95.36078331970849}, 'southwest': {'lat': 29.7564360197085, 'lng': -95.36348128029151}}}, 'place_id': 'Eio3NTAgU2FuIEphY2ludG8gU3QsIEhvdXN0b24sIFRYIDc3MDAyLCBVU0EiGxIZChQKEgnZvFPEJL9AhhGBrPE7EYxZfBDuBQ', 'types': ['street_address']}]"
2015-03-22 00:00:00,1A10,1700-1799,MCKINNEY,Theft,road/street/sidewalk,1,0,22,Sunday,Mar,2015,1750,1750 MCKINNEY,"[{'address_components': [{'long_name': '1750', 'short_name': '1750', 'types': ['street_number']}, {'long_name': 'McKinney Street', 'short_name': 'McKinney St', 'types': ['route']}, {'long_name': 'Downtown', 'short_name': 'Downtown', 'types': ['neighborhood', 'political']}, {'long_name': 'Houston', 'short_name': 'Houston', 'types': ['locality', 'political']}, {'long_name': 'Harris County', 'short_name': 'Harris County', 'types': ['administrative_area_level_2', 'political']}, {'long_name': 'Texas', 'short_name': 'TX', 'types': ['administrative_area_level_1', 'political']}, {'long_name': 'United States', 'short_name': 'US', 'types': ['country', 'political']}, {'long_name': '77010', 'short_name': '77010', 'types': ['postal_code']}, {'long_name': '5016', 'short_name': '5016', 'types': ['postal_code_suffix']}], 'formatted_address': '1750 McKinney St, Houston, TX 77010, USA', 'geometry': {'location': {'lat': 29.7542081, 'lng': -95.3586359}, 'location_type': 'RANGE_INTERPOLATED', 'viewport': {'northeast': {'lat': 29.7555570802915, 'lng': -95.3572869197085}, 'southwest': {'lat': 29.7528591197085, 'lng': -95.3599848802915}}}, 'place_id': 'EigxNzUwIE1jS2lubmV5IFN0LCBIb3VzdG9uLCBUWCA3NzAxMCwgVVNBIhsSGQoUChIJ_zfuviO_QIYRGjEra_iAdzUQ1g0', 'types': ['street_address']}]"
2015-03-22 01:00:00,1A10,200-299,ALDINE BENDER,Murder,hospital,1,1,22,Sunday,Mar,2015,250,250 ALDINE BENDER,"[{'address_components': [{'long_name': '250', 'short_name': '250', 'types': ['street_number']}, {'long_name': 'Aldine Bender Road', 'short_name': 'Aldine Bender Rd', 'types': ['route']}, {'long_name': 'Northside', 'short_name': 'Northside', 'types': ['neighborhood', 'political']}, {'long_name': 'Houston', 'short_name': 'Houston', 'types': ['locality', 'political']}, {'long_name': 'Harris County', 'short_name': 'Harris County', 'types': ['administrative_area_level_2', 'political']}, {'long_name': 'Texas', 'short_name': 'TX', 'types': ['administrative_area_level_1', 'political']}, {'long_name': 'United States', 'short_name': 'US', 'types': ['country', 'political']}, {'long_name': '77060', 'short_name': '77060', 'types': ['postal_code']}, {'long_name': '3906', 'short_name': '3906', 'types': ['postal_code_suffix']}], 'formatted_address': '250 Aldine Bender Rd, Houston, TX 77060, USA', 'geometry': {'location': {'lat': 29.9313399, 'lng': -95.4008673}, 'location_type': 'RANGE_INTERPOLATED', 'viewport': {'northeast': {'lat': 29.9326888802915, 'lng': -95.3995183197085}, 'southwest': {'lat': 29.9299909197085, 'lng': -95.40221628029151}}}, 'place_id': 'EiwyNTAgQWxkaW5lIEJlbmRlciBSZCwgSG91c3RvbiwgVFggNzcwNjAsIFVTQSIbEhkKFAoSCdWQKpTdyUCGETJ6c5L4ae14EPoB', 'types': ['street_address']}]"
2015-03-22 03:00:00,1A10,1100-1199,RUSK,Burglary,vacant building (commercial),1,3,22,Sunday,Mar,2015,1150,1150 RUSK,"[{'address_components': [{'long_name': '1150', 'short_name': '1150', 'types': ['street_number']}, {'long_name': 'Rusk Street', 'short_name': 'Rusk St', 'types': ['route']}, {'long_name': 'Downtown', 'short_name': 'Downtown', 'types': ['neighborhood', 'political']}, {'long_name': 'Houston', 'short_name': 'Houston', 'types': ['locality', 'political']}, {'long_name': 'Harris County', 'short_name': 'Harris County', 'types': ['administrative_area_level_2', 'political']}, {'long_name': 'Texas', 'short_name': 'TX', 'types': ['administrative_area_level_1', 'political']}, {'long_name': 'United States', 'short_name': 'US', 'types': ['country', 'political']}, {'long_name': '77002', 'short_name': '77002', 'types': ['postal_code']}, {'long_name': '3407', 'short_name': '3407', 'types': ['postal_code_suffix']}], 'formatted_address': '1150 Rusk St, Houston, TX 77002, USA', 'geometry': {'location': {'lat': 29.757363, 'lng': -95.36226479999999}, 'location_type': 'RANGE_INTERPOLATED', 'viewport': {'northeast': {'lat': 29.7587119802915, 'lng': -95.36091581970848}, 'southwest': {'lat': 29.7560140197085, 'lng': -95.36361378029149}}}, 'place_id': 'EiQxMTUwIFJ1c2sgU3QsIEhvdXN0b24sIFRYIDc3MDAyLCBVU0EiGxIZChQKEgkjbu3MJL9AhhGxxng3mlUv2hD-CA', 'types': ['street_address']}]"
2015-03-22 03:00:00,1A10,900-999,COMMERCE,Theft,road/street/sidewalk,1,3,22,Sunday,Mar,2015,950,950 COMMERCE,"[{'address_components': [{'long_name': '950', 'short_name': '950', 'types': ['street_number']}, {'long_name': 'Commerce Street', 'short_name': 'Commerce St', 'types': ['route']}, {'long_name': 'Downtown', 'short_name': 'Downtown', 'types': ['neighborhood', 'political']}, {'long_name': 'Houston', 'short_name': 'Houston', 'types': ['locality', 'political']}, {'long_name': 'Harris County', 'short_name': 'Harris County', 'types': ['administrative_area_level_2', 'political']}, {'long_name': 'Texas', 'short_name': 'TX', 'types': ['administrative_area_level_1', 'political']}, {'long_name': 'United States', 'short_name': 'US', 'types': ['country', 'political']}, {'long_name': '77002', 'short_name': '77002', 'types': ['postal_code']}], 'formatted_address': '950 Commerce St, Houston, TX 77002, USA', 'geometry': {'location': {'lat': 29.7638315, 'lng': -95.36010089999999}, 'location_type': 'RANGE_INTERPOLATED', 'viewport': {'northeast': {'lat': 29.7651804802915, 'lng': -95.35875191970848}, 'southwest': {'lat': 29.7624825197085, 'lng': -95.3614498802915}}}, 'place_id': 'Eic5NTAgQ29tbWVyY2UgU3QsIEhvdXN0b24sIFRYIDc3MDAyLCBVU0EiGxIZChQKEgnN34AHL79AhhHZXOkqzUto5hC2Bw', 'types': ['street_address']}]"
2015-03-22 09:00:00,1A10,1000-1099,AVENIDA DE LAS AMERI,Theft,convention center or exhibit halls,1,9,22,Sunday,Mar,2015,1050,1050 AVENIDA DE LAS AMERI,"[{'address_components': [{'long_name': '1050', 'short_name': '1050', 'types': ['street_number']}, {'long_name': 'Avenida De Las Americas', 'short_name': 'Avenida De Las Americas', 'types': ['route']}, {'long_name': 'Downtown', 'short_name': 'Downtown', 'types': ['neighborhood', 'political']}, {'long_name': 'Houston', 'short_name': 'Houston', 'types': ['locality', 'political']}, {'long_name': 'Harris County', 'short_name': 'Harris County', 'types': ['administrative_area_level_2', 'political']}, {'long_name': 'Texas', 'short_name': 'TX', 'types': ['administrative_area_level_1', 'political']}, {'long_name': 'United States', 'short_name': 'US', 'types': ['country', 'political']}, {'long_name': '77010', 'short_name': '77010', 'types': ['postal_code']}], 'formatted_address': '1050 Avenida De Las Americas, Houston, TX 77010, USA', 'geometry': {'location': {'lat': 29.7520152, 'lng': -95.35918099999999}, 'location_type': 'RANGE_INTERPOLATED', 'viewport': {'northeast': {'lat': 29.7533641802915, 'lng': -95.35783201970848}, 'southwest': {'lat': 29.7506662197085, 'lng': -95.36052998029149}}}, 'place_id': 'EjQxMDUwIEF2ZW5pZGEgRGUgTGFzIEFtZXJpY2FzLCBIb3VzdG9uLCBUWCA3NzAxMCwgVVNBIhsSGQoUChIJeb1WQyK_QIYRDjCAfIqMDAcQmgg', 'types': ['street_address']}]"
2015-03-22 12:00:00,1A10,1000-1099,LAMAR,Aggravated Assault,road/street/sidewalk,1,12,22,Sunday,Mar,2015,1050,1050 LAMAR,"[{'address_components': [{'long_name': '1050', 'short_name': '1050', 'types': ['street_number']}, {'long_name': 'Lamar Street', 'short_name': 'Lamar St', 'types': ['route']}, {'long_name': 'Downtown', 'short_name': 'Downtown', 'types': ['neighborhood', 'political']}, {'long_name': 'Houston', 'short_name': 'Houston', 'types': ['locality', 'political']}, {'long_name': 'Harris County', 'short_name': 'Harris County', 'types': ['administrative_area_level_2', 'political']}, {'long_name': 'Texas', 'short_name': 'TX', 'types': ['administrative_area_level_1', 'political']}, {'long_name': 'United States', 'short_name': 'US', 'types': ['country', 'political']}, {'long_name': '77002', 'short_name': '77002', 'types': ['postal_code']}], 'formatted_address': '1050 Lamar St, Houston, TX 77002, USA', 'geometry': {'location': {'lat': 29.7557297, 'lng': -95.3649607}, 'location_type': 'RANGE_INTERPOLATED', 'viewport': {'northeast': {'lat': 29.7570786802915, 'lng': -95.3636117197085}, 'southwest': {'lat': 29.7543807197085, 'lng': -95.36630968029151}}}, 'place_id': 'EiUxMDUwIExhbWFyIFN0LCBIb3VzdG9uLCBUWCA3NzAwMiwgVVNBIhsSGQoUChIJs5I8fzu_QIYRBZOpBWnow-UQmgg', 'types': ['street_address']}]"
2015-03-22 14:00:00,1A10,1100-1199,AUSTIN,Theft,no label,1,14,22,Sunday,Mar,2015,1150,1150 AUSTIN,"[{'address_components': [{'long_name': '1150', 'short_name': '1150', 'types': ['street_number']}, {'long_name': 'Austin Street', 'short_name': 'Austin St', 'types': ['route']}, {'long_name': 'Downtown', 'short_name': 'Downtown', 'types': ['neighborhood', 'political']}, {'long_name': 'Houston', 'short_name': 'Houston', 'types': ['locality', 'political']}, {'long_name': 'Harris County', 'short_name': 'Harris County', 'types': ['administrative_area_level_2', 'political']}, {'long_name': 'Texas', 'short_name': 'TX', 'types': ['administrative_area_level_1', 'political']}, {'long_name': 'United States', 'short_name': 'US', 'types': ['country', 'political']}, {'long_name': '77002', 'short_name': '77002', 'types': ['postal_code']}], 'formatted_address': '1150 Austin St, Houston, TX 77002, USA', 'geometry': {'location': {'lat': 29.7531206, 'lng': -95.3628561}, 'location_type': 'RANGE_INTERPOLATED', 'viewport': {'northeast': {'lat': 29.7544695802915, 'lng': -95.36150711970849}, 'southwest': {'lat': 29.7517716197085, 'lng': -95.36420508029151}}}, 'place_id': 'EiYxMTUwIEF1c3RpbiBTdCwgSG91c3RvbiwgVFggNzcwMDIsIFVTQSIbEhkKFAoSCa3HddQ8v0CGEYAyU2ho8NSIEP4I', 'types': ['street_address']}]"
2015-03-22 18:00:00,1A10,1000-1099,AVENIDA DE LAS AMERI,Theft,road/street/sidewalk,1,18,22,Sunday,Mar,2015,1050,1050 AVENIDA DE LAS AMERI,"[{'address_components': [{'long_name': '1050', 'short_name': '1050', 'types': ['street_number']}, {'long_name': 'Avenida De Las Americas', 'short_name': 'Avenida De Las Americas', 'types': ['route']}, {'long_name': 'Downtown', 'short_name': 'Downtown', 'types': ['neighborhood', 'political']}, {'long_name': 'Houston', 'short_name': 'Houston', 'types': ['locality', 'political']}, {'long_name': 'Harris County', 'short_name': 'Harris County', 'types': ['administrative_area_level_2', 'political']}, {'long_name': 'Texas', 'short_name': 'TX', 'types': ['administrative_area_level_1', 'political']}, {'long_name': 'United States', 'short_name': 'US', 'types': ['country', 'political']}, {'long_name': '77010', 'short_name': '77010', 'types': ['postal_code']}], 'formatted_address': '1050 Avenida De Las Americas, Houston, TX 77010, USA', 'geometry': {'location': {'lat': 29.7520152, 'lng': -95.35918099999999}, 'location_type': 'RANGE_INTERPOLATED', 'viewport': {'northeast': {'lat': 29.7533641802915, 'lng': -95.35783201970848}, 'southwest': {'lat': 29.7506662197085, 'lng': -95.36052998029149}}}, 'place_id': 'EjQxMDUwIEF2ZW5pZGEgRGUgTGFzIEFtZXJpY2FzLCBIb3VzdG9uLCBUWCA3NzAxMCwgVVNBIhsSGQoUChIJeb1WQyK_QIYRDjCAfIqMDAcQmgg', 'types': ['street_address']}]"
2015-03-22 20:00:00,1A10,1600-1699,LAMAR,Theft,"hotel, motel, inn, etc.",1,20,22,Sunday,Mar,2015,1650,1650 LAMAR,"[{'address_components': [{'long_name': '1650', 'short_name': '1650', 'types': ['street_number']}, {'long_name': 'Lamar Street', 'short_name': 'Lamar St', 'types': ['route']}, {'long_name': 'Downtown', 'short_name': 'Downtown', 'types': ['neighborhood', 'political']}, {'long_name': 'Houston', 'short_name': 'Houston', 'types': ['locality', 'political']}, {'long_name': 'Harris County', 'short_name': 'Harris County', 'types': ['administrative_area_level_2', 'political']}, {'long_name': 'Texas', 'short_name': 'TX', 'types': ['administrative_area_level_1', 'political']}, {'long_name': 'United States', 'short_name': 'US', 'types': ['country', 'political']}, {'long_name': '77010', 'short_name': '77010', 'types': ['postal_code']}], 'formatted_address': '1650 Lamar St, Houston, TX 77010, USA', 'geometry': {'location': {'lat': 29.7522176, 'lng': -95.3604837}, 'location_type': 'RANGE_INTERPOLATED', 'viewport': {'northeast': {'lat': 29.7535665802915, 'lng': -95.3591347197085}, 'southwest': {'lat': 29.7508686197085, 'lng': -95.36183268029151}}}, 'place_id': 'EiUxNjUwIExhbWFyIFN0LCBIb3VzdG9uLCBUWCA3NzAxMCwgVVNBIhsSGQoUChIJtZqJ8CK_QIYRDKRPHQ7LeyoQ8gw', 'types': ['street_address']}]"
2015-03-22 20:00:00,1A10,500-599,MCKINNEY,Robbery,road/street/sidewalk,1,20,22,Sunday,Mar,2015,550,550 MCKINNEY,"[{'address_components': [{'long_name': '550', 'short_name': '550', 'types': ['street_number']}, {'long_name': 'McKinney Street', 'short_name': 'McKinney St', 'types': ['route']}, {'long_name': 'Central Business District', 'short_name': 'Central Business District', 'types': ['neighborhood', 'political']}, {'long_name': 'Houston', 'short_name': 'Houston', 'types': ['locality', 'political']}, {'long_name': 'Harris County', 'short_name': 'Harris County', 'types': ['administrative_area_level_2', 'political']}, {'long_name': 'Texas', 'short_name': 'TX', 'types': ['administrative_area_level_1', 'political']}, {'long_name': 'United States', 'short_name': 'US', 'types': ['country', 'political']}, {'long_name': '77002', 'short_name': '77002', 'types': ['postal_code']}], 'formatted_address': '550 McKinney St, Houston, TX 77002, USA', 'geometry': {'bounds': {'northeast': {'lat': 29.7593251, 'lng': -95.36878899999999}, 'southwest': {'lat': 29.7585757, 'lng': -95.36951529999999}}, 'location': {'lat': 29.7588746, 'lng': -95.36913349999999}, 'location_type': 'ROOFTOP', 'viewport': {'northeast': {'lat': 29.7602993802915, 'lng': -95.3678031697085}, 'southwest': {'lat': 29.7576014197085, 'lng': -95.3705011302915}}}, 'place_id': 'ChIJ4YSOojm_QIYRALL01ZOQBxM', 'types': ['premise']}]"
2015-03-22 20:00:00,1A10,1300-1399,BAKER,Theft,other parking lot,1,20,22,Sunday,Mar,2015,1350,1350 BAKER,"[{'address_components': [{'long_name': '1350', 'short_name': '1350', 'types': ['street_number']}, {'long_name': 'Baker Street', 'short_name': 'Baker St', 'types': ['route']}, {'long_name': 'Downtown', 'short_name': 'Downtown', 'types': ['neighborhood', 'political']}, {'long_name': 'Houston', 'short_name': 'Houston', 'types': ['locality', 'political']}, {'long_name': 'Harris County', 'short_name': 'Harris County', 'types': ['administrative_area_level_2', 'political']}, {'long_name': 'Texas', 'short_name': 'TX', 'types': ['administrative_area_level_1', 'political']}, {'long_name': 'United States', 'short_name': 'US', 'types': ['country', 'political']}, {'long_name': '77002', 'short_name': '77002', 'types': ['postal_code']}], 'formatted_address': '1350 Baker St, Houston, TX 77002, USA', 'geometry': {'location': {'lat': 29.7634942, 'lng': -95.3547195}, 'location_type': 'RANGE_INTERPOLATED', 'viewport': {'northeast': {'lat': 29.7648431802915, 'lng': -95.3533705197085}, 'southwest': {'lat': 29.7621452197085, 'lng': -95.35606848029151}}}, 'place_id': 'EiUxMzUwIEJha2VyIFN0LCBIb3VzdG9uLCBUWCA3NzAwMiwgVVNBIhsSGQoUChIJgWWE9Si_QIYRT58kK-KjnWcQxgo', 'types': ['street_address']}]"
2015-03-22 23:00:00,1A10,1600-1699,LAMAR,Theft,restaurant or cafeteria,1,23,22,Sunday,Mar,2015,1650,1650 LAMAR,"[{'address_components': [{'long_name': '1650', 'short_name': '1650', 'types': ['street_number']}, {'long_name': 'Lamar Street', 'short_name': 'Lamar St', 'types': ['route']}, {'long_name': 'Downtown', 'short_name': 'Downtown', 'types': ['neighborhood', 'political']}, {'long_name': 'Houston', 'short_name': 'Houston', 'types': ['locality', 'political']}, {'long_name': 'Harris County', 'short_name': 'Harris County', 'types': ['administrative_area_level_2', 'political']}, {'long_name': 'Texas', 'short_name': 'TX', 'types': ['administrative_area_level_1', 'political']}, {'long_name': 'United States', 'short_name': 'US', 'types': ['country', 'political']}, {'long_name': '77010', 'short_name': '77010', 'types': ['postal_code']}], 'formatted_address': '1650 Lamar St, Houston, TX 77010, USA', 'geometry': {'location': {'lat': 29.7522176, 'lng': -95.3604837}, 'location_type': 'RANGE_INTERPOLATED', 'viewport': {'northeast': {'lat': 29.7535665802915, 'lng': -95.3591347197085}, 'southwest': {'lat': 29.7508686197085, 'lng': -95.36183268029151}}}, 'place_id': 'EiUxNjUwIExhbWFyIFN0LCBIb3VzdG9uLCBUWCA3NzAxMCwgVVNBIhsSGQoUChIJtZqJ8CK_QIYRDKRPHQ7LeyoQ8gw', 'types': ['street_address']}]"
2015-03-23 11:00:00,1A10,1200-1299,MAIN,Theft,road/street/sidewalk,1,11,23,Monday,Mar,2015,1250,1250 MAIN,"[{'address_components': [{'long_name': '1250', 'short_name': '1250', 'types': ['street_number']}, {'long_name': 'South Main Street', 'short_name': 'S Main St', 'types': ['route']}, {'long_name': 'Downtown', 'short_name': 'Downtown', 'types': ['neighborhood', 'political']}, {'long_name': 'Houston', 'short_name': 'Houston', 'types': ['locality', 'political']}, {'long_name': 'Harris County', 'short_name': 'Harris County', 'types': ['administrative_area_level_2', 'political']}, {'long_name': 'Texas', 'short_name': 'TX', 'types': ['administrative_area_level_1', 'political']}, {'long_name': 'United States', 'short_name': 'US', 'types': ['country', 'political']}, {'long_name': '77002', 'short_name': '77002', 'types': ['postal_code']}], 'formatted_address': '1250 S Main St, Houston, TX 77002, USA', 'geometry': {'location': {'lat': 29.7550625, 'lng': -95.3663662}, 'location_type': 'RANGE_INTERPOLATED', 'viewport': {'northeast': {'lat': 29.7564114802915, 'lng': -95.36501721970849}, 'southwest': {'lat': 29.7537135197085, 'lng': -95.3677151802915}}}, 'place_id': 'EiYxMjUwIFMgTWFpbiBTdCwgSG91c3RvbiwgVFggNzcwMDIsIFVTQSIbEhkKFAoSCc2vF3M8v0CGEc4BJeWKgUmkEOIJ', 'types': ['street_address']}]"
2015-03-23 14:00:00,1A10,1200-1299,CAROLINE,Theft,bar or night club,1,14,23,Monday,Mar,2015,1250,1250 CAROLINE,"[{'address_components': [{'long_name': '1250', 'short_name': '1250', 'types': ['street_number']}, {'long_name': 'Caroline Street', 'short_name': 'Caroline St', 'types': ['route']}, {'long_name': 'Downtown', 'short_name': 'Downtown', 'types': ['neighborhood', 'political']}, {'long_name': 'Houston', 'short_name': 'Houston', 'types': ['locality', 'political']}, {'long_name': 'Harris County', 'short_name': 'Harris County', 'types': ['administrative_area_level_2', 'political']}, {'long_name': 'Texas', 'short_name': 'TX', 'types': ['administrative_area_level_1', 'political']}, {'long_name': 'United States', 'short_name': 'US', 'types': ['country', 'political']}, {'long_name': '77002', 'short_name': '77002', 'types': ['postal_code']}, {'long_name': '6931', 'short_name': '6931', 'types': ['postal_code_suffix']}], 'formatted_address': '1250 Caroline St, Houston, TX 77002, USA', 'geometry': {'location': {'lat': 29.7535116, 'lng': -95.36381070000002}, 'location_type': 'RANGE_INTERPOLATED', 'viewport': {'northeast': {'lat': 29.7548605802915, 'lng': -95.36246171970852}, 'southwest': {'lat': 29.7521626197085, 'lng': -95.36515968029153}}}, 'place_id': 'EigxMjUwIENhcm9saW5lIFN0LCBIb3VzdG9uLCBUWCA3NzAwMiwgVVNBIhsSGQoUChIJO0tO3Ty_QIYRPIJgrl3-mxAQ4gk', 'types': ['street_address']}]"
2015-03-23 17:00:00,1A10,1700-1799,PEASE,Theft,other parking lot,1,17,23,Monday,Mar,2015,1750,1750 PEASE,"[{'address_components': [{'long_name': '1750', 'short_name': '1750', 'types': ['street_number']}, {'long_name': 'Pease Street', 'short_name': 'Pease St', 'types': ['route']}, {'long_name': 'Downtown', 'short_name': 'Downtown', 'types': ['neighborhood', 'political']}, {'long_name': 'Houston', 'short_name': 'Houston', 'types': ['locality', 'political']}, {'long_name': 'Harris County', 'short_name': 'Harris County', 'types': ['administrative_area_level_2', 'political']}, {'long_name': 'Texas', 'short_name': 'TX', 'types': ['administrative_area_level_1', 'political']}, {'long_name': 'United States', 'short_name': 'US', 'types': ['country', 'political']}, {'long_name': '77003', 'short_name': '77003', 'types': ['postal_code']}, {'long_name': '5040', 'short_name': '5040', 'types': ['postal_code_suffix']}], 'formatted_address': '1750 Pease St, Houston, TX 77003, USA', 'geometry': {'location': {'lat': 29.7475072, 'lng': -95.3624806}, 'location_type': 'RANGE_INTERPOLATED', 'viewport': {'northeast': {'lat': 29.7488561802915, 'lng': -95.36113161970849}, 'southwest': {'lat': 29.7461582197085, 'lng': -95.3638295802915}}}, 'place_id': 'EiUxNzUwIFBlYXNlIFN0LCBIb3VzdG9uLCBUWCA3NzAwMywgVVNBIhsSGQoUChIJF2kLiBe_QIYRW2IF72tkvFQQ1g0', 'types': ['street_address']}]"
2015-03-24 09:00:00,1A10,800-899,LA BRANCH,Theft,other parking lot,1,9,24,Tuesday,Mar,2015,850,850 LA BRANCH,"[{'address_components': [{'long_name': '850', 'short_name': '850', 'types': ['street_number']}, {'long_name': 'La Branch Street', 'short_name': 'La Branch St', 'types': ['route']}, {'long_name': 'Downtown', 'short_name': 'Downtown', 'types': ['neighborhood', 'political']}, {'long_name': 'Houston', 'short_name': 'Houston', 'types': ['locality', 'political']}, {'long_name': 'Harris County', 'short_name': 'Harris County', 'types': ['administrative_area_level_2', 'political']}, {'long_name': 'Texas', 'short_name': 'TX', 'types': ['administrative_area_level_1', 'political']}, {'long_name': 'United States', 'short_name': 'US', 'types': ['country', 'political']}, {'long_name': '77010', 'short_name': '77010', 'types': ['postal_code']}], 'formatted_address': '850 La Branch St, Houston, TX 77010, USA', 'geometry': {'location': {'lat': 29.75543829999999, 'lng': -95.3597692}, 'location_type': 'RANGE_INTERPOLATED', 'viewport': {'northeast': {'lat': 29.75678728029149, 'lng': -95.3584202197085}, 'southwest': {'lat': 29.75408931970849, 'lng': -95.36111818029151}}}, 'place_id': 'Eig4NTAgTGEgQnJhbmNoIFN0LCBIb3VzdG9uLCBUWCA3NzAxMCwgVVNBIhsSGQoUChIJ9-cygSO_QIYR9WPYAEFFVkoQ0gY', 'types': ['street_address']}]"
2015-03-24 10:00:00,1A10,1800-1899,RUIZ,Theft,commercial or training school,1,10,24,Tuesday,Mar,2015,1850,1850 RUIZ,"[{'address_components': [{'long_name': '1850', 'short_name': '1850', 'types': ['street_number']}, {'long_name': 'Ruiz Street', 'short_name': 'Ruiz St', 'types': ['route']}, {'long_name': 'Downtown', 'short_name': 'Downtown', 'types': ['neighborhood', 'political']}, {'long_name': 'Houston', 'short_name': 'Houston', 'types': ['locality', 'political']}, {'long_name': 'Harris County', 'short_name': 'Harris County', 'types': ['administrative_area_level_2', 'political']}, {'long_name': 'Texas', 'short_name': 'TX', 'types': ['administrative_area_level_1', 'political']}, {'long_name': 'United States', 'short_name': 'US', 'types': ['country', 'political']}, {'long_name': '77002', 'short_name': '77002', 'types': ['postal_code']}], 'formatted_address': '1850 Ruiz St, Houston, TX 77002, USA', 'geometry': {'location': {'lat': 29.7599941, 'lng': -95.3514096}, 'location_type': 'RANGE_INTERPOLATED', 'viewport': {'northeast': {'lat': 29.7613430802915, 'lng': -95.35006061970849}, 'southwest': {'lat': 29.7586451197085, 'lng': -95.3527585802915}}}, 'place_id': 'EiQxODUwIFJ1aXogU3QsIEhvdXN0b24sIFRYIDc3MDAyLCBVU0EiGxIZChQKEgk7X6Zx2L5AhhGQGcg-CbYgWxC6Dg', 'types': ['street_address']}]"
2015-03-24 20:00:00,1A10,500-599,ALLEN,Theft,"parks and recreation, zoo, swimming pool",1,20,24,Tuesday,Mar,2015,550,550 ALLEN,"[{'address_components': [{'long_name': '550', 'short_name': '550', 'types': ['street_number']}, {'long_name': 'Allen Parkway', 'short_name': 'Allen Pkwy', 'types': ['route']}, {'long_name': 'Fourth Ward', 'short_name': 'Fourth Ward', 'types': ['neighborhood', 'political']}, {'long_name': 'Houston', 'short_name': 'Houston', 'types': ['locality', 'political']}, {'long_name': 'Harris County', 'short_name': 'Harris County', 'types': ['administrative_area_level_2', 'political']}, {'long_name': 'Texas', 'short_name': 'TX', 'types': ['administrative_area_level_1', 'political']}, {'long_name': 'United States', 'short_name': 'US', 'types': ['country', 'political']}, {'long_name': '77019', 'short_name': '77019', 'types': ['postal_code']}], 'formatted_address': '550 Allen Pkwy, Houston, TX 77019, USA', 'geometry': {'location': {'lat': 29.7599424, 'lng': -95.3765772}, 'location_type': 'RANGE_INTERPOLATED', 'viewport': {'northeast': {'lat': 29.7612913802915, 'lng': -95.3752282197085}, 'southwest': {'lat': 29.7585934197085, 'lng': -95.37792618029151}}}, 'place_id': 'EiY1NTAgQWxsZW4gUGt3eSwgSG91c3RvbiwgVFggNzcwMTksIFVTQSIbEhkKFAoSCU2Pnj1Gv0CGEVzdXckMg8oNEKYE', 'types': ['street_address']}]"
2015-03-25 13:00:00,1A10,100-199,CRAWFORD,Auto Theft,apartment parking lot,1,13,25,Wednesday,Mar,2015,150,150 CRAWFORD,"[{'address_components': [{'long_name': '150', 'short_name': '150', 'types': ['street_number']}, {'long_name': 'Crawford Street', 'short_name': 'Crawford St', 'types': ['route']}, {'long_name': 'Downtown', 'short_name': 'Downtown', 'types': ['neighborhood', 'political']}, {'long_name': 'Houston', 'short_name': 'Houston', 'types': ['locality', 'political']}, {'long_name': 'Harris County', 'short_name': 'Harris County', 'types': ['administrative_area_level_2', 'political']}, {'long_name': 'Texas', 'short_name': 'TX', 'types': ['administrative_area_level_1', 'political']}, {'long_name': 'United States', 'short_name': 'US', 'types': ['country', 'political']}, {'long_name': '77002', 'short_name': '77002', 'types': ['postal_code']}], 'formatted_address': '150 Crawford St, Houston, TX 77002, USA', 'geometry': {'location': {'lat': 29.76050729999999, 'lng': -95.35514859999999}, 'location_type': 'RANGE_INTERPOLATED', 'viewport': {'northeast': {'lat': 29.76185628029149, 'lng': -95.3537996197085}, 'southwest': {'lat': 29.75915831970849, 'lng': -95.3564975802915}}}, 'place_id': 'EicxNTAgQ3Jhd2ZvcmQgU3QsIEhvdXN0b24sIFRYIDc3MDAyLCBVU0EiGxIZChQKEgkpsIbKJ79AhhHRSxPoLHhiWBCWAQ', 'types': ['street_address']}]"
2015-03-25 15:00:00,1A10,1000-1099,BAGBY,Theft,"parks and recreation, zoo, swimming pool",1,15,25,Wednesday,Mar,2015,1050,1050 BAGBY,"[{'address_components': [{'long_name': '1050', 'short_name': '1050', 'types': ['street_number']}, {'long_name': 'Bagby Street', 'short_name': 'Bagby St', 'types': ['route']}, {'long_name': 'Downtown', 'short_name': 'Downtown', 'types': ['neighborhood', 'political']}, {'long_name': 'Houston', 'short_name': 'Houston', 'types': ['locality', 'political']}, {'long_name': 'Harris County', 'short_name': 'Harris County', 'types': ['administrative_area_level_2', 'political']}, {'long_name': 'Texas', 'short_name': 'TX', 'types': ['administrative_area_level_1', 'political']}, {'long_name': 'United States', 'short_name': 'US', 'types': ['country', 'political']}, {'long_name': '77002', 'short_name': '77002', 'types': ['postal_code']}], 'formatted_address': '1050 Bagby St, Houston, TX 77002, USA', 'geometry': {'location': {'lat': 29.75959799999999, 'lng': -95.3704448}, 'location_type': 'RANGE_INTERPOLATED', 'viewport': {'northeast': {'lat': 29.76094698029149, 'lng': -95.3690958197085}, 'southwest': {'lat': 29.75824901970849, 'lng': -95.37179378029151}}}, 'place_id': 'EiUxMDUwIEJhZ2J5IFN0LCBIb3VzdG9uLCBUWCA3NzAwMiwgVVNBIhsSGQoUChIJKZwXSzi_QIYRYmvdCgBEDf0Qmgg', 'types': ['street_address']}]"
2015-03-25 17:00:00,1A10,1400-1499,TEXAS,Auto Theft,other parking lot,1,17,25,Wednesday,Mar,2015,1450,1450 TEXAS,"[{'address_components': [{'long_name': '1450', 'short_name': '1450', 'types': ['street_number']}, {'long_name': 'Texas Street', 'short_name': 'Texas St', 'types': ['route']}, {'long_name': 'Downtown', 'short_name': 'Downtown', 'types': ['neighborhood', 'political']}, {'long_name': 'Houston', 'short_name': 'Houston', 'types': ['locality', 'political']}, {'long_name': 'Harris County', 'short_name': 'Harris County', 'types': ['administrative_area_level_2', 'political']}, {'long_name': 'Texas', 'short_name': 'TX', 'types': ['administrative_area_level_1', 'political']}, {'long_name': 'United States', 'short_name': 'US', 'types': ['country', 'political']}, {'long_name': '77002', 'short_name': '77002', 'types': ['postal_code']}], 'formatted_address': '1450 Texas St, Houston, TX 77002, USA', 'geometry': {'location': {'lat': 29.7571872, 'lng': -95.35875109999999}, 'location_type': 'RANGE_INTERPOLATED', 'viewport': {'northeast': {'lat': 29.7585361802915, 'lng': -95.35740211970848}, 'southwest': {'lat': 29.7558382197085, 'lng': -95.3601000802915}}}, 'place_id': 'EiUxNDUwIFRleGFzIFN0LCBIb3VzdG9uLCBUWCA3NzAwMiwgVVNBIhsSGQoUChIJUWOiQCS_QIYREvNfzQkSR9EQqgs', 'types': ['street_address']}]"
2015-03-25 18:00:00,1A10,900-999,SAN JACINTO,Theft,commercial parking lot or garage,1,18,25,Wednesday,Mar,2015,950,950 SAN JACINTO,"[{'address_components': [{'long_name': '950', 'short_name': '950', 'types': ['street_number']}, {'long_name': 'San Jacinto Street', 'short_name': 'San Jacinto St', 'types': ['route']}, {'long_name': 'Downtown', 'short_name': 'Downtown', 'types': ['neighborhood', 'political']}, {'long_name': 'Houston', 'short_name': 'Houston', 'types': ['locality', 'political']}, {'long_name': 'Harris County', 'short_name': 'Harris County', 'types': ['administrative_area_level_2', 'political']}, {'long_name': 'Texas', 'short_name': 'TX', 'types': ['administrative_area_level_1', 'political']}, {'long_name': 'United States', 'short_name': 'US', 'types': ['country', 'political']}, {'long_name': '77010', 'short_name': '77010', 'types': ['postal_code']}], 'formatted_address': '950 San Jacinto St, Houston, TX 77010, USA', 'geometry': {'location': {'lat': 29.7563151, 'lng': -95.3629629}, 'location_type': 'RANGE_INTERPOLATED', 'viewport': {'northeast': {'lat': 29.7576640802915, 'lng': -95.36161391970849}, 'southwest': {'lat': 29.7549661197085, 'lng': -95.36431188029151}}}, 'place_id': 'Eio5NTAgU2FuIEphY2ludG8gU3QsIEhvdXN0b24sIFRYIDc3MDEwLCBVU0EiGxIZChQKEgndXn9RO79AhhFsAQ0p6frwEhC2Bw', 'types': ['street_address']}]"
2015-03-25 18:00:00,1A10,500-599,TEXAS,Theft,"theatres, dinner theaters, auditoriums",1,18,25,Wednesday,Mar,2015,550,550 TEXAS,"[{'address_components': [{'long_name': '550', 'short_name': '550', 'types': ['street_number']}, {'long_name': 'Texas Street', 'short_name': 'Texas St', 'types': ['route']}, {'long_name': 'Central Business District', 'short_name': 'Central Business District', 'types': ['neighborhood', 'political']}, {'long_name': 'Houston', 'short_name': 'Houston', 'types': ['locality', 'political']}, {'long_name': 'Harris County', 'short_name': 'Harris County', 'types': ['administrative_area_level_2', 'political']}, {'long_name': 'Texas', 'short_name': 'TX', 'types': ['administrative_area_level_1', 'political']}, {'long_name': 'United States', 'short_name': 'US', 'types': ['country', 'political']}, {'long_name': '77204', 'short_name': '77204', 'types': ['postal_code']}], 'formatted_address': '550 Texas St, Houston, TX 77204, USA', 'geometry': {'location': {'lat': 29.7619082, 'lng': -95.36662869999999}, 'location_type': 'ROOFTOP', 'viewport': {'northeast': {'lat': 29.76325718029149, 'lng': -95.36527971970848}, 'southwest': {'lat': 29.7605592197085, 'lng': -95.3679776802915}}}, 'place_id': 'ChIJIX-spDC_QIYRBnjyhOM3nXA', 'types': ['street_address']}]"
2015-03-25 21:00:00,1A10,700-799,MAIN,Burglary,office building,1,21,25,Wednesday,Mar,2015,750,750 MAIN,"[{'address_components': [{'long_name': '750', 'short_name': '750', 'types': ['street_number']}, {'long_name': 'South Main Street', 'short_name': 'S Main St', 'types': ['route']}, {'long_name': 'Downtown', 'short_name': 'Downtown', 'types': ['neighborhood', 'political']}, {'long_name': 'Houston', 'short_name': 'Houston', 'types': ['locality', 'political']}, {'long_name': 'Harris County', 'short_name': 'Harris County', 'types': ['administrative_area_level_2', 'political']}, {'long_name': 'Texas', 'short_name': 'TX', 'types': ['administrative_area_level_1', 'political']}, {'long_name': 'United States', 'short_name': 'US', 'types': ['country', 'political']}, {'long_name': '77002', 'short_name': '77002', 'types': ['postal_code']}, {'long_name': '3201', 'short_name': '3201', 'types': ['postal_code_suffix']}], 'formatted_address': '750 S Main St, Houston, TX 77002, USA', 'geometry': {'location': {'lat': 29.7586824, 'lng': -95.3638659}, 'location_type': 'RANGE_INTERPOLATED', 'viewport': {'northeast': {'lat': 29.76003138029149, 'lng': -95.36251691970848}, 'southwest': {'lat': 29.7573334197085, 'lng': -95.3652148802915}}}, 'place_id': 'EiU3NTAgUyBNYWluIFN0LCBIb3VzdG9uLCBUWCA3NzAwMiwgVVNBIhsSGQoUChIJecgy2Tq_QIYR1BNqm2WCGYkQ7gU', 'types': ['street_address']}]"
2015-03-25 22:00:00,1A10,400-499,LOUISIANA,Aggravated Assault,road/street/sidewalk,1,22,25,Wednesday,Mar,2015,450,450 LOUISIANA,"[{'address_components': [{'long_name': '450', 'short_name': '450', 'types': ['street_number']}, {'long_name': 'Louisiana Street', 'short_name': 'Louisiana St', 'types': ['route']}, {'long_name': 'Downtown', 'short_name': 'Downtown', 'types': ['neighborhood', 'political']}, {'long_name': 'Houston', 'short_name': 'Houston', 'types': ['locality', 'political']}, {'long_name': 'Harris County', 'short_name': 'Harris County', 'types': ['administrative_area_level_2', 'political']}, {'long_name': 'Texas', 'short_name': 'TX', 'types': ['administrative_area_level_1', 'political']}, {'long_name': 'United States', 'short_name': 'US', 'types': ['country', 'political']}, {'long_name': '77002', 'short_name': '77002', 'types': ['postal_code']}], 'formatted_address': '450 Louisiana St, Houston, TX 77002, USA', 'geometry': {'location': {'lat': 29.7625424, 'lng': -95.36451939999999}, 'location_type': 'RANGE_INTERPOLATED', 'viewport': {'northeast': {'lat': 29.7638913802915, 'lng': -95.3631704197085}, 'southwest': {'lat': 29.7611934197085, 'lng': -95.3658683802915}}}, 'place_id': 'Eig0NTAgTG91aXNpYW5hIFN0LCBIb3VzdG9uLCBUWCA3NzAwMiwgVVNBIhsSGQoUChIJxdVkaTC_QIYR84ot0WsahhUQwgM', 'types': ['street_address']}]"
2015-03-26 02:00:00,1A10,1300-1399,TEXAS,Aggravated Assault,road/street/sidewalk,1,2,26,Thursday,Mar,2015,1350,1350 TEXAS,"[{'address_components': [{'long_name': '1350', 'short_name': '1350', 'types': ['street_number']}, {'long_name': 'Texas Street', 'short_name': 'Texas St', 'types': ['route']}, {'long_name': 'Downtown', 'short_name': 'Downtown', 'types': ['neighborhood', 'political']}, {'long_name': 'Houston', 'short_name': 'Houston', 'types': ['locality', 'political']}, {'long_name': 'Harris County', 'short_name': 'Harris County', 'types': ['administrative_area_level_2', 'political']}, {'long_name': 'Texas', 'short_name': 'TX', 'types': ['administrative_area_level_1', 'political']}, {'long_name': 'United States', 'short_name': 'US', 'types': ['country', 'political']}, {'long_name': '77002', 'short_name': '77002', 'types': ['postal_code']}], 'formatted_address': '1350 Texas St, Houston, TX 77002, USA', 'geometry': {'location': {'lat': 29.757678, 'lng': -95.3594964}, 'location_type': 'RANGE_INTERPOLATED', 'viewport': {'northeast': {'lat': 29.7590269802915, 'lng': -95.35814741970849}, 'southwest': {'lat': 29.7563290197085, 'lng': -95.3608453802915}}}, 'place_id': 'EiUxMzUwIFRleGFzIFN0LCBIb3VzdG9uLCBUWCA3NzAwMiwgVVNBIhsSGQoUChIJo5m6WiS_QIYRxNRe0QnHO8cQxgo', 'types': ['street_address']}]"
2015-03-27 03:00:00,1A10,1100-1199,CLAY,Auto Theft,road/street/sidewalk,1,3,27,Friday,Mar,2015,1150,1150 CLAY,"[{'address_components': [{'long_name': '1150', 'short_name': '1150', 'types': ['street_number']}, {'long_name': 'Clay Street', 'short_name': 'Clay St', 'types': ['route']}, {'long_name': 'Downtown', 'short_name': 'Downtown', 'types': ['neighborhood', 'political']}, {'long_name': 'Houston', 'short_name': 'Houston', 'types': ['locality', 'political']}, {'long_name': 'Harris County', 'short_name': 'Harris County', 'types': ['administrative_area_level_2', 'political']}, {'long_name': 'Texas', 'short_name': 'TX', 'types': ['administrative_area_level_1', 'political']}, {'long_name': 'United States', 'short_name': 'US', 'types': ['country', 'political']}, {'long_name': '77002', 'short_name': '77002', 'types': ['postal_code']}, {'long_name': '7002', 'short_name': '7002', 'types': ['postal_code_suffix']}], 'formatted_address': '1150 Clay St, Houston, TX 77002, USA', 'geometry': {'location': {'lat': 29.7529783, 'lng': -95.3659742}, 'location_type': 'RANGE_INTERPOLATED', 'viewport': {'northeast': {'lat': 29.7543272802915, 'lng': -95.3646252197085}, 'southwest': {'lat': 29.7516293197085, 'lng': -95.3673231802915}}}, 'place_id': 'EiQxMTUwIENsYXkgU3QsIEhvdXN0b24sIFRYIDc3MDAyLCBVU0EiGxIZChQKEgk1yIpOPL9AhhE65CTr3DGQIRD-CA', 'types': ['street_address']}]"
2015-03-27 11:00:00,1A10,700-799,N. SAN JACINTO,Theft,commercial parking lot or garage,1,11,27,Friday,Mar,2015,750,750 N. SAN JACINTO,"[{'address_components': [{'long_name': '750', 'short_name': '750', 'types': ['street_number']}, {'long_name': 'North San Jacinto Street', 'short_name': 'N San Jacinto St', 'types': ['route']}, {'long_name': 'Downtown', 'short_name': 'Downtown', 'types': ['neighborhood', 'political']}, {'long_name': 'Houston', 'short_name': 'Houston', 'types': ['locality', 'political']}, {'long_name': 'Harris County', 'short_name': 'Harris County', 'types': ['administrative_area_level_2', 'political']}, {'long_name': 'Texas', 'short_name': 'TX', 'types': ['administrative_area_level_1', 'political']}, {'long_name': 'United States', 'short_name': 'US', 'types': ['country', 'political']}, {'long_name': '77002', 'short_name': '77002', 'types': ['postal_code']}], 'formatted_address': '750 N San Jacinto St, Houston, TX 77002, USA', 'geometry': {'location': {'lat': 29.7646272, 'lng': -95.3571278}, 'location_type': 'RANGE_INTERPOLATED', 'viewport': {'northeast': {'lat': 29.7659761802915, 'lng': -95.3557788197085}, 'southwest': {'lat': 29.7632782197085, 'lng': -95.35847678029151}}}, 'place_id': 'Eiw3NTAgTiBTYW4gSmFjaW50byBTdCwgSG91c3RvbiwgVFggNzcwMDIsIFVTQSIbEhkKFAoSCR_ANSopv0CGEcDqhsr0IIikEO4F', 'types': ['street_address']}]"
2015-03-27 12:00:00,1A10,1000-1099,MCKINNEY,Theft,office building,1,12,27,Friday,Mar,2015,1050,1050 MCKINNEY,"[{'address_components': [{'long_name': '1050', 'short_name': '1050', 'types': ['street_number']}, {'long_name': 'McKinney Street', 'short_name': 'McKinney St', 'types': ['route']}, {'long_name': 'Downtown', 'short_name': 'Downtown', 'types': ['neighborhood', 'political']}, {'long_name': 'Houston', 'short_name': 'Houston', 'types': ['locality', 'political']}, {'long_name': 'Harris County', 'short_name': 'Harris County', 'types': ['administrative_area_level_2', 'political']}, {'long_name': 'Texas', 'short_name': 'TX', 'types': ['administrative_area_level_1', 'political']}, {'long_name': 'United States', 'short_name': 'US', 'types': ['country', 'political']}, {'long_name': '77002', 'short_name': '77002', 'types': ['postal_code']}], 'formatted_address': '1050 McKinney St, Houston, TX 77002, USA', 'geometry': {'location': {'lat': 29.7566802, 'lng': -95.36444080000001}, 'location_type': 'RANGE_INTERPOLATED', 'viewport': {'northeast': {'lat': 29.7580291802915, 'lng': -95.36309181970852}, 'southwest': {'lat': 29.7553312197085, 'lng': -95.36578978029152}}}, 'place_id': 'EigxMDUwIE1jS2lubmV5IFN0LCBIb3VzdG9uLCBUWCA3NzAwMiwgVVNBIhsSGQoUChIJRwAabju_QIYRT0LX3vM3iXYQmgg', 'types': ['street_address']}]"
2015-03-27 16:00:00,1A10,900-999,MAIN,Theft,convenience store,1,16,27,Friday,Mar,2015,950,950 MAIN,"[{'address_components': [{'long_name': '950', 'short_name': '950', 'types': ['street_number']}, {'long_name': 'South Main Street', 'short_name': 'S Main St', 'types': ['route']}, {'long_name': 'Downtown', 'short_name': 'Downtown', 'types': ['neighborhood', 'political']}, {'long_name': 'Houston', 'short_name': 'Houston', 'types': ['locality', 'political']}, {'long_name': 'Harris County', 'short_name': 'Harris County', 'types': ['administrative_area_level_2', 'political']}, {'long_name': 'Texas', 'short_name': 'TX', 'types': ['administrative_area_level_1', 'political']}, {'long_name': 'United States', 'short_name': 'US', 'types': ['country', 'political']}, {'long_name': '77002', 'short_name': '77002', 'types': ['postal_code']}], 'formatted_address': '950 S Main St, Houston, TX 77002, USA', 'geometry': {'location': {'lat': 29.7574534, 'lng': -95.3648366}, 'location_type': 'RANGE_INTERPOLATED', 'viewport': {'northeast': {'lat': 29.7588023802915, 'lng': -95.36348761970851}, 'southwest': {'lat': 29.7561044197085, 'lng': -95.36618558029151}}}, 'place_id': 'EiU5NTAgUyBNYWluIFN0LCBIb3VzdG9uLCBUWCA3NzAwMiwgVVNBIhsSGQoUChIJ6S-hDTu_QIYRWoC7w-STXScQtgc', 'types': ['street_address']}]"
2015-03-27 21:00:00,1A10,800-899,PIERCE,Theft,bus station,1,21,27,Friday,Mar,2015,850,850 PIERCE,"[{'address_components': [{'long_name': '850', 'short_name': '850', 'types': ['street_number']}, {'long_name': 'Pierce Street', 'short_name': 'Pierce St', 'types': ['route']}, {'long_name': 'Downtown', 'short_name': 'Downtown', 'types': ['neighborhood', 'political']}, {'long_name': 'Houston', 'short_name': 'Houston', 'types': ['locality', 'political']}, {'long_name': 'Harris County', 'short_name': 'Harris County', 'types': ['administrative_area_level_2', 'political']}, {'long_name': 'Texas', 'short_name': 'TX', 'types': ['administrative_area_level_1', 'political']}, {'long_name': 'United States', 'short_name': 'US', 'types': ['country', 'political']}, {'long_name': '77002', 'short_name': '77002', 'types': ['postal_code']}, {'long_name': '8036', 'short_name': '8036', 'types': ['postal_code_suffix']}], 'formatted_address': '850 Pierce St, Houston, TX 77002, USA', 'geometry': {'location': {'lat': 29.75026129999999, 'lng': -95.37212749999999}, 'location_type': 'RANGE_INTERPOLATED', 'viewport': {'northeast': {'lat': 29.75161028029149, 'lng': -95.37077851970848}, 'southwest': {'lat': 29.7489123197085, 'lng': -95.37347648029149}}}, 'place_id': 'EiU4NTAgUGllcmNlIFN0LCBIb3VzdG9uLCBUWCA3NzAwMiwgVVNBIhsSGQoUChIJg-fg7z-_QIYR40Ff4CcpeJYQ0gY', 'types': ['street_address']}]"
2015-03-28 00:00:00,1A10,1400-1499,CONGRESS,Theft,road/street/sidewalk,1,0,28,Saturday,Mar,2015,1450,1450 CONGRESS,"[{'address_components': [{'long_name': '1450', 'short_name': '1450', 'types': ['street_number']}, {'long_name': 'Congress Avenue', 'short_name': 'Congress Ave', 'types': ['route']}, {'long_name': 'Downtown', 'short_name': 'Downtown', 'types': ['neighborhood', 'political']}, {'long_name': 'Houston', 'short_name': 'Houston', 'types': ['locality', 'political']}, {'long_name': 'Harris County', 'short_name': 'Harris County', 'types': ['administrative_area_level_2', 'political']}, {'long_name': 'Texas', 'short_name': 'TX', 'types': ['administrative_area_level_1', 'political']}, {'long_name': 'United States', 'short_name': 'US', 'types': ['country', 'political']}, {'long_name': '77002', 'short_name': '77002', 'types': ['postal_code']}], 'formatted_address': '1450 Congress Ave, Houston, TX 77002, USA', 'geometry': {'location': {'lat': 29.7599065, 'lng': -95.3568591}, 'location_type': 'RANGE_INTERPOLATED', 'viewport': {'northeast': {'lat': 29.7612554802915, 'lng': -95.35551011970848}, 'southwest': {'lat': 29.7585575197085, 'lng': -95.3582080802915}}}, 'place_id': 'EikxNDUwIENvbmdyZXNzIEF2ZSwgSG91c3RvbiwgVFggNzcwMDIsIFVTQSIbEhkKFAoSCWEcFXQmv0CGEf1TFReVG5yrEKoL', 'types': ['street_address']}]"
2015-03-28 01:00:00,1A10,900-999,CONGRESS,Theft,restaurant or cafeteria,1,1,28,Saturday,Mar,2015,950,950 CONGRESS,"[{'address_components': [{'long_name': '950', 'short_name': '950', 'types': ['street_number']}, {'long_name': 'Congress Avenue', 'short_name': 'Congress Ave', 'types': ['route']}, {'long_name': 'Downtown', 'short_name': 'Downtown', 'types': ['neighborhood', 'political']}, {'long_name': 'Houston', 'short_name': 'Houston', 'types': ['locality', 'political']}, {'long_name': 'Harris County', 'short_name': 'Harris County', 'types': ['administrative_area_level_2', 'political']}, {'long_name': 'Texas', 'short_name': 'TX', 'types': ['administrative_area_level_1', 'political']}, {'long_name': 'United States', 'short_name': 'US', 'types': ['country', 'political']}, {'long_name': '77002', 'short_name': '77002', 'types': ['postal_code']}, {'long_name': '1710', 'short_name': '1710', 'types': ['postal_code_suffix']}], 'formatted_address': '950 Congress Ave, Houston, TX 77002, USA', 'geometry': {'location': {'lat': 29.762246, 'lng': -95.3611561}, 'location_type': 'RANGE_INTERPOLATED', 'viewport': {'northeast': {'lat': 29.7635949802915, 'lng': -95.35980711970849}, 'southwest': {'lat': 29.7608970197085, 'lng': -95.3625050802915}}}, 'place_id': 'Eig5NTAgQ29uZ3Jlc3MgQXZlLCBIb3VzdG9uLCBUWCA3NzAwMiwgVVNBIhsSGQoUChIJQ-keky-_QIYR0tzjvMGAHdMQtgc', 'types': ['street_address']}]"
2015-03-28 11:00:00,1A10,1300-1399,BELL,Theft,road/street/sidewalk,1,11,28,Saturday,Mar,2015,1350,1350 BELL,"[{'address_components': [{'long_name': '1350', 'short_name': '1350', 'types': ['street_number']}, {'long_name': 'Bell Street', 'short_name': 'Bell St', 'types': ['route']}, {'long_name': 'Downtown', 'short_name': 'Downtown', 'types': ['neighborhood', 'political']}, {'long_name': 'Houston', 'short_name': 'Houston', 'types': ['locality', 'political']}, {'long_name': 'Harris County', 'short_name': 'Harris County', 'types': ['administrative_area_level_2', 'political']}, {'long_name': 'Texas', 'short_name': 'TX', 'types': ['administrative_area_level_1', 'political']}, {'long_name': 'United States', 'short_name': 'US', 'types': ['country', 'political']}, {'long_name': '77002', 'short_name': '77002', 'types': ['postal_code']}], 'formatted_address': '1350 Bell St, Houston, TX 77002, USA', 'geometry': {'location': {'lat': 29.7513905, 'lng': -95.3648497}, 'location_type': 'RANGE_INTERPOLATED', 'viewport': {'northeast': {'lat': 29.7527394802915, 'lng': -95.36350071970848}, 'southwest': {'lat': 29.7500415197085, 'lng': -95.3661986802915}}}, 'place_id': 'EiQxMzUwIEJlbGwgU3QsIEhvdXN0b24sIFRYIDc3MDAyLCBVU0EiGxIZChQKEgnRclkLPb9AhhHTCCyMo7AOJhDGCg', 'types': ['street_address']}]"
2015-03-28 14:00:00,1A10,1200-1299,PRAIRIE,Theft,"hotel, motel, inn, etc.",1,14,28,Saturday,Mar,2015,1250,1250 PRAIRIE,"[{'address_components': [{'long_name': '1250', 'short_name': '1250', 'types': ['street_number']}, {'long_name': 'Prairie Street', 'short_name': 'Prairie St', 'types': ['route']}, {'long_name': 'Downtown', 'short_name': 'Downtown', 'types': ['neighborhood', 'political']}, {'long_name': 'Houston', 'short_name': 'Houston', 'types': ['locality', 'political']}, {'long_name': 'Harris County', 'short_name': 'Harris County', 'types': ['administrative_area_level_2', 'political']}, {'long_name': 'Texas', 'short_name': 'TX', 'types': ['administrative_area_level_1', 'political']}, {'long_name': 'United States', 'short_name': 'US', 'types': ['country', 'political']}, {'long_name': '77002', 'short_name': '77002', 'types': ['postal_code']}, {'long_name': '2008', 'short_name': '2008', 'types': ['postal_code_suffix']}], 'formatted_address': '1250 Prairie St, Houston, TX 77002, USA', 'geometry': {'location': {'lat': 29.7590639, 'lng': -95.35978610000001}, 'location_type': 'RANGE_INTERPOLATED', 'viewport': {'northeast': {'lat': 29.7604128802915, 'lng': -95.35843711970851}, 'southwest': {'lat': 29.7577149197085, 'lng': -95.36113508029152}}}, 'place_id': 'EicxMjUwIFByYWlyaWUgU3QsIEhvdXN0b24sIFRYIDc3MDAyLCBVU0EiGxIZChQKEgmvGoaoJb9AhhGlgh4vUcgk4BDiCQ', 'types': ['street_address']}]"
2015-03-28 15:00:00,1A10,1000-1099,AVENIDA DE LAS AMERI,Theft,convention center or exhibit halls,1,15,28,Saturday,Mar,2015,1050,1050 AVENIDA DE LAS AMERI,"[{'address_components': [{'long_name': '1050', 'short_name': '1050', 'types': ['street_number']}, {'long_name': 'Avenida De Las Americas', 'short_name': 'Avenida De Las Americas', 'types': ['route']}, {'long_name': 'Downtown', 'short_name': 'Downtown', 'types': ['neighborhood', 'political']}, {'long_name': 'Houston', 'short_name': 'Houston', 'types': ['locality', 'political']}, {'long_name': 'Harris County', 'short_name': 'Harris County', 'types': ['administrative_area_level_2', 'political']}, {'long_name': 'Texas', 'short_name': 'TX', 'types': ['administrative_area_level_1', 'political']}, {'long_name': 'United States', 'short_name': 'US', 'types': ['country', 'political']}, {'long_name': '77010', 'short_name': '77010', 'types': ['postal_code']}], 'formatted_address': '1050 Avenida De Las Americas, Houston, TX 77010, USA', 'geometry': {'location': {'lat': 29.7520152, 'lng': -95.35918099999999}, 'location_type': 'RANGE_INTERPOLATED', 'viewport': {'northeast': {'lat': 29.7533641802915, 'lng': -95.35783201970848}, 'southwest': {'lat': 29.7506662197085, 'lng': -95.36052998029149}}}, 'place_id': 'EjQxMDUwIEF2ZW5pZGEgRGUgTGFzIEFtZXJpY2FzLCBIb3VzdG9uLCBUWCA3NzAxMCwgVVNBIhsSGQoUChIJeb1WQyK_QIYRDjCAfIqMDAcQmgg', 'types': ['street_address']}]"
2015-03-28 17:00:00,1A10,1700-1799,CONGRESS,Aggravated Assault,"other, unknown, or not listed",1,17,28,Saturday,Mar,2015,1750,1750 CONGRESS,"[{'address_components': [{'long_name': '1750', 'short_name': '1750', 'types': ['street_number']}, {'long_name': 'Congress Avenue', 'short_name': 'Congress Ave', 'types': ['route']}, {'long_name': 'Downtown', 'short_name': 'Downtown', 'types': ['neighborhood', 'political']}, {'long_name': 'Houston', 'short_name': 'Houston', 'types': ['locality', 'political']}, {'long_name': 'Harris County', 'short_name': 'Harris County', 'types': ['administrative_area_level_2', 'political']}, {'long_name': 'Texas', 'short_name': 'TX', 'types': ['administrative_area_level_1', 'political']}, {'long_name': 'United States', 'short_name': 'US', 'types': ['country', 'political']}, {'long_name': '77002', 'short_name': '77002', 'types': ['postal_code']}], 'formatted_address': '1750 Congress Ave, Houston, TX 77002, USA', 'geometry': {'location': {'lat': 29.7583546, 'lng': -95.3542781}, 'location_type': 'RANGE_INTERPOLATED', 'viewport': {'northeast': {'lat': 29.7597035802915, 'lng': -95.35292911970849}, 'southwest': {'lat': 29.7570056197085, 'lng': -95.35562708029151}}}, 'place_id': 'EikxNzUwIENvbmdyZXNzIEF2ZSwgSG91c3RvbiwgVFggNzcwMDIsIFVTQSIbEhkKFAoSCcng6QQnv0CGEaOymdC8ZtVUENYN', 'types': ['street_address']}]"
2015-03-28 23:00:00,1A10,1300-1399,AUSTIN,Auto Theft,road/street/sidewalk,1,23,28,Saturday,Mar,2015,1350,1350 AUSTIN,"[{'address_components': [{'long_name': '1350', 'short_name': '1350', 'types': ['street_number']}, {'long_name': 'Austin Street', 'short_name': 'Austin St', 'types': ['route']}, {'long_name': 'Downtown', 'short_name': 'Downtown', 'types': ['neighborhood', 'political']}, {'long_name': 'Houston', 'short_name': 'Houston', 'types': ['locality', 'political']}, {'long_name': 'Harris County', 'short_name': 'Harris County', 'types': ['administrative_area_level_2', 'political']}, {'long_name': 'Texas', 'short_name': 'TX', 'types': ['administrative_area_level_1', 'political']}, {'long_name': 'United States', 'short_name': 'US', 'types': ['country', 'political']}, {'long_name': '77002', 'short_name': '77002', 'types': ['postal_code']}, {'long_name': '7105', 'short_name': '7105', 'types': ['postal_code_suffix']}], 'formatted_address': '1350 Austin St, Houston, TX 77002, USA', 'geometry': {'location': {'lat': 29.7518833, 'lng': -95.36383520000001}, 'location_type': 'RANGE_INTERPOLATED', 'viewport': {'northeast': {'lat': 29.7532322802915, 'lng': -95.36248621970852}, 'southwest': {'lat': 29.7505343197085, 'lng': -95.36518418029152}}}, 'place_id': 'EiYxMzUwIEF1c3RpbiBTdCwgSG91c3RvbiwgVFggNzcwMDIsIFVTQSIbEhkKFAoSCd0UQSM9v0CGESm9NBD6yy_4EMYK', 'types': ['street_address']}]"
2015-03-28 23:00:00,1A10,800-899,MCKEE,Theft,road/street/sidewalk,1,23,28,Saturday,Mar,2015,850,850 MCKEE,"[{'address_components': [{'long_name': '850', 'short_name': '850', 'types': ['street_number']}, {'long_name': 'McKee Street', 'short_name': 'McKee St', 'types': ['route']}, {'long_name': 'Downtown', 'short_name': 'Downtown', 'types': ['neighborhood', 'political']}, {'long_name': 'Houston', 'short_name': 'Houston', 'types': ['locality', 'political']}, {'long_name': 'Harris County', 'short_name': 'Harris County', 'types': ['administrative_area_level_2', 'political']}, {'long_name': 'Texas', 'short_name': 'TX', 'types': ['administrative_area_level_1', 'political']}, {'long_name': 'United States', 'short_name': 'US', 'types': ['country', 'political']}, {'long_name': '77002', 'short_name': '77002', 'types': ['postal_code']}, {'long_name': '1113', 'short_name': '1113', 'types': ['postal_code_suffix']}], 'formatted_address': '850 McKee St, Houston, TX 77002, USA', 'geometry': {'bounds': {'northeast': {'lat': 29.7685156, 'lng': -95.35166249999999}, 'southwest': {'lat': 29.7684025, 'lng': -95.351978}}, 'location': {'lat': 29.7684369, 'lng': -95.35182189999999}, 'location_type': 'ROOFTOP', 'viewport': {'northeast': {'lat': 29.7698080302915, 'lng': -95.35047126970849}, 'southwest': {'lat': 29.7671100697085, 'lng': -95.3531692302915}}}, 'place_id': 'ChIJETzi-dW-QIYRDLo4XsvdRkI', 'types': ['premise']}]"
2015-03-29 00:00:00,1A10,100-199,MILAM,Theft,road/street/sidewalk,1,0,29,Sunday,Mar,2015,150,150 MILAM,"[{'address_components': [{'long_name': '150', 'short_name': '150', 'types': ['street_number']}, {'long_name': 'Milam Street', 'short_name': 'Milam St', 'types': ['route']}, {'long_name': 'Downtown', 'short_name': 'Downtown', 'types': ['neighborhood', 'political']}, {'long_name': 'Houston', 'short_name': 'Houston', 'types': ['locality', 'political']}, {'long_name': 'Harris County', 'short_name': 'Harris County', 'types': ['administrative_area_level_2', 'political']}, {'long_name': 'Texas', 'short_name': 'TX', 'types': ['administrative_area_level_1', 'political']}, {'long_name': 'United States', 'short_name': 'US', 'types': ['country', 'political']}, {'long_name': '77002', 'short_name': '77002', 'types': ['postal_code']}], 'formatted_address': '150 Milam St, Houston, TX 77002, USA', 'geometry': {'location': {'lat': 29.764066, 'lng': -95.3618728},