Date_Hour,Beat,BlockRange,StreetName,OffenseType,Premise,NumOffenses,Hour,day,weekday,month,year,block,address,tup_add
2013-09-05 13:00:00,10H70,6400-6499,FANNIN,Theft,hospital,1,13,5,Thursday,Sep,2013,6450,6450 FANNIN,"[{'address_components': [{'long_name': '6450', 'short_name': '6450', 'types': ['street_number']}, {'long_name': 'Fannin Street', 'short_name': 'Fannin St', 'types': ['route']}, {'long_name': 'Southeast Houston', 'short_name': 'Southeast Houston', 'types': ['neighborhood', 'political']}, {'long_name': 'Houston', 'short_name': 'Houston', 'types': ['locality', 'political']}, {'long_name': 'Harris County', 'short_name': 'Harris County', 'types': ['administrative_area_level_2', 'political']}, {'long_name': 'Texas', 'short_name': 'TX', 'types': ['administrative_area_level_1', 'political']}, {'long_name': 'United States', 'short_name': 'US', 'types': ['country', 'political']}, {'long_name': '77030', 'short_name': '77030', 'types': ['postal_code']}], 'formatted_address': '6450 Fannin St, Houston, TX 77030, USA', 'geometry': {'location': {'lat': 29.7121633, 'lng': -95.399011}, 'location_type': 'RANGE_INTERPOLATED', 'viewport': {'northeast': {'lat': 29.7135122802915, 'lng': -95.39766201970849}, 'southwest': {'lat': 29.7108143197085, 'lng': -95.40035998029151}}}, 'place_id': 'EiY2NDUwIEZhbm5pbiBTdCwgSG91c3RvbiwgVFggNzcwMzAsIFVTQSIbEhkKFAoSCd8CW9JwwECGEVV5pvdDd2bdELIy', 'types': ['street_address']}]"
2013-09-05 14:00:00,10H70,5600-5699,SAN JACINTO,Theft,other/unknown,1,14,5,Thursday,Sep,2013,5650,5650 SAN JACINTO,"[{'address_components': [{'long_name': '5650', 'short_name': '5650', 'types': ['street_number']}, {'long_name': 'San Jacinto Street', 'short_name': 'San Jacinto St', 'types': ['route']}, {'long_name': 'South Central Houston', 'short_name': 'South Central Houston', 'types': ['neighborhood', 'political']}, {'long_name': 'Houston', 'short_name': 'Houston', 'types': ['locality', 'political']}, {'long_name': 'Harris County', 'short_name': 'Harris County', 'types': ['administrative_area_level_2', 'political']}, {'long_name': 'Texas', 'short_name': 'TX', 'types': ['administrative_area_level_1', 'political']}, {'long_name': 'United States', 'short_name': 'US', 'types': ['country', 'political']}, {'long_name': '77004', 'short_name': '77004', 'types': ['postal_code']}], 'formatted_address': '5650 San Jacinto St, Houston, TX 77004, USA', 'geometry': {'location': {'lat': 29.7243309, 'lng': -95.3882206}, 'location_type': 'RANGE_INTERPOLATED', 'viewport': {'northeast': {'lat': 29.7256798802915, 'lng': -95.38687161970849}, 'southwest': {'lat': 29.7229819197085, 'lng': -95.3895695802915}}}, 'place_id': 'Eis1NjUwIFNhbiBKYWNpbnRvIFN0LCBIb3VzdG9uLCBUWCA3NzAwNCwgVVNBIhsSGQoUChIJ_-SLIoK_QIYRFEdrsdgzBeoQkiw', 'types': ['street_address']}]"
2013-09-05 16:00:00,10H70,0-99,HERMANN MUSEUM,Burglary,apartment,1,16,5,Thursday,Sep,2013,50,50 HERMANN MUSEUM,"[{'address_components': [{'long_name': '50', 'short_name': '50', 'types': ['street_number']}, {'long_name': 'Hermann Museum Circle Drive', 'short_name': 'Hermann Museum Cir Dr', 'types': ['route']}, {'long_name': 'Southwest Houston', 'short_name': 'Southwest Houston', 'types': ['neighborhood', 'political']}, {'long_name': 'Houston', 'short_name': 'Houston', 'types': ['locality', 'political']}, {'long_name': 'Harris County', 'short_name': 'Harris County', 'types': ['administrative_area_level_2', 'political']}, {'long_name': 'Texas', 'short_name': 'TX', 'types': ['administrative_area_level_1', 'political']}, {'long_name': 'United States', 'short_name': 'US', 'types': ['country', 'political']}, {'long_name': '77004', 'short_name': '77004', 'types': ['postal_code']}], 'formatted_address': '50 Hermann Museum Cir Dr, Houston, TX 77004, USA', 'geometry': {'location': {'lat': 29.7182632, 'lng': -95.3810754}, 'location_type': 'RANGE_INTERPOLATED', 'viewport': {'northeast': {'lat': 29.7196121802915, 'lng': -95.37972641970849}, 'southwest': {'lat': 29.7169142197085, 'lng': -95.38242438029151}}}, 'place_id': 'EjA1MCBIZXJtYW5uIE11c2V1bSBDaXIgRHIsIEhvdXN0b24sIFRYIDc3MDA0LCBVU0EiGhIYChQKEgkHdI8Im79AhhG13oSrY04--BAy', 'types': ['street_address']}]"
2013-09-05 17:00:00,10H70,2800-2899,OLD SPANISH,Theft,restaurant/cafeteria,1,17,5,Thursday,Sep,2013,2850,2850 OLD SPANISH,"[{'address_components': [{'long_name': '2850', 'short_name': '2850', 'types': ['street_number']}, {'long_name': 'Old Spanish Trail', 'short_name': 'Old Spanish Trail', 'types': ['route']}, {'long_name': 'Southwest Houston', 'short_name': 'Southwest Houston', 'types': ['neighborhood', 'political']}, {'long_name': 'Houston', 'short_name': 'Houston', 'types': ['locality', 'political']}, {'long_name': 'Harris County', 'short_name': 'Harris County', 'types': ['administrative_area_level_2', 'political']}, {'long_name': 'Texas', 'short_name': 'TX', 'types': ['administrative_area_level_1', 'political']}, {'long_name': 'United States', 'short_name': 'US', 'types': ['country', 'political']}, {'long_name': '77054', 'short_name': '77054', 'types': ['postal_code']}], 'formatted_address': '2850 Old Spanish Trail, Houston, TX 77054, USA', 'geometry': {'location': {'lat': 29.6990599, 'lng': -95.3854843}, 'location_type': 'RANGE_INTERPOLATED', 'viewport': {'northeast': {'lat': 29.7004088802915, 'lng': -95.3841353197085}, 'southwest': {'lat': 29.6977109197085, 'lng': -95.38683328029151}}}, 'place_id': 'Ei4yODUwIE9sZCBTcGFuaXNoIFRyYWlsLCBIb3VzdG9uLCBUWCA3NzA1NCwgVVNBIhsSGQoUChIJhRSlT_K_QIYRbVAe5uuVL08QohY', 'types': ['street_address']}]"
2013-09-05 20:00:00,10H70,7300-7399,ARDMORE,Robbery,road/street/sidewalk,1,20,5,Thursday,Sep,2013,7350,7350 ARDMORE,"[{'address_components': [{'long_name': '7350', 'short_name': '7350', 'types': ['street_number']}, {'long_name': 'Ardmore Street', 'short_name': 'Ardmore St', 'types': ['route']}, {'long_name': 'Southwest Houston', 'short_name': 'Southwest Houston', 'types': ['neighborhood', 'political']}, {'long_name': 'Houston', 'short_name': 'Houston', 'types': ['locality', 'political']}, {'long_name': 'Harris County', 'short_name': 'Harris County', 'types': ['administrative_area_level_2', 'political']}, {'long_name': 'Texas', 'short_name': 'TX', 'types': ['administrative_area_level_1', 'political']}, {'long_name': 'United States', 'short_name': 'US', 'types': ['country', 'political']}, {'long_name': '77054', 'short_name': '77054', 'types': ['postal_code']}, {'long_name': '4200', 'short_name': '4200', 'types': ['postal_code_suffix']}], 'formatted_address': '7350 Ardmore St, Houston, TX 77054, USA', 'geometry': {'location': {'lat': 29.690091, 'lng': -95.38185720000001}, 'location_type': 'RANGE_INTERPOLATED', 'viewport': {'northeast': {'lat': 29.6914399802915, 'lng': -95.38050821970852}, 'southwest': {'lat': 29.6887420197085, 'lng': -95.38320618029152}}}, 'place_id': 'Eic3MzUwIEFyZG1vcmUgU3QsIEhvdXN0b24sIFRYIDc3MDU0LCBVU0EiGxIZChQKEgln9lII5b9AhhEHLSlfLreJoxC2OQ', 'types': ['street_address']}]"
2013-09-06 01:00:00,10H70,6500-6599,FANNIN,Theft,hospital,1,1,6,Friday,Sep,2013,6550,6550 FANNIN,"[{'address_components': [{'long_name': '6550', 'short_name': '6550', 'types': ['street_number']}, {'long_name': 'Fannin Street', 'short_name': 'Fannin St', 'types': ['route']}, {'long_name': 'Texas Medical Center', 'short_name': 'Texas Medical Center', 'types': ['neighborhood', 'political']}, {'long_name': 'Houston', 'short_name': 'Houston', 'types': ['locality', 'political']}, {'long_name': 'Harris County', 'short_name': 'Harris County', 'types': ['administrative_area_level_2', 'political']}, {'long_name': 'Texas', 'short_name': 'TX', 'types': ['administrative_area_level_1', 'political']}, {'long_name': 'United States', 'short_name': 'US', 'types': ['country', 'political']}, {'long_name': '77030', 'short_name': '77030', 'types': ['postal_code']}], 'formatted_address': '6550 Fannin St, Houston, TX 77030, USA', 'geometry': {'location': {'lat': 29.7114478, 'lng': -95.39998759999999}, 'location_type': 'ROOFTOP', 'viewport': {'northeast': {'lat': 29.7127967802915, 'lng': -95.39863861970849}, 'southwest': {'lat': 29.7100988197085, 'lng': -95.4013365802915}}}, 'place_id': 'ChIJBx-N53DAQIYRVoH1LSDxv4k', 'types': ['street_address']}]"
2013-09-06 14:00:00,10H70,7000-7099,ALMEDA,Theft,hospital parking lot,1,14,6,Friday,Sep,2013,7050,7050 ALMEDA,"[{'address_components': [{'long_name': '7050', 'short_name': '7050', 'types': ['street_number']}, {'long_name': 'Almeda Road', 'short_name': 'Almeda Rd', 'types': ['route']}, {'long_name': 'Southwest Houston', 'short_name': 'Southwest Houston', 'types': ['neighborhood', 'political']}, {'long_name': 'Houston', 'short_name': 'Houston', 'types': ['locality', 'political']}, {'long_name': 'Harris County', 'short_name': 'Harris County', 'types': ['administrative_area_level_2', 'political']}, {'long_name': 'Texas', 'short_name': 'TX', 'types': ['administrative_area_level_1', 'political']}, {'long_name': 'United States', 'short_name': 'US', 'types': ['country', 'political']}, {'long_name': '77054', 'short_name': '77054', 'types': ['postal_code']}], 'formatted_address': '7050 Almeda Rd, Houston, TX 77054, USA', 'geometry': {'location': {'lat': 29.6971089, 'lng': -95.387974}, 'location_type': 'RANGE_INTERPOLATED', 'viewport': {'northeast': {'lat': 29.6984578802915, 'lng': -95.38662501970849}, 'southwest': {'lat': 29.6957599197085, 'lng': -95.38932298029151}}}, 'place_id': 'EiY3MDUwIEFsbWVkYSBSZCwgSG91c3RvbiwgVFggNzcwNTQsIFVTQSIbEhkKFAoSCbUSk17xv0CGESJdjUMQVsF0EIo3', 'types': ['street_address']}]"
2013-09-06 18:00:00,10H70,4000-4099,HAMILTON,Theft,church/synagogue/temple parking lot,1,18,6,Friday,Sep,2013,4050,4050 HAMILTON,"[{'address_components': [{'long_name': '1800', 'short_name': '1800', 'types': ['street_number']}, {'long_name': 'Saint Joseph Parkway', 'short_name': 'St Joseph Pkwy', 'types': ['route']}, {'long_name': 'Central Business District', 'short_name': 'Central Business District', 'types': ['neighborhood', 'political']}, {'long_name': 'Houston', 'short_name': 'Houston', 'types': ['locality', 'political']}, {'long_name': 'Harris County', 'short_name': 'Harris County', 'types': ['administrative_area_level_2', 'political']}, {'long_name': 'Texas', 'short_name': 'TX', 'types': ['administrative_area_level_1', 'political']}, {'long_name': 'United States', 'short_name': 'US', 'types': ['country', 'political']}, {'long_name': '77003', 'short_name': '77003', 'types': ['postal_code']}], 'formatted_address': '1800 St Joseph Pkwy, Houston, TX 77003, USA', 'geometry': {'location': {'lat': 29.745751, 'lng': -95.36312}, 'location_type': 'ROOFTOP', 'viewport': {'northeast': {'lat': 29.7470999802915, 'lng': -95.36177101970848}, 'southwest': {'lat': 29.7444020197085, 'lng': -95.3644689802915}}}, 'place_id': 'ChIJm5a4Zxe_QIYRoLLuADI4O70', 'types': ['establishment', 'point_of_interest']}]"
2013-09-06 18:00:00,10H70,6300-6399,ALMEDA,Theft,apartment,1,18,6,Friday,Sep,2013,6350,6350 ALMEDA,"[{'address_components': [{'long_name': '6350', 'short_name': '6350', 'types': ['street_number']}, {'long_name': 'Almeda Road', 'short_name': 'Almeda Rd', 'types': ['route']}, {'long_name': 'Southwest Houston', 'short_name': 'Southwest Houston', 'types': ['neighborhood', 'political']}, {'long_name': 'Houston', 'short_name': 'Houston', 'types': ['locality', 'political']}, {'long_name': 'Harris County', 'short_name': 'Harris County', 'types': ['administrative_area_level_2', 'political']}, {'long_name': 'Texas', 'short_name': 'TX', 'types': ['administrative_area_level_1', 'political']}, {'long_name': 'United States', 'short_name': 'US', 'types': ['country', 'political']}, {'long_name': '77030', 'short_name': '77030', 'types': ['postal_code']}], 'formatted_address': '6350 Almeda Rd, Houston, TX 77030, USA', 'geometry': {'location': {'lat': 29.7094197, 'lng': -95.3834505}, 'location_type': 'RANGE_INTERPOLATED', 'viewport': {'northeast': {'lat': 29.7107686802915, 'lng': -95.3821015197085}, 'southwest': {'lat': 29.7080707197085, 'lng': -95.3847994802915}}}, 'place_id': 'EiY2MzUwIEFsbWVkYSBSZCwgSG91c3RvbiwgVFggNzcwMzAsIFVTQSIbEhkKFAoSCWnXigGOv0CGEZdfR9eQFoTVEM4x', 'types': ['street_address']}]"
2013-09-06 22:00:00,10H70,2100-2199,OAKDALE,Robbery,road/street/sidewalk,1,22,6,Friday,Sep,2013,2150,2150 OAKDALE,"[{'address_components': [{'long_name': '2150', 'short_name': '2150', 'types': ['street_number']}, {'long_name': 'Oakdale Street', 'short_name': 'Oakdale St', 'types': ['route']}, {'long_name': 'South Central Houston', 'short_name': 'South Central Houston', 'types': ['neighborhood', 'political']}, {'long_name': 'Houston', 'short_name': 'Houston', 'types': ['locality', 'political']}, {'long_name': 'Harris County', 'short_name': 'Harris County', 'types': ['administrative_area_level_2', 'political']}, {'long_name': 'Texas', 'short_name': 'TX', 'types': ['administrative_area_level_1', 'political']}, {'long_name': 'United States', 'short_name': 'US', 'types': ['country', 'political']}, {'long_name': '77004', 'short_name': '77004', 'types': ['postal_code']}, {'long_name': '7410', 'short_name': '7410', 'types': ['postal_code_suffix']}], 'formatted_address': '2150 Oakdale St, Houston, TX 77004, USA', 'geometry': {'location': {'lat': 29.7214306, 'lng': -95.3781365}, 'location_type': 'RANGE_INTERPOLATED', 'viewport': {'northeast': {'lat': 29.7227795802915, 'lng': -95.37678751970849}, 'southwest': {'lat': 29.7200816197085, 'lng': -95.37948548029149}}}, 'place_id': 'EicyMTUwIE9ha2RhbGUgU3QsIEhvdXN0b24sIFRYIDc3MDA0LCBVU0EiGxIZChQKEglL9IEfnL9AhhGc56LuRS2ssRDmEA', 'types': ['street_address']}]"
2013-09-07 00:00:00,10H70,6400-6499,FANNIN,Rape,other/unknown,1,0,7,Saturday,Sep,2013,6450,6450 FANNIN,"[{'address_components': [{'long_name': '6450', 'short_name': '6450', 'types': ['street_number']}, {'long_name': 'Fannin Street', 'short_name': 'Fannin St', 'types': ['route']}, {'long_name': 'Southeast Houston', 'short_name': 'Southeast Houston', 'types': ['neighborhood', 'political']}, {'long_name': 'Houston', 'short_name': 'Houston', 'types': ['locality', 'political']}, {'long_name': 'Harris County', 'short_name': 'Harris County', 'types': ['administrative_area_level_2', 'political']}, {'long_name': 'Texas', 'short_name': 'TX', 'types': ['administrative_area_level_1', 'political']}, {'long_name': 'United States', 'short_name': 'US', 'types': ['country', 'political']}, {'long_name': '77030', 'short_name': '77030', 'types': ['postal_code']}], 'formatted_address': '6450 Fannin St, Houston, TX 77030, USA', 'geometry': {'location': {'lat': 29.7121633, 'lng': -95.399011}, 'location_type': 'RANGE_INTERPOLATED', 'viewport': {'northeast': {'lat': 29.7135122802915, 'lng': -95.39766201970849}, 'southwest': {'lat': 29.7108143197085, 'lng': -95.40035998029151}}}, 'place_id': 'EiY2NDUwIEZhbm5pbiBTdCwgSG91c3RvbiwgVFggNzcwMzAsIFVTQSIbEhkKFAoSCd8CW9JwwECGEVV5pvdDd2bdELIy', 'types': ['street_address']}]"
2013-09-07 14:00:00,10H70,1600-1699,HERMANN,Theft,other parking lot,1,14,7,Saturday,Sep,2013,1650,1650 HERMANN,"[{'address_components': [{'long_name': '1650', 'short_name': '1650', 'types': ['street_number']}, {'long_name': 'Hermann Drive', 'short_name': 'Hermann Dr', 'types': ['route']}, {'long_name': 'Southwest Houston', 'short_name': 'Southwest Houston', 'types': ['neighborhood', 'political']}, {'long_name': 'Houston', 'short_name': 'Houston', 'types': ['locality', 'political']}, {'long_name': 'Harris County', 'short_name': 'Harris County', 'types': ['administrative_area_level_2', 'political']}, {'long_name': 'Texas', 'short_name': 'TX', 'types': ['administrative_area_level_1', 'political']}, {'long_name': 'United States', 'short_name': 'US', 'types': ['country', 'political']}, {'long_name': '77004', 'short_name': '77004', 'types': ['postal_code']}], 'formatted_address': '1650 Hermann Dr, Houston, TX 77004, USA', 'geometry': {'location': {'lat': 29.7209322, 'lng': -95.3862212}, 'location_type': 'RANGE_INTERPOLATED', 'viewport': {'northeast': {'lat': 29.7222811802915, 'lng': -95.3848722197085}, 'southwest': {'lat': 29.7195832197085, 'lng': -95.3875701802915}}}, 'place_id': 'EicxNjUwIEhlcm1hbm4gRHIsIEhvdXN0b24sIFRYIDc3MDA0LCBVU0EiGxIZChQKEgmH6eqeg79AhhFUa4Qn4c3nExDyDA', 'types': ['street_address']}]"
2013-09-07 21:00:00,10H70,6200-6299,HERMANN PARK,Theft,other parking lot,1,21,7,Saturday,Sep,2013,6250,6250 HERMANN PARK,"[{'address_components': [{'long_name': '6250', 'short_name': '6250', 'types': ['street_number']}, {'long_name': 'Hermann Park Drive', 'short_name': 'Hermann Park Dr', 'types': ['route']}, {'long_name': 'Southeast Houston', 'short_name': 'Southeast Houston', 'types': ['neighborhood', 'political']}, {'long_name': 'Houston', 'short_name': 'Houston', 'types': ['locality', 'political']}, {'long_name': 'Harris County', 'short_name': 'Harris County', 'types': ['administrative_area_level_2', 'political']}, {'long_name': 'Texas', 'short_name': 'TX', 'types': ['administrative_area_level_1', 'political']}, {'long_name': 'United States', 'short_name': 'US', 'types': ['country', 'political']}, {'long_name': '77030', 'short_name': '77030', 'types': ['postal_code']}], 'formatted_address': '6250 Hermann Park Dr, Houston, TX 77030, USA', 'geometry': {'location': {'lat': 29.7201023, 'lng': -95.3876909}, 'location_type': 'RANGE_INTERPOLATED', 'viewport': {'northeast': {'lat': 29.7214512802915, 'lng': -95.3863419197085}, 'southwest': {'lat': 29.7187533197085, 'lng': -95.3890398802915}}}, 'place_id': 'Eiw2MjUwIEhlcm1hbm4gUGFyayBEciwgSG91c3RvbiwgVFggNzcwMzAsIFVTQSIbEhkKFAoSCW-AAQqEv0CGEdYEbD5w01e3EOow', 'types': ['street_address']}]"
2013-09-08 00:00:00,10H70,6300-6399,ALMEDA,Theft,apartment parking lot,1,0,8,Sunday,Sep,2013,6350,6350 ALMEDA,"[{'address_components': [{'long_name': '6350', 'short_name': '6350', 'types': ['street_number']}, {'long_name': 'Almeda Road', 'short_name': 'Almeda Rd', 'types': ['route']}, {'long_name': 'Southwest Houston', 'short_name': 'Southwest Houston', 'types': ['neighborhood', 'political']}, {'long_name': 'Houston', 'short_name': 'Houston', 'types': ['locality', 'political']}, {'long_name': 'Harris County', 'short_name': 'Harris County', 'types': ['administrative_area_level_2', 'political']}, {'long_name': 'Texas', 'short_name': 'TX', 'types': ['administrative_area_level_1', 'political']}, {'long_name': 'United States', 'short_name': 'US', 'types': ['country', 'political']}, {'long_name': '77030', 'short_name': '77030', 'types': ['postal_code']}], 'formatted_address': '6350 Almeda Rd, Houston, TX 77030, USA', 'geometry': {'location': {'lat': 29.7094197, 'lng': -95.3834505}, 'location_type': 'RANGE_INTERPOLATED', 'viewport': {'northeast': {'lat': 29.7107686802915, 'lng': -95.3821015197085}, 'southwest': {'lat': 29.7080707197085, 'lng': -95.3847994802915}}}, 'place_id': 'EiY2MzUwIEFsbWVkYSBSZCwgSG91c3RvbiwgVFggNzcwMzAsIFVTQSIbEhkKFAoSCWnXigGOv0CGEZdfR9eQFoTVEM4x', 'types': ['street_address']}]"
2013-09-08 07:00:00,10H70,1500-1599,BEN TAUB LOOP,Theft,hospital,1,7,8,Sunday,Sep,2013,1550,1550 BEN TAUB LOOP,"[{'address_components': [{'long_name': '1550', 'short_name': '1550', 'types': ['street_number']}, {'long_name': 'Ben Taub Loop', 'short_name': 'Ben Taub Loop', 'types': ['route']}, {'long_name': 'Southwest Houston', 'short_name': 'Southwest Houston', 'types': ['neighborhood', 'political']}, {'long_name': 'Houston', 'short_name': 'Houston', 'types': ['locality', 'political']}, {'long_name': 'Harris County', 'short_name': 'Harris County', 'types': ['administrative_area_level_2', 'political']}, {'long_name': 'Texas', 'short_name': 'TX', 'types': ['administrative_area_level_1', 'political']}, {'long_name': 'United States', 'short_name': 'US', 'types': ['country', 'political']}, {'long_name': '77030', 'short_name': '77030', 'types': ['postal_code']}], 'formatted_address': '1550 Ben Taub Loop, Houston, TX 77030, USA', 'geometry': {'location': {'lat': 29.7115258, 'lng': -95.3944969}, 'location_type': 'RANGE_INTERPOLATED', 'viewport': {'northeast': {'lat': 29.7128747802915, 'lng': -95.39314791970848}, 'southwest': {'lat': 29.7101768197085, 'lng': -95.3958458802915}}}, 'place_id': 'EioxNTUwIEJlbiBUYXViIExvb3AsIEhvdXN0b24sIFRYIDc3MDMwLCBVU0EiGxIZChQKEgnllHvWd8BAhhGhL4MySaCZjxCODA', 'types': ['street_address']}]"
2013-09-08 13:00:00,10H70,6000-6099,FANNIN,Theft,"parks & recreation, zoo, swim pool",1,13,8,Sunday,Sep,2013,6050,6050 FANNIN,"[{'address_components': [{'long_name': '6050', 'short_name': '6050', 'types': ['street_number']}, {'long_name': 'Fannin Street', 'short_name': 'Fannin St', 'types': ['route']}, {'long_name': 'Southeast Houston', 'short_name': 'Southeast Houston', 'types': ['neighborhood', 'political']}, {'long_name': 'Houston', 'short_name': 'Houston', 'types': ['locality', 'political']}, {'long_name': 'Harris County', 'short_name': 'Harris County', 'types': ['administrative_area_level_2', 'political']}, {'long_name': 'Texas', 'short_name': 'TX', 'types': ['administrative_area_level_1', 'political']}, {'long_name': 'United States', 'short_name': 'US', 'types': ['country', 'political']}, {'long_name': '77030', 'short_name': '77030', 'types': ['postal_code']}], 'formatted_address': '6050 Fannin St, Houston, TX 77030, USA', 'geometry': {'location': {'lat': 29.7201937, 'lng': -95.3935796}, 'location_type': 'RANGE_INTERPOLATED', 'viewport': {'northeast': {'lat': 29.7215426802915, 'lng': -95.3922306197085}, 'southwest': {'lat': 29.7188447197085, 'lng': -95.3949285802915}}}, 'place_id': 'EiY2MDUwIEZhbm5pbiBTdCwgSG91c3RvbiwgVFggNzcwMzAsIFVTQSIbEhkKFAoSCa9bGaR4wECGEVUSV-dictt2EKIv', 'types': ['street_address']}]"
2013-09-08 17:00:00,10H70,5300-5399,CHENEVERT,Burglary,apartment,1,17,8,Sunday,Sep,2013,5350,5350 CHENEVERT,"[{'address_components': [{'long_name': '5350', 'short_name': '5350', 'types': ['street_number']}, {'long_name': 'Chenevert Street', 'short_name': 'Chenevert St', 'types': ['route']}, {'long_name': 'South Central Houston', 'short_name': 'South Central Houston', 'types': ['neighborhood', 'political']}, {'long_name': 'Houston', 'short_name': 'Houston', 'types': ['locality', 'political']}, {'long_name': 'Harris County', 'short_name': 'Harris County', 'types': ['administrative_area_level_2', 'political']}, {'long_name': 'Texas', 'short_name': 'TX', 'types': ['administrative_area_level_1', 'political']}, {'long_name': 'United States', 'short_name': 'US', 'types': ['country', 'political']}, {'long_name': '77004', 'short_name': '77004', 'types': ['postal_code']}], 'formatted_address': '5350 Chenevert St, Houston, TX 77004, USA', 'geometry': {'location': {'lat': 29.7232954, 'lng': -95.38172209999999}, 'location_type': 'RANGE_INTERPOLATED', 'viewport': {'northeast': {'lat': 29.7246443802915, 'lng': -95.3803731197085}, 'southwest': {'lat': 29.7219464197085, 'lng': -95.3830710802915}}}, 'place_id': 'Eik1MzUwIENoZW5ldmVydCBTdCwgSG91c3RvbiwgVFggNzcwMDQsIFVTQSIbEhkKFAoSCSEo_QKdv0CGEVFTkt8gpKGyEOYp', 'types': ['street_address']}]"
2013-09-09 06:00:00,10H70,4100-4199,ALMEDA,Theft,service/gas station,1,6,9,Monday,Sep,2013,4150,4150 ALMEDA,"[{'address_components': [{'long_name': '4150', 'short_name': '4150', 'types': ['street_number']}, {'long_name': 'Almeda Road', 'short_name': 'Almeda Rd', 'types': ['route']}, {'long_name': 'South Central Houston', 'short_name': 'South Central Houston', 'types': ['neighborhood', 'political']}, {'long_name': 'Houston', 'short_name': 'Houston', 'types': ['locality', 'political']}, {'long_name': 'Harris County', 'short_name': 'Harris County', 'types': ['administrative_area_level_2', 'political']}, {'long_name': 'Texas', 'short_name': 'TX', 'types': ['administrative_area_level_1', 'political']}, {'long_name': 'United States', 'short_name': 'US', 'types': ['country', 'political']}, {'long_name': '77004', 'short_name': '77004', 'types': ['postal_code']}, {'long_name': '4810', 'short_name': '4810', 'types': ['postal_code_suffix']}], 'formatted_address': '4150 Almeda Rd, Houston, TX 77004, USA', 'geometry': {'location': {'lat': 29.7319824, 'lng': -95.37600909999999}, 'location_type': 'RANGE_INTERPOLATED', 'viewport': {'northeast': {'lat': 29.7333313802915, 'lng': -95.37466011970848}, 'southwest': {'lat': 29.7306334197085, 'lng': -95.3773580802915}}}, 'place_id': 'EiY0MTUwIEFsbWVkYSBSZCwgSG91c3RvbiwgVFggNzcwMDQsIFVTQSIbEhkKFAoSCU09C2N0v0CGEU2Ns7ox59aNELYg', 'types': ['street_address']}]"
2013-09-09 15:00:00,10H70,5200-5299,AUSTIN,Aggravated Assault,road/street/sidewalk,1,15,9,Monday,Sep,2013,5250,5250 AUSTIN,"[{'address_components': [{'long_name': '5250', 'short_name': '5250', 'types': ['street_number']}, {'long_name': 'Austin Street', 'short_name': 'Austin St', 'types': ['route']}, {'long_name': 'South Central Houston', 'short_name': 'South Central Houston', 'types': ['neighborhood', 'political']}, {'long_name': 'Houston', 'short_name': 'Houston', 'types': ['locality', 'political']}, {'long_name': 'Harris County', 'short_name': 'Harris County', 'types': ['administrative_area_level_2', 'political']}, {'long_name': 'Texas', 'short_name': 'TX', 'types': ['administrative_area_level_1', 'political']}, {'long_name': 'United States', 'short_name': 'US', 'types': ['country', 'political']}, {'long_name': '77004', 'short_name': '77004', 'types': ['postal_code']}], 'formatted_address': '5250 Austin St, Houston, TX 77004, USA', 'geometry': {'location': {'lat': 29.7260713, 'lng': -95.3842866}, 'location_type': 'RANGE_INTERPOLATED', 'viewport': {'northeast': {'lat': 29.7274202802915, 'lng': -95.38293761970849}, 'southwest': {'lat': 29.7247223197085, 'lng': -95.3856355802915}}}, 'place_id': 'EiY1MjUwIEF1c3RpbiBTdCwgSG91c3RvbiwgVFggNzcwMDQsIFVTQSIbEhkKFAoSCXcYNwh4v0CGEeYAwyO2Wp76EIIp', 'types': ['street_address']}]"
2013-09-09 20:00:00,10H70,4400-4499,CRAWFORD,Theft,road/street/sidewalk,1,20,9,Monday,Sep,2013,4450,4450 CRAWFORD,"[{'address_components': [{'long_name': '4450', 'short_name': '4450', 'types': ['street_number']}, {'long_name': 'Crawford Street', 'short_name': 'Crawford St', 'types': ['route']}, {'long_name': 'South Central Houston', 'short_name': 'South Central Houston', 'types': ['neighborhood', 'political']}, {'long_name': 'Houston', 'short_name': 'Houston', 'types': ['locality', 'political']}, {'long_name': 'Harris County', 'short_name': 'Harris County', 'types': ['administrative_area_level_2', 'political']}, {'long_name': 'Texas', 'short_name': 'TX', 'types': ['administrative_area_level_1', 'political']}, {'long_name': 'United States', 'short_name': 'US', 'types': ['country', 'political']}, {'long_name': '77004', 'short_name': '77004', 'types': ['postal_code']}], 'formatted_address': '4450 Crawford St, Houston, TX 77004, USA', 'geometry': {'location': {'lat': 29.7309404, 'lng': -95.3783833}, 'location_type': 'RANGE_INTERPOLATED', 'viewport': {'northeast': {'lat': 29.7322893802915, 'lng': -95.37703431970849}, 'southwest': {'lat': 29.7295914197085, 'lng': -95.3797322802915}}}, 'place_id': 'Eig0NDUwIENyYXdmb3JkIFN0LCBIb3VzdG9uLCBUWCA3NzAwNCwgVVNBIhsSGQoUChIJq_K4H3S_QIYRRlmr4h_TAAEQ4iI', 'types': ['street_address']}]"
2013-09-10 19:00:00,10H70,3200-3299,OLD SPANISH,Theft,residence/house,1,19,10,Tuesday,Sep,2013,3250,3250 OLD SPANISH,"[{'address_components': [{'long_name': '3250', 'short_name': '3250', 'types': ['street_number']}, {'long_name': 'Old Spanish Trail', 'short_name': 'Old Spanish Trail', 'types': ['route']}, {'long_name': 'Astrodome', 'short_name': 'Astrodome', 'types': ['neighborhood', 'political']}, {'long_name': 'Houston', 'short_name': 'Houston', 'types': ['locality', 'political']}, {'long_name': 'Harris County', 'short_name': 'Harris County', 'types': ['administrative_area_level_2', 'political']}, {'long_name': 'Texas', 'short_name': 'TX', 'types': ['administrative_area_level_1', 'political']}, {'long_name': 'United States', 'short_name': 'US', 'types': ['country', 'political']}, {'long_name': '77021', 'short_name': '77021', 'types': ['postal_code']}, {'long_name': '2123', 'short_name': '2123', 'types': ['postal_code_suffix']}], 'formatted_address': '3250 Old Spanish Trail, Houston, TX 77021, USA', 'geometry': {'location': {'lat': 29.7004935, 'lng': -95.37647799999999}, 'location_type': 'ROOFTOP', 'viewport': {'northeast': {'lat': 29.7018424802915, 'lng': -95.37512901970848}, 'southwest': {'lat': 29.6991445197085, 'lng': -95.37782698029149}}}, 'place_id': 'ChIJOdrLCeu_QIYRRW4UrLXfzGU', 'types': ['street_address']}]"
2013-09-10 21:00:00,10H70,4800-4899,AUSTIN,Auto Theft,"multi-plex hme(duplex,triplex etc)",1,21,10,Tuesday,Sep,2013,4850,4850 AUSTIN,"[{'address_components': [{'long_name': '4850', 'short_name': '4850', 'types': ['street_number']}, {'long_name': 'Austin Street', 'short_name': 'Austin St', 'types': ['route']}, {'long_name': 'South Central Houston', 'short_name': 'South Central Houston', 'types': ['neighborhood', 'political']}, {'long_name': 'Houston', 'short_name': 'Houston', 'types': ['locality', 'political']}, {'long_name': 'Harris County', 'short_name': 'Harris County', 'types': ['administrative_area_level_2', 'political']}, {'long_name': 'Texas', 'short_name': 'TX', 'types': ['administrative_area_level_1', 'political']}, {'long_name': 'United States', 'short_name': 'US', 'types': ['country', 'political']}, {'long_name': '77004', 'short_name': '77004', 'types': ['postal_code']}], 'formatted_address': '4850 Austin St, Houston, TX 77004, USA', 'geometry': {'location': {'lat': 29.7285413, 'lng': -95.3826756}, 'location_type': 'RANGE_INTERPOLATED', 'viewport': {'northeast': {'lat': 29.7298902802915, 'lng': -95.38132661970849}, 'southwest': {'lat': 29.7271923197085, 'lng': -95.38402458029151}}}, 'place_id': 'EiY0ODUwIEF1c3RpbiBTdCwgSG91c3RvbiwgVFggNzcwMDQsIFVTQSIbEhkKFAoSCUWcXaB3v0CGEe7crbDxmSBLEPIl', 'types': ['street_address']}]"
2013-09-10 22:00:00,10H70,5400-5499,ALMEDA,Theft,bank,1,22,10,Tuesday,Sep,2013,5450,5450 ALMEDA,"[{'address_components': [{'long_name': '5450', 'short_name': '5450', 'types': ['street_number']}, {'long_name': 'Almeda Road', 'short_name': 'Almeda Rd', 'types': ['route']}, {'long_name': 'South Central Houston', 'short_name': 'South Central Houston', 'types': ['neighborhood', 'political']}, {'long_name': 'Houston', 'short_name': 'Houston', 'types': ['locality', 'political']}, {'long_name': 'Harris County', 'short_name': 'Harris County', 'types': ['administrative_area_level_2', 'political']}, {'long_name': 'Texas', 'short_name': 'TX', 'types': ['administrative_area_level_1', 'political']}, {'long_name': 'United States', 'short_name': 'US', 'types': ['country', 'political']}, {'long_name': '77004', 'short_name': '77004', 'types': ['postal_code']}], 'formatted_address': '5450 Almeda Rd, Houston, TX 77004, USA', 'geometry': {'location': {'lat': 29.72120979999999, 'lng': -95.3795678}, 'location_type': 'RANGE_INTERPOLATED', 'viewport': {'northeast': {'lat': 29.72255878029149, 'lng': -95.37821881970851}, 'southwest': {'lat': 29.7198608197085, 'lng': -95.38091678029151}}}, 'place_id': 'EiY1NDUwIEFsbWVkYSBSZCwgSG91c3RvbiwgVFggNzcwMDQsIFVTQSIbEhkKFAoSCXt9dRKcv0CGEQ-SFHHXLBSTEMoq', 'types': ['street_address']}]"
2013-09-11 12:00:00,10H70,7400-7499,ALMEDA,Theft,other/unknown,1,12,11,Wednesday,Sep,2013,7450,7450 ALMEDA,"[{'address_components': [{'long_name': '7450', 'short_name': '7450', 'types': ['street_number']}, {'long_name': 'Almeda Road', 'short_name': 'Almeda Rd', 'types': ['route']}, {'long_name': 'Southwest Houston', 'short_name': 'Southwest Houston', 'types': ['neighborhood', 'political']}, {'long_name': 'Houston', 'short_name': 'Houston', 'types': ['locality', 'political']}, {'long_name': 'Harris County', 'short_name': 'Harris County', 'types': ['administrative_area_level_2', 'political']}, {'long_name': 'Texas', 'short_name': 'TX', 'types': ['administrative_area_level_1', 'political']}, {'long_name': 'United States', 'short_name': 'US', 'types': ['country', 'political']}, {'long_name': '77054', 'short_name': '77054', 'types': ['postal_code']}], 'formatted_address': '7450 Almeda Rd, Houston, TX 77054, USA', 'geometry': {'location': {'lat': 29.6922871, 'lng': -95.38956360000002}, 'location_type': 'RANGE_INTERPOLATED', 'viewport': {'northeast': {'lat': 29.6936360802915, 'lng': -95.38821461970852}, 'southwest': {'lat': 29.6909381197085, 'lng': -95.39091258029153}}}, 'place_id': 'EiY3NDUwIEFsbWVkYSBSZCwgSG91c3RvbiwgVFggNzcwNTQsIFVTQSIbEhkKFAoSCZGog0_3v0CGETC9-0fBzA3iEJo6', 'types': ['street_address']}]"
2013-09-11 13:00:00,10H70,1500-1599,BEN TAUB LOOP,Theft,hospital parking lot,1,13,11,Wednesday,Sep,2013,1550,1550 BEN TAUB LOOP,"[{'address_components': [{'long_name': '1550', 'short_name': '1550', 'types': ['street_number']}, {'long_name': 'Ben Taub Loop', 'short_name': 'Ben Taub Loop', 'types': ['route']}, {'long_name': 'Southwest Houston', 'short_name': 'Southwest Houston', 'types': ['neighborhood', 'political']}, {'long_name': 'Houston', 'short_name': 'Houston', 'types': ['locality', 'political']}, {'long_name': 'Harris County', 'short_name': 'Harris County', 'types': ['administrative_area_level_2', 'political']}, {'long_name': 'Texas', 'short_name': 'TX', 'types': ['administrative_area_level_1', 'political']}, {'long_name': 'United States', 'short_name': 'US', 'types': ['country', 'political']}, {'long_name': '77030', 'short_name': '77030', 'types': ['postal_code']}], 'formatted_address': '1550 Ben Taub Loop, Houston, TX 77030, USA', 'geometry': {'location': {'lat': 29.7115258, 'lng': -95.3944969}, 'location_type': 'RANGE_INTERPOLATED', 'viewport': {'northeast': {'lat': 29.7128747802915, 'lng': -95.39314791970848}, 'southwest': {'lat': 29.7101768197085, 'lng': -95.3958458802915}}}, 'place_id': 'EioxNTUwIEJlbiBUYXViIExvb3AsIEhvdXN0b24sIFRYIDc3MDMwLCBVU0EiGxIZChQKEgnllHvWd8BAhhGhL4MySaCZjxCODA', 'types': ['street_address']}]"
2013-09-11 19:00:00,10H70,6500-6599,FANNIN,Theft,commercial parking lot/garage,1,19,11,Wednesday,Sep,2013,6550,6550 FANNIN,"[{'address_components': [{'long_name': '6550', 'short_name': '6550', 'types': ['street_number']}, {'long_name': 'Fannin Street', 'short_name': 'Fannin St', 'types': ['route']}, {'long_name': 'Texas Medical Center', 'short_name': 'Texas Medical Center', 'types': ['neighborhood', 'political']}, {'long_name': 'Houston', 'short_name': 'Houston', 'types': ['locality', 'political']}, {'long_name': 'Harris County', 'short_name': 'Harris County', 'types': ['administrative_area_level_2', 'political']}, {'long_name': 'Texas', 'short_name': 'TX', 'types': ['administrative_area_level_1', 'political']}, {'long_name': 'United States', 'short_name': 'US', 'types': ['country', 'political']}, {'long_name': '77030', 'short_name': '77030', 'types': ['postal_code']}], 'formatted_address': '6550 Fannin St, Houston, TX 77030, USA', 'geometry': {'location': {'lat': 29.7114478, 'lng': -95.39998759999999}, 'location_type': 'ROOFTOP', 'viewport': {'northeast': {'lat': 29.7127967802915, 'lng': -95.39863861970849}, 'southwest': {'lat': 29.7100988197085, 'lng': -95.4013365802915}}}, 'place_id': 'ChIJBx-N53DAQIYRVoH1LSDxv4k', 'types': ['street_address']}]"
2013-09-12 15:00:00,10H70,6400-6499,FANNIN,Theft,hospital,1,15,12,Thursday,Sep,2013,6450,6450 FANNIN,"[{'address_components': [{'long_name': '6450', 'short_name': '6450', 'types': ['street_number']}, {'long_name': 'Fannin Street', 'short_name': 'Fannin St', 'types': ['route']}, {'long_name': 'Southeast Houston', 'short_name': 'Southeast Houston', 'types': ['neighborhood', 'political']}, {'long_name': 'Houston', 'short_name': 'Houston', 'types': ['locality', 'political']}, {'long_name': 'Harris County', 'short_name': 'Harris County', 'types': ['administrative_area_level_2', 'political']}, {'long_name': 'Texas', 'short_name': 'TX', 'types': ['administrative_area_level_1', 'political']}, {'long_name': 'United States', 'short_name': 'US', 'types': ['country', 'political']}, {'long_name': '77030', 'short_name': '77030', 'types': ['postal_code']}], 'formatted_address': '6450 Fannin St, Houston, TX 77030, USA', 'geometry': {'location': {'lat': 29.7121633, 'lng': -95.399011}, 'location_type': 'RANGE_INTERPOLATED', 'viewport': {'northeast': {'lat': 29.7135122802915, 'lng': -95.39766201970849}, 'southwest': {'lat': 29.7108143197085, 'lng': -95.40035998029151}}}, 'place_id': 'EiY2NDUwIEZhbm5pbiBTdCwgSG91c3RvbiwgVFggNzcwMzAsIFVTQSIbEhkKFAoSCd8CW9JwwECGEVV5pvdDd2bdELIy', 'types': ['street_address']}]"
2013-09-12 18:00:00,10H70,5500-5599,HERMANN PARK,Theft,commercial parking lot/garage,1,18,12,Thursday,Sep,2013,5550,5550 HERMANN PARK,"[{'address_components': [{'long_name': '5550', 'short_name': '5550', 'types': ['street_number']}, {'long_name': 'Hermann Park Drive', 'short_name': 'Hermann Park Dr', 'types': ['route']}, {'long_name': 'Southeast Houston', 'short_name': 'Southeast Houston', 'types': ['neighborhood', 'political']}, {'long_name': 'Houston', 'short_name': 'Houston', 'types': ['locality', 'political']}, {'long_name': 'Harris County', 'short_name': 'Harris County', 'types': ['administrative_area_level_2', 'political']}, {'long_name': 'Texas', 'short_name': 'TX', 'types': ['administrative_area_level_1', 'political']}, {'long_name': 'United States', 'short_name': 'US', 'types': ['country', 'political']}, {'long_name': '77030', 'short_name': '77030', 'types': ['postal_code']}], 'formatted_address': '5550 Hermann Park Dr, Houston, TX 77030, USA', 'geometry': {'location': {'lat': 29.7204258, 'lng': -95.3879747}, 'location_type': 'RANGE_INTERPOLATED', 'viewport': {'northeast': {'lat': 29.7217747802915, 'lng': -95.38662571970849}, 'southwest': {'lat': 29.7190768197085, 'lng': -95.3893236802915}}}, 'place_id': 'Eiw1NTUwIEhlcm1hbm4gUGFyayBEciwgSG91c3RvbiwgVFggNzcwMzAsIFVTQSIbEhkKFAoSCUV2FPeDv0CGEePiqrbdUGeiEK4r', 'types': ['street_address']}]"
2013-09-12 20:00:00,10H70,5900-5999,FANNIN,Theft,other parking lot,1,20,12,Thursday,Sep,2013,5950,5950 FANNIN,"[{'address_components': [{'long_name': '5950', 'short_name': '5950', 'types': ['street_number']}, {'long_name': 'Fannin Street', 'short_name': 'Fannin St', 'types': ['route']}, {'long_name': 'Southeast Houston', 'short_name': 'Southeast Houston', 'types': ['neighborhood', 'political']}, {'long_name': 'Houston', 'short_name': 'Houston', 'types': ['locality', 'political']}, {'long_name': 'Harris County', 'short_name': 'Harris County', 'types': ['administrative_area_level_2', 'political']}, {'long_name': 'Texas', 'short_name': 'TX', 'types': ['administrative_area_level_1', 'political']}, {'long_name': 'United States', 'short_name': 'US', 'types': ['country', 'political']}, {'long_name': '77030', 'short_name': '77030', 'types': ['postal_code']}], 'formatted_address': '5950 Fannin St, Houston, TX 77030, USA', 'geometry': {'location': {'lat': 29.72251, 'lng': -95.3916474}, 'location_type': 'RANGE_INTERPOLATED', 'viewport': {'northeast': {'lat': 29.7238589802915, 'lng': -95.39029841970849}, 'southwest': {'lat': 29.7211610197085, 'lng': -95.3929963802915}}}, 'place_id': 'EiY1OTUwIEZhbm5pbiBTdCwgSG91c3RvbiwgVFggNzcwMzAsIFVTQSIbEhkKFAoSCYnmhu-Av0CGESu-kxFsyYNAEL4u', 'types': ['street_address']}]"
2013-09-13 00:00:00,10H70,4100-4199,ALMEDA,Theft,service/gas station,1,0,13,Friday,Sep,2013,4150,4150 ALMEDA,"[{'address_components': [{'long_name': '4150', 'short_name': '4150', 'types': ['street_number']}, {'long_name': 'Almeda Road', 'short_name': 'Almeda Rd', 'types': ['route']}, {'long_name': 'South Central Houston', 'short_name': 'South Central Houston', 'types': ['neighborhood', 'political']}, {'long_name': 'Houston', 'short_name': 'Houston', 'types': ['locality', 'political']}, {'long_name': 'Harris County', 'short_name': 'Harris County', 'types': ['administrative_area_level_2', 'political']}, {'long_name': 'Texas', 'short_name': 'TX', 'types': ['administrative_area_level_1', 'political']}, {'long_name': 'United States', 'short_name': 'US', 'types': ['country', 'political']}, {'long_name': '77004', 'short_name': '77004', 'types': ['postal_code']}, {'long_name': '4810', 'short_name': '4810', 'types': ['postal_code_suffix']}], 'formatted_address': '4150 Almeda Rd, Houston, TX 77004, USA', 'geometry': {'location': {'lat': 29.7319824, 'lng': -95.37600909999999}, 'location_type': 'RANGE_INTERPOLATED', 'viewport': {'northeast': {'lat': 29.7333313802915, 'lng': -95.37466011970848}, 'southwest': {'lat': 29.7306334197085, 'lng': -95.3773580802915}}}, 'place_id': 'EiY0MTUwIEFsbWVkYSBSZCwgSG91c3RvbiwgVFggNzcwMDQsIFVTQSIbEhkKFAoSCU09C2N0v0CGEU2Ns7ox59aNELYg', 'types': ['street_address']}]"
2013-09-13 07:00:00,10H70,3200-3299,YELLOWSTONE,Auto Theft,grocery/supermarket,1,7,13,Friday,Sep,2013,3250,3250 YELLOWSTONE,"[{'address_components': [{'long_name': '3250', 'short_name': '3250', 'types': ['street_number']}, {'long_name': 'Yellowstone Boulevard', 'short_name': 'Yellowstone Blvd', 'types': ['route']}, {'long_name': 'Astrodome', 'short_name': 'Astrodome', 'types': ['neighborhood', 'political']}, {'long_name': 'Houston', 'short_name': 'Houston', 'types': ['locality', 'political']}, {'long_name': 'Harris County', 'short_name': 'Harris County', 'types': ['administrative_area_level_2', 'political']}, {'long_name': 'Texas', 'short_name': 'TX', 'types': ['administrative_area_level_1', 'political']}, {'long_name': 'United States', 'short_name': 'US', 'types': ['country', 'political']}, {'long_name': '77054', 'short_name': '77054', 'types': ['postal_code']}, {'long_name': '2311', 'short_name': '2311', 'types': ['postal_code_suffix']}], 'formatted_address': '3250 Yellowstone Blvd, Houston, TX 77054, USA', 'geometry': {'location': {'lat': 29.6983653, 'lng': -95.37723299999999}, 'location_type': 'RANGE_INTERPOLATED', 'viewport': {'northeast': {'lat': 29.6997142802915, 'lng': -95.3758840197085}, 'southwest': {'lat': 29.6970163197085, 'lng': -95.3785819802915}}}, 'place_id': 'Ei0zMjUwIFllbGxvd3N0b25lIEJsdmQsIEhvdXN0b24sIFRYIDc3MDU0LCBVU0EiGxIZChQKEgnjIXPu679AhhF0YBvXvoNXZRCyGQ', 'types': ['street_address']}]"
2013-09-13 11:00:00,10H70,4500-4599,SAN JACINTO,Theft,commercial building,1,11,13,Friday,Sep,2013,4550,4550 SAN JACINTO,"[{'address_components': [{'long_name': '4550', 'short_name': '4550', 'types': ['street_number']}, {'long_name': 'San Jacinto Street', 'short_name': 'San Jacinto St', 'types': ['route']}, {'long_name': 'South Central Houston', 'short_name': 'South Central Houston', 'types': ['neighborhood', 'political']}, {'long_name': 'Houston', 'short_name': 'Houston', 'types': ['locality', 'political']}, {'long_name': 'Harris County', 'short_name': 'Harris County', 'types': ['administrative_area_level_2', 'political']}, {'long_name': 'Texas', 'short_name': 'TX', 'types': ['administrative_area_level_1', 'political']}, {'long_name': 'United States', 'short_name': 'US', 'types': ['country', 'political']}, {'long_name': '77004', 'short_name': '77004', 'types': ['postal_code']}, {'long_name': '5044', 'short_name': '5044', 'types': ['postal_code_suffix']}], 'formatted_address': '4550 San Jacinto St, Houston, TX 77004, USA', 'geometry': {'location': {'lat': 29.732084, 'lng': -95.3824664}, 'location_type': 'RANGE_INTERPOLATED', 'viewport': {'northeast': {'lat': 29.7334329802915, 'lng': -95.3811174197085}, 'southwest': {'lat': 29.7307350197085, 'lng': -95.38381538029151}}}, 'place_id': 'Eis0NTUwIFNhbiBKYWNpbnRvIFN0LCBIb3VzdG9uLCBUWCA3NzAwNCwgVVNBIhsSGQoUChIJz48FS3e_QIYRAzulBKzr9G8QxiM', 'types': ['street_address']}]"
2013-09-13 11:00:00,10H70,6500-6599,FANNIN,Theft,hospital,1,11,13,Friday,Sep,2013,6550,6550 FANNIN,"[{'address_components': [{'long_name': '6550', 'short_name': '6550', 'types': ['street_number']}, {'long_name': 'Fannin Street', 'short_name': 'Fannin St', 'types': ['route']}, {'long_name': 'Texas Medical Center', 'short_name': 'Texas Medical Center', 'types': ['neighborhood', 'political']}, {'long_name': 'Houston', 'short_name': 'Houston', 'types': ['locality', 'political']}, {'long_name': 'Harris County', 'short_name': 'Harris County', 'types': ['administrative_area_level_2', 'political']}, {'long_name': 'Texas', 'short_name': 'TX', 'types': ['administrative_area_level_1', 'political']}, {'long_name': 'United States', 'short_name': 'US', 'types': ['country', 'political']}, {'long_name': '77030', 'short_name': '77030', 'types': ['postal_code']}], 'formatted_address': '6550 Fannin St, Houston, TX 77030, USA', 'geometry': {'location': {'lat': 29.7114478, 'lng': -95.39998759999999}, 'location_type': 'ROOFTOP', 'viewport': {'northeast': {'lat': 29.7127967802915, 'lng': -95.39863861970849}, 'southwest': {'lat': 29.7100988197085, 'lng': -95.4013365802915}}}, 'place_id': 'ChIJBx-N53DAQIYRVoH1LSDxv4k', 'types': ['street_address']}]"
2013-09-13 23:00:00,10H70,5600-5699,JACKSON,Theft,residence/house,1,23,13,Friday,Sep,2013,5650,5650 JACKSON,"[{'address_components': [{'long_name': '5650', 'short_name': '5650', 'types': ['street_number']}, {'long_name': 'Jackson Street', 'short_name': 'Jackson St', 'types': ['route']}, {'long_name': 'South Central Houston', 'short_name': 'South Central Houston', 'types': ['neighborhood', 'political']}, {'long_name': 'Houston', 'short_name': 'Houston', 'types': ['locality', 'political']}, {'long_name': 'Harris County', 'short_name': 'Harris County', 'types': ['administrative_area_level_2', 'political']}, {'long_name': 'Texas', 'short_name': 'TX', 'types': ['administrative_area_level_1', 'political']}, {'long_name': 'United States', 'short_name': 'US', 'types': ['country', 'political']}, {'long_name': '77004', 'short_name': '77004', 'types': ['postal_code']}], 'formatted_address': '5650 Jackson St, Houston, TX 77004, USA', 'geometry': {'location': {'lat': 29.7343532, 'lng': -95.37392249999999}, 'location_type': 'RANGE_INTERPOLATED', 'viewport': {'northeast': {'lat': 29.73570218029149, 'lng': -95.3725735197085}, 'southwest': {'lat': 29.7330042197085, 'lng': -95.3752714802915}}}, 'place_id': 'Eic1NjUwIEphY2tzb24gU3QsIEhvdXN0b24sIFRYIDc3MDA0LCBVU0EiGxIZChQKEgmXcJglc79AhhHTopphwXsHexCSLA', 'types': ['street_address']}]"
2013-09-14 00:00:00,10H70,0-99,HERMANN MUSEUM,Theft,apartment,1,0,14,Saturday,Sep,2013,50,50 HERMANN MUSEUM,"[{'address_components': [{'long_name': '50', 'short_name': '50', 'types': ['street_number']}, {'long_name': 'Hermann Museum Circle Drive', 'short_name': 'Hermann Museum Cir Dr', 'types': ['route']}, {'long_name': 'Southwest Houston', 'short_name': 'Southwest Houston', 'types': ['neighborhood', 'political']}, {'long_name': 'Houston', 'short_name': 'Houston', 'types': ['locality', 'political']}, {'long_name': 'Harris County', 'short_name': 'Harris County', 'types': ['administrative_area_level_2', 'political']}, {'long_name': 'Texas', 'short_name': 'TX', 'types': ['administrative_area_level_1', 'political']}, {'long_name': 'United States', 'short_name': 'US', 'types': ['country', 'political']}, {'long_name': '77004', 'short_name': '77004', 'types': ['postal_code']}], 'formatted_address': '50 Hermann Museum Cir Dr, Houston, TX 77004, USA', 'geometry': {'location': {'lat': 29.7182632, 'lng': -95.3810754}, 'location_type': 'RANGE_INTERPOLATED', 'viewport': {'northeast': {'lat': 29.7196121802915, 'lng': -95.37972641970849}, 'southwest': {'lat': 29.7169142197085, 'lng': -95.38242438029151}}}, 'place_id': 'EjA1MCBIZXJtYW5uIE11c2V1bSBDaXIgRHIsIEhvdXN0b24sIFRYIDc3MDA0LCBVU0EiGhIYChQKEgkHdI8Im79AhhG13oSrY04--BAy', 'types': ['street_address']}]"
2013-09-14 06:00:00,10H70,1500-1599,BEN TAUB LOOP,Theft,hospital,1,6,14,Saturday,Sep,2013,1550,1550 BEN TAUB LOOP,"[{'address_components': [{'long_name': '1550', 'short_name': '1550', 'types': ['street_number']}, {'long_name': 'Ben Taub Loop', 'short_name': 'Ben Taub Loop', 'types': ['route']}, {'long_name': 'Southwest Houston', 'short_name': 'Southwest Houston', 'types': ['neighborhood', 'political']}, {'long_name': 'Houston', 'short_name': 'Houston', 'types': ['locality', 'political']}, {'long_name': 'Harris County', 'short_name': 'Harris County', 'types': ['administrative_area_level_2', 'political']}, {'long_name': 'Texas', 'short_name': 'TX', 'types': ['administrative_area_level_1', 'political']}, {'long_name': 'United States', 'short_name': 'US', 'types': ['country', 'political']}, {'long_name': '77030', 'short_name': '77030', 'types': ['postal_code']}], 'formatted_address': '1550 Ben Taub Loop, Houston, TX 77030, USA', 'geometry': {'location': {'lat': 29.7115258, 'lng': -95.3944969}, 'location_type': 'RANGE_INTERPOLATED', 'viewport': {'northeast': {'lat': 29.7128747802915, 'lng': -95.39314791970848}, 'southwest': {'lat': 29.7101768197085, 'lng': -95.3958458802915}}}, 'place_id': 'EioxNTUwIEJlbiBUYXViIExvb3AsIEhvdXN0b24sIFRYIDc3MDMwLCBVU0EiGxIZChQKEgnllHvWd8BAhhGhL4MySaCZjxCODA', 'types': ['street_address']}]"
2013-09-14 12:00:00,10H70,7200-7299,ALMEDA,Theft,other parking lot,1,12,14,Saturday,Sep,2013,7250,7250 ALMEDA,"[{'address_components': [{'long_name': '7250', 'short_name': '7250', 'types': ['street_number']}, {'long_name': 'Almeda Road', 'short_name': 'Almeda Rd', 'types': ['route']}, {'long_name': 'Southwest Houston', 'short_name': 'Southwest Houston', 'types': ['neighborhood', 'political']}, {'long_name': 'Houston', 'short_name': 'Houston', 'types': ['locality', 'political']}, {'long_name': 'Harris County', 'short_name': 'Harris County', 'types': ['administrative_area_level_2', 'political']}, {'long_name': 'Texas', 'short_name': 'TX', 'types': ['administrative_area_level_1', 'political']}, {'long_name': 'United States', 'short_name': 'US', 'types': ['country', 'political']}, {'long_name': '77054', 'short_name': '77054', 'types': ['postal_code']}], 'formatted_address': '7250 Almeda Rd, Houston, TX 77054, USA', 'geometry': {'location': {'lat': 29.6945831, 'lng': -95.3885219}, 'location_type': 'RANGE_INTERPOLATED', 'viewport': {'northeast': {'lat': 29.6959320802915, 'lng': -95.3871729197085}, 'southwest': {'lat': 29.6932341197085, 'lng': -95.38987088029151}}}, 'place_id': 'EiY3MjUwIEFsbWVkYSBSZCwgSG91c3RvbiwgVFggNzcwNTQsIFVTQSIbEhkKFAoSCZPp1NL2v0CGEcknm1mbFf-LENI4', 'types': ['street_address']}]"
2013-09-14 14:00:00,10H70,1500-1599,BINZ,Theft,"toys,arts & craft,musical,bike,pet",1,14,14,Saturday,Sep,2013,1550,1550 BINZ,"[{'address_components': [{'long_name': '1550', 'short_name': '1550', 'types': ['street_number']}, {'long_name': 'Binz Street', 'short_name': 'Binz St', 'types': ['route']}, {'long_name': 'South Central Houston', 'short_name': 'South Central Houston', 'types': ['neighborhood', 'political']}, {'long_name': 'Houston', 'short_name': 'Houston', 'types': ['locality', 'political']}, {'long_name': 'Harris County', 'short_name': 'Harris County', 'types': ['administrative_area_level_2', 'political']}, {'long_name': 'Texas', 'short_name': 'TX', 'types': ['administrative_area_level_1', 'political']}, {'long_name': 'United States', 'short_name': 'US', 'types': ['country', 'political']}, {'long_name': '77004', 'short_name': '77004', 'types': ['postal_code']}, {'long_name': '7112', 'short_name': '7112', 'types': ['postal_code_suffix']}], 'formatted_address': '1550 Binz St, Houston, TX 77004, USA', 'geometry': {'location': {'lat': 29.7225569, 'lng': -95.384908}, 'location_type': 'RANGE_INTERPOLATED', 'viewport': {'northeast': {'lat': 29.7239058802915, 'lng': -95.3835590197085}, 'southwest': {'lat': 29.7212079197085, 'lng': -95.3862569802915}}}, 'place_id': 'EiQxNTUwIEJpbnogU3QsIEhvdXN0b24sIFRYIDc3MDA0LCBVU0EiGxIZChQKEgnD5J4fg79AhhHnM8uqJKZJhxCODA', 'types': ['street_address']}]"
2013-09-14 14:00:00,10H70,1500-1599,HERMANN,Theft,road/street/sidewalk,1,14,14,Saturday,Sep,2013,1550,1550 HERMANN,"[{'address_components': [{'long_name': '1550', 'short_name': '1550', 'types': ['street_number']}, {'long_name': 'Hermann Drive', 'short_name': 'Hermann Dr', 'types': ['route']}, {'long_name': 'Southwest Houston', 'short_name': 'Southwest Houston', 'types': ['neighborhood', 'political']}, {'long_name': 'Houston', 'short_name': 'Houston', 'types': ['locality', 'political']}, {'long_name': 'Harris County', 'short_name': 'Harris County', 'types': ['administrative_area_level_2', 'political']}, {'long_name': 'Texas', 'short_name': 'TX', 'types': ['administrative_area_level_1', 'political']}, {'long_name': 'United States', 'short_name': 'US', 'types': ['country', 'political']}, {'long_name': '77004', 'short_name': '77004', 'types': ['postal_code']}, {'long_name': '7127', 'short_name': '7127', 'types': ['postal_code_suffix']}], 'formatted_address': '1550 Hermann Dr, Houston, TX 77004, USA', 'geometry': {'location': {'lat': 29.7215445, 'lng': -95.3867083}, 'location_type': 'RANGE_INTERPOLATED', 'viewport': {'northeast': {'lat': 29.7228934802915, 'lng': -95.3853593197085}, 'southwest': {'lat': 29.7201955197085, 'lng': -95.3880572802915}}}, 'place_id': 'EicxNTUwIEhlcm1hbm4gRHIsIEhvdXN0b24sIFRYIDc3MDA0LCBVU0EiGxIZChQKEgnt5Sm8g79AhhHnBOTdwk97iBCODA', 'types': ['street_address']}]"
2013-09-14 14:00:00,10H70,1500-1599,BINZ,Theft,"amuse. park,bowl. alley,skate rink",1,14,14,Saturday,Sep,2013,1550,1550 BINZ,"[{'address_components': [{'long_name': '1550', 'short_name': '1550', 'types': ['street_number']}, {'long_name': 'Binz Street', 'short_name': 'Binz St', 'types': ['route']}, {'long_name': 'South Central Houston', 'short_name': 'South Central Houston', 'types': ['neighborhood', 'political']}, {'long_name': 'Houston', 'short_name': 'Houston', 'types': ['locality', 'political']}, {'long_name': 'Harris County', 'short_name': 'Harris County', 'types': ['administrative_area_level_2', 'political']}, {'long_name': 'Texas', 'short_name': 'TX', 'types': ['administrative_area_level_1', 'political']}, {'long_name': 'United States', 'short_name': 'US', 'types': ['country', 'political']}, {'long_name': '77004', 'short_name': '77004', 'types': ['postal_code']}, {'long_name': '7112', 'short_name': '7112', 'types': ['postal_code_suffix']}], 'formatted_address': '1550 Binz St, Houston, TX 77004, USA', 'geometry': {'location': {'lat': 29.7225569, 'lng': -95.384908}, 'location_type': 'RANGE_INTERPOLATED', 'viewport': {'northeast': {'lat': 29.7239058802915, 'lng': -95.3835590197085}, 'southwest': {'lat': 29.7212079197085, 'lng': -95.3862569802915}}}, 'place_id': 'EiQxNTUwIEJpbnogU3QsIEhvdXN0b24sIFRYIDc3MDA0LCBVU0EiGxIZChQKEgnD5J4fg79AhhHnM8uqJKZJhxCODA', 'types': ['street_address']}]"
2013-09-14 18:00:00,10H70,6600-6699,FANNIN,Theft,hospital,1,18,14,Saturday,Sep,2013,6650,6650 FANNIN,"[{'address_components': [{'long_name': '6650', 'short_name': '6650', 'types': ['street_number']}, {'long_name': 'Fannin Street', 'short_name': 'Fannin St', 'types': ['route']}, {'long_name': 'Southeast Houston', 'short_name': 'Southeast Houston', 'types': ['neighborhood', 'political']}, {'long_name': 'Houston', 'short_name': 'Houston', 'types': ['locality', 'political']}, {'long_name': 'Harris County', 'short_name': 'Harris County', 'types': ['administrative_area_level_2', 'political']}, {'long_name': 'Texas', 'short_name': 'TX', 'types': ['administrative_area_level_1', 'political']}, {'long_name': 'United States', 'short_name': 'US', 'types': ['country', 'political']}, {'long_name': '77030', 'short_name': '77030', 'types': ['postal_code']}, {'long_name': '2343', 'short_name': '2343', 'types': ['postal_code_suffix']}], 'formatted_address': '6650 Fannin St, Houston, TX 77030, USA', 'geometry': {'location': {'lat': 29.7077133, 'lng': -95.4032921}, 'location_type': 'RANGE_INTERPOLATED', 'viewport': {'northeast': {'lat': 29.7090622802915, 'lng': -95.4019431197085}, 'southwest': {'lat': 29.7063643197085, 'lng': -95.40464108029151}}}, 'place_id': 'EiY2NjUwIEZhbm5pbiBTdCwgSG91c3RvbiwgVFggNzcwMzAsIFVTQSIbEhkKFAoSCUnwJj1ywECGES8MlbHaHZVbEPoz', 'types': ['street_address']}]"
2013-09-14 18:00:00,10H70,1500-1599,BEN TAUB LOOP,Auto Theft,road/street/sidewalk,1,18,14,Saturday,Sep,2013,1550,1550 BEN TAUB LOOP,"[{'address_components': [{'long_name': '1550', 'short_name': '1550', 'types': ['street_number']}, {'long_name': 'Ben Taub Loop', 'short_name': 'Ben Taub Loop', 'types': ['route']}, {'long_name': 'Southwest Houston', 'short_name': 'Southwest Houston', 'types': ['neighborhood', 'political']}, {'long_name': 'Houston', 'short_name': 'Houston', 'types': ['locality', 'political']}, {'long_name': 'Harris County', 'short_name': 'Harris County', 'types': ['administrative_area_level_2', 'political']}, {'long_name': 'Texas', 'short_name': 'TX', 'types': ['administrative_area_level_1', 'political']}, {'long_name': 'United States', 'short_name': 'US', 'types': ['country', 'political']}, {'long_name': '77030', 'short_name': '77030', 'types': ['postal_code']}], 'formatted_address': '1550 Ben Taub Loop, Houston, TX 77030, USA', 'geometry': {'location': {'lat': 29.7115258, 'lng': -95.3944969}, 'location_type': 'RANGE_INTERPOLATED', 'viewport': {'northeast': {'lat': 29.7128747802915, 'lng': -95.39314791970848}, 'southwest': {'lat': 29.7101768197085, 'lng': -95.3958458802915}}}, 'place_id': 'EioxNTUwIEJlbiBUYXViIExvb3AsIEhvdXN0b24sIFRYIDc3MDMwLCBVU0EiGxIZChQKEgnllHvWd8BAhhGhL4MySaCZjxCODA', 'types': ['street_address']}]"
2013-09-15 15:00:00,10H70,5800-5899,FANNIN,Theft,"parks & recreation, zoo, swim pool",1,15,15,Sunday,Sep,2013,5850,5850 FANNIN,"[{'address_components': [{'long_name': '5850', 'short_name': '5850', 'types': ['street_number']}, {'long_name': 'Fannin Street', 'short_name': 'Fannin St', 'types': ['route']}, {'long_name': 'Southeast Houston', 'short_name': 'Southeast Houston', 'types': ['neighborhood', 'political']}, {'long_name': 'Houston', 'short_name': 'Houston', 'types': ['locality', 'political']}, {'long_name': 'Harris County', 'short_name': 'Harris County', 'types': ['administrative_area_level_2', 'political']}, {'long_name': 'Texas', 'short_name': 'TX', 'types': ['administrative_area_level_1', 'political']}, {'long_name': 'United States', 'short_name': 'US', 'types': ['country', 'political']}, {'long_name': '77005', 'short_name': '77005', 'types': ['postal_code']}], 'formatted_address': '5850 Fannin St, Houston, TX 77005, USA', 'geometry': {'location': {'lat': 29.7232674, 'lng': -95.3904755}, 'location_type': 'RANGE_INTERPOLATED', 'viewport': {'northeast': {'lat': 29.7246163802915, 'lng': -95.38912651970848}, 'southwest': {'lat': 29.7219184197085, 'lng': -95.3918244802915}}}, 'place_id': 'EiY1ODUwIEZhbm5pbiBTdCwgSG91c3RvbiwgVFggNzcwMDUsIFVTQSIbEhkKFAoSCTXB0qWBv0CGEX5F1zwTjKCyENot', 'types': ['street_address']}]"
2013-09-15 18:00:00,10H70,3200-3299,OLD SPANISH,Theft,service/gas station,1,18,15,Sunday,Sep,2013,3250,3250 OLD SPANISH,"[{'address_components': [{'long_name': '3250', 'short_name': '3250', 'types': ['street_number']}, {'long_name': 'Old Spanish Trail', 'short_name': 'Old Spanish Trail', 'types': ['route']}, {'long_name': 'Astrodome', 'short_name': 'Astrodome', 'types': ['neighborhood', 'political']}, {'long_name': 'Houston', 'short_name': 'Houston', 'types': ['locality', 'political']}, {'long_name': 'Harris County', 'short_name': 'Harris County', 'types': ['administrative_area_level_2', 'political']}, {'long_name': 'Texas', 'short_name': 'TX', 'types': ['administrative_area_level_1', 'political']}, {'long_name': 'United States', 'short_name': 'US', 'types': ['country', 'political']}, {'long_name': '77021', 'short_name': '77021', 'types': ['postal_code']}, {'long_name': '2123', 'short_name': '2123', 'types': ['postal_code_suffix']}], 'formatted_address': '3250 Old Spanish Trail, Houston, TX 77021, USA', 'geometry': {'location': {'lat': 29.7004935, 'lng': -95.37647799999999}, 'location_type': 'ROOFTOP', 'viewport': {'northeast': {'lat': 29.7018424802915, 'lng': -95.37512901970848}, 'southwest': {'lat': 29.6991445197085, 'lng': -95.37782698029149}}}, 'place_id': 'ChIJOdrLCeu_QIYRRW4UrLXfzGU', 'types': ['street_address']}]"
2013-09-15 20:00:00,10H70,6000-6099,HERMANN PARK,Theft,commercial parking lot/garage,1,20,15,Sunday,Sep,2013,6050,6050 HERMANN PARK,"[{'address_components': [{'long_name': '6050', 'short_name': '6050', 'types': ['street_number']}, {'long_name': 'Hermann Park Drive', 'short_name': 'Hermann Park Dr', 'types': ['route']}, {'long_name': 'Southeast Houston', 'short_name': 'Southeast Houston', 'types': ['neighborhood', 'political']}, {'long_name': 'Houston', 'short_name': 'Houston', 'types': ['locality', 'political']}, {'long_name': 'Harris County', 'short_name': 'Harris County', 'types': ['administrative_area_level_2', 'political']}, {'long_name': 'Texas', 'short_name': 'TX', 'types': ['administrative_area_level_1', 'political']}, {'long_name': 'United States', 'short_name': 'US', 'types': ['country', 'political']}, {'long_name': '77030', 'short_name': '77030', 'types': ['postal_code']}], 'formatted_address': '6050 Hermann Park Dr, Houston, TX 77030, USA', 'geometry': {'location': {'lat': 29.7201023, 'lng': -95.3876909}, 'location_type': 'RANGE_INTERPOLATED', 'viewport': {'northeast': {'lat': 29.7214512802915, 'lng': -95.3863419197085}, 'southwest': {'lat': 29.7187533197085, 'lng': -95.3890398802915}}}, 'place_id': 'Eiw2MDUwIEhlcm1hbm4gUGFyayBEciwgSG91c3RvbiwgVFggNzcwMzAsIFVTQSIbEhkKFAoSCW-AAQqEv0CGEdYEbD5w01e3EKIv', 'types': ['street_address']}]"
2013-09-16 01:00:00,10H70,3200-3299,OLD SPANISH,Aggravated Assault,road/street/sidewalk,1,1,16,Monday,Sep,2013,3250,3250 OLD SPANISH,"[{'address_components': [{'long_name': '3250', 'short_name': '3250', 'types': ['street_number']}, {'long_name': 'Old Spanish Trail', 'short_name': 'Old Spanish Trail', 'types': ['route']}, {'long_name': 'Astrodome', 'short_name': 'Astrodome', 'types': ['neighborhood', 'political']}, {'long_name': 'Houston', 'short_name': 'Houston', 'types': ['locality', 'political']}, {'long_name': 'Harris County', 'short_name': 'Harris County', 'types': ['administrative_area_level_2', 'political']}, {'long_name': 'Texas', 'short_name': 'TX', 'types': ['administrative_area_level_1', 'political']}, {'long_name': 'United States', 'short_name': 'US', 'types': ['country', 'political']}, {'long_name': '77021', 'short_name': '77021', 'types': ['postal_code']}, {'long_name': '2123', 'short_name': '2123', 'types': ['postal_code_suffix']}], 'formatted_address': '3250 Old Spanish Trail, Houston, TX 77021, USA', 'geometry': {'location': {'lat': 29.7004935, 'lng': -95.37647799999999}, 'location_type': 'ROOFTOP', 'viewport': {'northeast': {'lat': 29.7018424802915, 'lng': -95.37512901970848}, 'southwest': {'lat': 29.6991445197085, 'lng': -95.37782698029149}}}, 'place_id': 'ChIJOdrLCeu_QIYRRW4UrLXfzGU', 'types': ['street_address']}]"
2013-09-16 07:00:00,10H70,6900-6999,FANNIN,Theft,other/unknown,1,7,16,Monday,Sep,2013,6950,6950 FANNIN,"[{'address_components': [{'long_name': '6950', 'short_name': '6950', 'types': ['street_number']}, {'long_name': 'Fannin Street', 'short_name': 'Fannin St', 'types': ['route']}, {'long_name': 'Southeast Houston', 'short_name': 'Southeast Houston', 'types': ['neighborhood', 'political']}, {'long_name': 'Houston', 'short_name': 'Houston', 'types': ['locality', 'political']}, {'long_name': 'Harris County', 'short_name': 'Harris County', 'types': ['administrative_area_level_2', 'political']}, {'long_name': 'Texas', 'short_name': 'TX', 'types': ['administrative_area_level_1', 'political']}, {'long_name': 'United States', 'short_name': 'US', 'types': ['country', 'political']}, {'long_name': '77030', 'short_name': '77030', 'types': ['postal_code']}], 'formatted_address': '6950 Fannin St, Houston, TX 77030, USA', 'geometry': {'location': {'lat': 29.7039286, 'lng': -95.4030015}, 'location_type': 'RANGE_INTERPOLATED', 'viewport': {'northeast': {'lat': 29.7052775802915, 'lng': -95.4016525197085}, 'southwest': {'lat': 29.7025796197085, 'lng': -95.40435048029151}}}, 'place_id': 'EiY2OTUwIEZhbm5pbiBTdCwgSG91c3RvbiwgVFggNzcwMzAsIFVTQSIbEhkKFAoSCfuocetywECGEdf2XV1dR4XfEKY2', 'types': ['street_address']}]"
2013-09-16 16:00:00,10H70,6700-6799,BERTNER,Theft,hospital,1,16,16,Monday,Sep,2013,6750,6750 BERTNER,"[{'address_components': [{'long_name': '6750', 'short_name': '6750', 'types': ['street_number']}, {'long_name': 'Bertner Avenue', 'short_name': 'Bertner Ave', 'types': ['route']}, {'long_name': 'Southwest Houston', 'short_name': 'Southwest Houston', 'types': ['neighborhood', 'political']}, {'long_name': 'Houston', 'short_name': 'Houston', 'types': ['locality', 'political']}, {'long_name': 'Harris County', 'short_name': 'Harris County', 'types': ['administrative_area_level_2', 'political']}, {'long_name': 'Texas', 'short_name': 'TX', 'types': ['administrative_area_level_1', 'political']}, {'long_name': 'United States', 'short_name': 'US', 'types': ['country', 'political']}, {'long_name': '77030', 'short_name': '77030', 'types': ['postal_code']}], 'formatted_address': '6750 Bertner Ave, Houston, TX 77030, USA', 'geometry': {'location': {'lat': 29.7082078, 'lng': -95.399093}, 'location_type': 'RANGE_INTERPOLATED', 'viewport': {'northeast': {'lat': 29.7095567802915, 'lng': -95.3977440197085}, 'southwest': {'lat': 29.7068588197085, 'lng': -95.4004419802915}}}, 'place_id': 'Eig2NzUwIEJlcnRuZXIgQXZlLCBIb3VzdG9uLCBUWCA3NzAzMCwgVVNBIhsSGQoUChIJxWPFqnbAQIYRAnBvtXTzX0gQ3jQ', 'types': ['street_address']}]"
2013-09-16 17:00:00,10H70,4800-4899,ALMEDA,Burglary,barber and beauty shops,1,17,16,Monday,Sep,2013,4850,4850 ALMEDA,"[{'address_components': [{'long_name': '4850', 'short_name': '4850', 'types': ['street_number']}, {'long_name': 'Almeda Road', 'short_name': 'Almeda Rd', 'types': ['route']}, {'long_name': 'South Central Houston', 'short_name': 'South Central Houston', 'types': ['neighborhood', 'political']}, {'long_name': 'Houston', 'short_name': 'Houston', 'types': ['locality', 'political']}, {'long_name': 'Harris County', 'short_name': 'Harris County', 'types': ['administrative_area_level_2', 'political']}, {'long_name': 'Texas', 'short_name': 'TX', 'types': ['administrative_area_level_1', 'political']}, {'long_name': 'United States', 'short_name': 'US', 'types': ['country', 'political']}, {'long_name': '77004', 'short_name': '77004', 'types': ['postal_code']}, {'long_name': '5669', 'short_name': '5669', 'types': ['postal_code_suffix']}], 'formatted_address': '4850 Almeda Rd, Houston, TX 77004, USA', 'geometry': {'location': {'lat': 29.7258479, 'lng': -95.3780621}, 'location_type': 'RANGE_INTERPOLATED', 'viewport': {'northeast': {'lat': 29.7271968802915, 'lng': -95.37671311970848}, 'southwest': {'lat': 29.7244989197085, 'lng': -95.37941108029149}}}, 'place_id': 'EiY0ODUwIEFsbWVkYSBSZCwgSG91c3RvbiwgVFggNzcwMDQsIFVTQSIbEhkKFAoSCTuAkQSev0CGEY3tnLA0OlqIEPIl', 'types': ['street_address']}]"
2013-09-16 20:00:00,10H70,6400-6499,FANNIN,Theft,hospital,1,20,16,Monday,Sep,2013,6450,6450 FANNIN,"[{'address_components': [{'long_name': '6450', 'short_name': '6450', 'types': ['street_number']}, {'long_name': 'Fannin Street', 'short_name': 'Fannin St', 'types': ['route']}, {'long_name': 'Southeast Houston', 'short_name': 'Southeast Houston', 'types': ['neighborhood', 'political']}, {'long_name': 'Houston', 'short_name': 'Houston', 'types': ['locality', 'political']}, {'long_name': 'Harris County', 'short_name': 'Harris County', 'types': ['administrative_area_level_2', 'political']}, {'long_name': 'Texas', 'short_name': 'TX', 'types': ['administrative_area_level_1', 'political']}, {'long_name': 'United States', 'short_name': 'US', 'types': ['country', 'political']}, {'long_name': '77030', 'short_name': '77030', 'types': ['postal_code']}], 'formatted_address': '6450 Fannin St, Houston, TX 77030, USA', 'geometry': {'location': {'lat': 29.7121633, 'lng': -95.399011}, 'location_type': 'RANGE_INTERPOLATED', 'viewport': {'northeast': {'lat': 29.7135122802915, 'lng': -95.39766201970849}, 'southwest': {'lat': 29.7108143197085, 'lng': -95.40035998029151}}}, 'place_id': 'EiY2NDUwIEZhbm5pbiBTdCwgSG91c3RvbiwgVFggNzcwMzAsIFVTQSIbEhkKFAoSCd8CW9JwwECGEVV5pvdDd2bdELIy', 'types': ['street_address']}]"
2013-09-16 21:00:00,10H70,2300-2399,MACGREGOR,Theft,apartment parking lot,1,21,16,Monday,Sep,2013,2350,2350 MACGREGOR,"[{'address_components': [{'long_name': '2350', 'short_name': '2350', 'types': ['street_number']}, {'long_name': 'South Macgregor Way', 'short_name': 'S MacGregor Way', 'types': ['route']}, {'long_name': 'South Side', 'short_name': 'South Side', 'types': ['neighborhood', 'political']}, {'long_name': 'Houston', 'short_name': 'Houston', 'types': ['locality', 'political']}, {'long_name': 'Harris County', 'short_name': 'Harris County', 'types': ['administrative_area_level_2', 'political']}, {'long_name': 'Texas', 'short_name': 'TX', 'types': ['administrative_area_level_1', 'political']}, {'long_name': 'United States', 'short_name': 'US', 'types': ['country', 'political']}, {'long_name': '77021', 'short_name': '77021', 'types': ['postal_code']}], 'formatted_address': '2350 S MacGregor Way, Houston, TX 77021, USA', 'geometry': {'location': {'lat': 29.7117197, 'lng': -95.3794674}, 'location_type': 'RANGE_INTERPOLATED', 'viewport': {'northeast': {'lat': 29.7130686802915, 'lng': -95.37811841970849}, 'southwest': {'lat': 29.7103707197085, 'lng': -95.38081638029149}}}, 'partial_match': True, 'place_id': 'EiwyMzUwIFMgTWFjR3JlZ29yIFdheSwgSG91c3RvbiwgVFggNzcwMjEsIFVTQSIbEhkKFAoSCd32NyeRv0CGEUD6lQWt_7B1EK4S', 'types': ['street_address']}]"
2013-09-16 21:00:00,10H70,2300-2399,MACGREGOR,Theft,apartment parking lot,1,21,16,Monday,Sep,2013,2350,2350 MACGREGOR,"[{'address_components': [{'long_name': '2350', 'short_name': '2350', 'types': ['street_number']}, {'long_name': 'South Macgregor Way', 'short_name': 'S MacGregor Way', 'types': ['route']}, {'long_name': 'South Side', 'short_name': 'South Side', 'types': ['neighborhood', 'political']}, {'long_name': 'Houston', 'short_name': 'Houston', 'types': ['locality', 'political']}, {'long_name': 'Harris County', 'short_name': 'Harris County', 'types': ['administrative_area_level_2', 'political']}, {'long_name': 'Texas', 'short_name': 'TX', 'types': ['administrative_area_level_1', 'political']}, {'long_name': 'United States', 'short_name': 'US', 'types': ['country', 'political']}, {'long_name': '77021', 'short_name': '77021', 'types': ['postal_code']}], 'formatted_address': '2350 S MacGregor Way, Houston, TX 77021, USA', 'geometry': {'location': {'lat': 29.7117197, 'lng': -95.3794674}, 'location_type': 'RANGE_INTERPOLATED', 'viewport': {'northeast': {'lat': 29.7130686802915, 'lng': -95.37811841970849}, 'southwest': {'lat': 29.7103707197085, 'lng': -95.38081638029149}}}, 'partial_match': True, 'place_id': 'EiwyMzUwIFMgTWFjR3JlZ29yIFdheSwgSG91c3RvbiwgVFggNzcwMjEsIFVTQSIbEhkKFAoSCd32NyeRv0CGEUD6lQWt_7B1EK4S', 'types': ['street_address']}]"
2013-09-17 10:00:00,10H70,2300-2399,MACGREGOR,Theft,apartment parking lot,1,10,17,Tuesday,Sep,2013,2350,2350 MACGREGOR,"[{'address_components': [{'long_name': '2350', 'short_name': '2350', 'types': ['street_number']}, {'long_name': 'South Macgregor Way', 'short_name': 'S MacGregor Way', 'types': ['route']}, {'long_name': 'South Side', 'short_name': 'South Side', 'types': ['neighborhood', 'political']}, {'long_name': 'Houston', 'short_name': 'Houston', 'types': ['locality', 'political']}, {'long_name': 'Harris County', 'short_name': 'Harris County', 'types': ['administrative_area_level_2', 'political']}, {'long_name': 'Texas', 'short_name': 'TX', 'types': ['administrative_area_level_1', 'political']}, {'long_name': 'United States', 'short_name': 'US', 'types': ['country', 'political']}, {'long_name': '77021', 'short_name': '77021', 'types': ['postal_code']}], 'formatted_address': '2350 S MacGregor Way, Houston, TX 77021, USA', 'geometry': {'location': {'lat': 29.7117197, 'lng': -95.3794674}, 'location_type': 'RANGE_INTERPOLATED', 'viewport': {'northeast': {'lat': 29.7130686802915, 'lng': -95.37811841970849}, 'southwest': {'lat': 29.7103707197085, 'lng': -95.38081638029149}}}, 'partial_match': True, 'place_id': 'EiwyMzUwIFMgTWFjR3JlZ29yIFdheSwgSG91c3RvbiwgVFggNzcwMjEsIFVTQSIbEhkKFAoSCd32NyeRv0CGEUD6lQWt_7B1EK4S', 'types': ['street_address']}]"
2013-09-18 15:00:00,10H70,1500-1599,HOLCOMBE,Theft,hospital,1,15,18,Wednesday,Sep,2013,1550,1550 HOLCOMBE,"[{'address_components': [{'long_name': '1550', 'short_name': '1550', 'types': ['street_number']}, {'long_name': 'Holcombe Boulevard', 'short_name': 'Holcombe Blvd', 'types': ['route']}, {'long_name': 'Southeast Houston', 'short_name': 'Southeast Houston', 'types': ['neighborhood', 'political']}, {'long_name': 'Houston', 'short_name': 'Houston', 'types': ['locality', 'political']}, {'long_name': 'Harris County', 'short_name': 'Harris County', 'types': ['administrative_area_level_2', 'political']}, {'long_name': 'Texas', 'short_name': 'TX', 'types': ['administrative_area_level_1', 'political']}, {'long_name': 'United States', 'short_name': 'US', 'types': ['country', 'political']}, {'long_name': '77030', 'short_name': '77030', 'types': ['postal_code']}], 'formatted_address': '1550 Holcombe Blvd, Houston, TX 77030, USA', 'geometry': {'location': {'lat': 29.7052462, 'lng': -95.3955099}, 'location_type': 'RANGE_INTERPOLATED', 'viewport': {'northeast': {'lat': 29.7065951802915, 'lng': -95.39416091970848}, 'southwest': {'lat': 29.7038972197085, 'lng': -95.39685888029149}}}, 'place_id': 'EioxNTUwIEhvbGNvbWJlIEJsdmQsIEhvdXN0b24sIFRYIDc3MDMwLCBVU0EiGxIZChQKEgn31MK8dcBAhhGuvb-wgftjFBCODA', 'types': ['street_address']}]"
2013-09-18 20:00:00,10H70,1900-1999,CANTERBURY,Theft,residence/house,1,20,18,Wednesday,Sep,2013,1950,1950 CANTERBURY,"[{'address_components': [{'long_name': '1950', 'short_name': '1950', 'types': ['street_number']}, {'long_name': 'Canterbury Street', 'short_name': 'Canterbury St', 'types': ['route']}, {'long_name': 'Southwest Houston', 'short_name': 'Southwest Houston', 'types': ['neighborhood', 'political']}, {'long_name': 'Houston', 'short_name': 'Houston', 'types': ['locality', 'political']}, {'long_name': 'Harris County', 'short_name': 'Harris County', 'types': ['administrative_area_level_2', 'political']}, {'long_name': 'Texas', 'short_name': 'TX', 'types': ['administrative_area_level_1', 'political']}, {'long_name': 'United States', 'short_name': 'US', 'types': ['country', 'political']}, {'long_name': '77030', 'short_name': '77030', 'types': ['postal_code']}, {'long_name': '4104', 'short_name': '4104', 'types': ['postal_code_suffix']}], 'formatted_address': '1950 Canterbury St, Houston, TX 77030, USA', 'geometry': {'location': {'lat': 29.7021508, 'lng': -95.3918161}, 'location_type': 'RANGE_INTERPOLATED', 'viewport': {'northeast': {'lat': 29.7034997802915, 'lng': -95.39046711970849}, 'southwest': {'lat': 29.7008018197085, 'lng': -95.39316508029151}}}, 'place_id': 'EioxOTUwIENhbnRlcmJ1cnkgU3QsIEhvdXN0b24sIFRYIDc3MDMwLCBVU0EiGxIZChQKEgmdBLbKir9AhhGHikbRy5aYexCeDw', 'types': ['street_address']}]"
2013-09-18 21:00:00,10H70,1600-1699,BLODGETT,Theft,residence/house,1,21,18,Wednesday,Sep,2013,1650,1650 BLODGETT,"[{'address_components': [{'long_name': '1650', 'short_name': '1650', 'types': ['street_number']}, {'long_name': 'Blodgett Street', 'short_name': 'Blodgett St', 'types': ['route']}, {'long_name': 'South Central Houston', 'short_name': 'South Central Houston', 'types': ['neighborhood', 'political']}, {'long_name': 'Houston', 'short_name': 'Houston', 'types': ['locality', 'political']}, {'long_name': 'Harris County', 'short_name': 'Harris County', 'types': ['administrative_area_level_2', 'political']}, {'long_name': 'Texas', 'short_name': 'TX', 'types': ['administrative_area_level_1', 'political']}, {'long_name': 'United States', 'short_name': 'US', 'types': ['country', 'political']}, {'long_name': '77004', 'short_name': '77004', 'types': ['postal_code']}], 'formatted_address': '1650 Blodgett St, Houston, TX 77004, USA', 'geometry': {'location': {'lat': 29.7285881, 'lng': -95.3788399}, 'location_type': 'RANGE_INTERPOLATED', 'viewport': {'northeast': {'lat': 29.7299370802915, 'lng': -95.37749091970849}, 'southwest': {'lat': 29.7272391197085, 'lng': -95.38018888029151}}}, 'place_id': 'EigxNjUwIEJsb2RnZXR0IFN0LCBIb3VzdG9uLCBUWCA3NzAwNCwgVVNBIhsSGQoUChIJ0d_TfHa_QIYREQuOYGGxL9gQ8gw', 'types': ['street_address']}]"
2013-09-18 23:00:00,10H70,4200-4299,CHARTRES,Rape,road/street/sidewalk,1,23,18,Wednesday,Sep,2013,4250,4250 CHARTRES,"[{'address_components': [{'long_name': '4250', 'short_name': '4250', 'types': ['street_number']}, {'long_name': 'Chartres Street', 'short_name': 'Chartres St', 'types': ['route']}, {'long_name': 'South Central Houston', 'short_name': 'South Central Houston', 'types': ['neighborhood', 'political']}, {'long_name': 'Houston', 'short_name': 'Houston', 'types': ['locality', 'political']}, {'long_name': 'Harris County', 'short_name': 'Harris County', 'types': ['administrative_area_level_2', 'political']}, {'long_name': 'Texas', 'short_name': 'TX', 'types': ['administrative_area_level_1', 'political']}, {'long_name': 'United States', 'short_name': 'US', 'types': ['country', 'political']}, {'long_name': '77004', 'short_name': '77004', 'types': ['postal_code']}], 'formatted_address': '4250 Chartres St, Houston, TX 77004, USA', 'geometry': {'location': {'lat': 29.7298783, 'lng': -95.3736981}, 'location_type': 'RANGE_INTERPOLATED', 'viewport': {'northeast': {'lat': 29.7312272802915, 'lng': -95.37234911970849}, 'southwest': {'lat': 29.7285293197085, 'lng': -95.37504708029151}}}, 'place_id': 'Eig0MjUwIENoYXJ0cmVzIFN0LCBIb3VzdG9uLCBUWCA3NzAwNCwgVVNBIhsSGQoUChIJ48mG2nS_QIYR1yfJ0ZBZRXoQmiE', 'types': ['street_address']}]"
2013-09-19 12:00:00,10H70,4100-4199,ALMEDA,Theft,commercial parking lot/garage,1,12,19,Thursday,Sep,2013,4150,4150 ALMEDA,"[{'address_components': [{'long_name': '4150', 'short_name': '4150', 'types': ['street_number']}, {'long_name': 'Almeda Road', 'short_name': 'Almeda Rd', 'types': ['route']}, {'long_name': 'South Central Houston', 'short_name': 'South Central Houston', 'types': ['neighborhood', 'political']}, {'long_name': 'Houston', 'short_name': 'Houston', 'types': ['locality', 'political']}, {'long_name': 'Harris County', 'short_name': 'Harris County', 'types': ['administrative_area_level_2', 'political']}, {'long_name': 'Texas', 'short_name': 'TX', 'types': ['administrative_area_level_1', 'political']}, {'long_name': 'United States', 'short_name': 'US', 'types': ['country', 'political']}, {'long_name': '77004', 'short_name': '77004', 'types': ['postal_code']}, {'long_name': '4810', 'short_name': '4810', 'types': ['postal_code_suffix']}], 'formatted_address': '4150 Almeda Rd, Houston, TX 77004, USA', 'geometry': {'location': {'lat': 29.7319824, 'lng': -95.37600909999999}, 'location_type': 'RANGE_INTERPOLATED', 'viewport': {'northeast': {'lat': 29.7333313802915, 'lng': -95.37466011970848}, 'southwest': {'lat': 29.7306334197085, 'lng': -95.3773580802915}}}, 'place_id': 'EiY0MTUwIEFsbWVkYSBSZCwgSG91c3RvbiwgVFggNzcwMDQsIFVTQSIbEhkKFAoSCU09C2N0v0CGEU2Ns7ox59aNELYg', 'types': ['street_address']}]"
2013-09-19 13:00:00,10H70,6200-6299,HERMANN PARK,Theft,"parks & recreation, zoo, swim pool",1,13,19,Thursday,Sep,2013,6250,6250 HERMANN PARK,"[{'address_components': [{'long_name': '6250', 'short_name': '6250', 'types': ['street_number']}, {'long_name': 'Hermann Park Drive', 'short_name': 'Hermann Park Dr', 'types': ['route']}, {'long_name': 'Southeast Houston', 'short_name': 'Southeast Houston', 'types': ['neighborhood', 'political']}, {'long_name': 'Houston', 'short_name': 'Houston', 'types': ['locality', 'political']}, {'long_name': 'Harris County', 'short_name': 'Harris County', 'types': ['administrative_area_level_2', 'political']}, {'long_name': 'Texas', 'short_name': 'TX', 'types': ['administrative_area_level_1', 'political']}, {'long_name': 'United States', 'short_name': 'US', 'types': ['country', 'political']}, {'long_name': '77030', 'short_name': '77030', 'types': ['postal_code']}], 'formatted_address': '6250 Hermann Park Dr, Houston, TX 77030, USA', 'geometry': {'location': {'lat': 29.7201023, 'lng': -95.3876909}, 'location_type': 'RANGE_INTERPOLATED', 'viewport': {'northeast': {'lat': 29.7214512802915, 'lng': -95.3863419197085}, 'southwest': {'lat': 29.7187533197085, 'lng': -95.3890398802915}}}, 'place_id': 'Eiw2MjUwIEhlcm1hbm4gUGFyayBEciwgSG91c3RvbiwgVFggNzcwMzAsIFVTQSIbEhkKFAoSCW-AAQqEv0CGEdYEbD5w01e3EOow', 'types': ['street_address']}]"
2013-09-19 17:00:00,10H70,0-99,HERMANN MUSEUM,Theft,apartment parking lot,1,17,19,Thursday,Sep,2013,50,50 HERMANN MUSEUM,"[{'address_components': [{'long_name': '50', 'short_name': '50', 'types': ['street_number']}, {'long_name': 'Hermann Museum Circle Drive', 'short_name': 'Hermann Museum Cir Dr', 'types': ['route']}, {'long_name': 'Southwest Houston', 'short_name': 'Southwest Houston', 'types': ['neighborhood', 'political']}, {'long_name': 'Houston', 'short_name': 'Houston', 'types': ['locality', 'political']}, {'long_name': 'Harris County', 'short_name': 'Harris County', 'types': ['administrative_area_level_2', 'political']}, {'long_name': 'Texas', 'short_name': 'TX', 'types': ['administrative_area_level_1', 'political']}, {'long_name': 'United States', 'short_name': 'US', 'types': ['country', 'political']}, {'long_name': '77004', 'short_name': '77004', 'types': ['postal_code']}], 'formatted_address': '50 Hermann Museum Cir Dr, Houston, TX 77004, USA', 'geometry': {'location': {'lat': 29.7182632, 'lng': -95.3810754}, 'location_type': 'RANGE_INTERPOLATED', 'viewport': {'northeast': {'lat': 29.7196121802915, 'lng': -95.37972641970849}, 'southwest': {'lat': 29.7169142197085, 'lng': -95.38242438029151}}}, 'place_id': 'EjA1MCBIZXJtYW5uIE11c2V1bSBDaXIgRHIsIEhvdXN0b24sIFRYIDc3MDA0LCBVU0EiGhIYChQKEgkHdI8Im79AhhG13oSrY04--BAy', 'types': ['street_address']}]"
2013-09-19 18:00:00,10H70,0-99,HERMANN MUSEUM,Theft,apartment parking lot,1,18,19,Thursday,Sep,2013,50,50 HERMANN MUSEUM,"[{'address_components': [{'long_name': '50', 'short_name': '50', 'types': ['street_number']}, {'long_name': 'Hermann Museum Circle Drive', 'short_name': 'Hermann Museum Cir Dr', 'types': ['route']}, {'long_name': 'Southwest Houston', 'short_name': 'Southwest Houston', 'types': ['neighborhood', 'political']}, {'long_name': 'Houston', 'short_name': 'Houston', 'types': ['locality', 'political']}, {'long_name': 'Harris County', 'short_name': 'Harris County', 'types': ['administrative_area_level_2', 'political']}, {'long_name': 'Texas', 'short_name': 'TX', 'types': ['administrative_area_level_1', 'political']}, {'long_name': 'United States', 'short_name': 'US', 'types': ['country', 'political']}, {'long_name': '77004', 'short_name': '77004', 'types': ['postal_code']}], 'formatted_address': '50 Hermann Museum Cir Dr, Houston, TX 77004, USA', 'geometry': {'location': {'lat': 29.7182632, 'lng': -95.3810754}, 'location_type': 'RANGE_INTERPOLATED', 'viewport': {'northeast': {'lat': 29.7196121802915, 'lng': -95.37972641970849}, 'southwest': {'lat': 29.7169142197085, 'lng': -95.38242438029151}}}, 'place_id': 'EjA1MCBIZXJtYW5uIE11c2V1bSBDaXIgRHIsIEhvdXN0b24sIFRYIDc3MDA0LCBVU0EiGhIYChQKEgkHdI8Im79AhhG13oSrY04--BAy', 'types': ['street_address']}]"
2013-09-19 19:00:00,10H70,0-99,HERMANN MUSEUM,Theft,apartment parking lot,1,19,19,Thursday,Sep,2013,50,50 HERMANN MUSEUM,"[{'address_components': [{'long_name': '50', 'short_name': '50', 'types': ['street_number']}, {'long_name': 'Hermann Museum Circle Drive', 'short_name': 'Hermann Museum Cir Dr', 'types': ['route']}, {'long_name': 'Southwest Houston', 'short_name': 'Southwest Houston', 'types': ['neighborhood', 'political']}, {'long_name': 'Houston', 'short_name': 'Houston', 'types': ['locality', 'political']}, {'long_name': 'Harris County', 'short_name': 'Harris County', 'types': ['administrative_area_level_2', 'political']}, {'long_name': 'Texas', 'short_name': 'TX', 'types': ['administrative_area_level_1', 'political']}, {'long_name': 'United States', 'short_name': 'US', 'types': ['country', 'political']}, {'long_name': '77004', 'short_name': '77004', 'types': ['postal_code']}], 'formatted_address': '50 Hermann Museum Cir Dr, Houston, TX 77004, USA', 'geometry': {'location': {'lat': 29.7182632, 'lng': -95.3810754}, 'location_type': 'RANGE_INTERPOLATED', 'viewport': {'northeast': {'lat': 29.7196121802915, 'lng': -95.37972641970849}, 'southwest': {'lat': 29.7169142197085, 'lng': -95.38242438029151}}}, 'place_id': 'EjA1MCBIZXJtYW5uIE11c2V1bSBDaXIgRHIsIEhvdXN0b24sIFRYIDc3MDA0LCBVU0EiGhIYChQKEgkHdI8Im79AhhG13oSrY04--BAy', 'types': ['street_address']}]"
2013-09-19 22:00:00,10H70,0-99,HERMANN MUSEUM,Theft,apartment parking lot,1,22,19,Thursday,Sep,2013,50,50 HERMANN MUSEUM,"[{'address_components': [{'long_name': '50', 'short_name': '50', 'types': ['street_number']}, {'long_name': 'Hermann Museum Circle Drive', 'short_name': 'Hermann Museum Cir Dr', 'types': ['route']}, {'long_name': 'Southwest Houston', 'short_name': 'Southwest Houston', 'types': ['neighborhood', 'political']}, {'long_name': 'Houston', 'short_name': 'Houston', 'types': ['locality', 'political']}, {'long_name': 'Harris County', 'short_name': 'Harris County', 'types': ['administrative_area_level_2', 'political']}, {'long_name': 'Texas', 'short_name': 'TX', 'types': ['administrative_area_level_1', 'political']}, {'long_name': 'United States', 'short_name': 'US', 'types': ['country', 'political']}, {'long_name': '77004', 'short_name': '77004', 'types': ['postal_code']}], 'formatted_address': '50 Hermann Museum Cir Dr, Houston, TX 77004, USA', 'geometry': {'location': {'lat': 29.7182632, 'lng': -95.3810754}, 'location_type': 'RANGE_INTERPOLATED', 'viewport': {'northeast': {'lat': 29.7196121802915, 'lng': -95.37972641970849}, 'southwest': {'lat': 29.7169142197085, 'lng': -95.38242438029151}}}, 'place_id': 'EjA1MCBIZXJtYW5uIE11c2V1bSBDaXIgRHIsIEhvdXN0b24sIFRYIDc3MDA0LCBVU0EiGhIYChQKEgkHdI8Im79AhhG13oSrY04--BAy', 'types': ['street_address']}]"
2013-09-19 22:00:00,10H70,0-99,HERMANN CIRCLE,Theft,apartment parking lot,1,22,19,Thursday,Sep,2013,50,50 HERMANN CIRCLE,"[{'address_components': [{'long_name': 'Hermann Drive', 'short_name': 'Hermann Dr', 'types': ['route']}, {'long_name': 'Southeast Houston', 'short_name': 'Southeast Houston', 'types': ['neighborhood', 'political']}, {'long_name': 'Houston', 'short_name': 'Houston', 'types': ['locality', 'political']}, {'long_name': 'Harris County', 'short_name': 'Harris County', 'types': ['administrative_area_level_2', 'political']}, {'long_name': 'Texas', 'short_name': 'TX', 'types': ['administrative_area_level_1', 'political']}, {'long_name': 'United States', 'short_name': 'US', 'types': ['country', 'political']}], 'formatted_address': 'Hermann Dr, Houston, TX, USA', 'geometry': {'bounds': {'northeast': {'lat': 29.7239538, 'lng': -95.3791937}, 'southwest': {'lat': 29.7162496, 'lng': -95.390706}}, 'location': {'lat': 29.7202644, 'lng': -95.38467469999999}, 'location_type': 'GEOMETRIC_CENTER', 'viewport': {'northeast': {'lat': 29.7239538, 'lng': -95.3791937}, 'southwest': {'lat': 29.7162496, 'lng': -95.390706}}}, 'place_id': 'ChIJr4grYIO_QIYRBLij0pEOgvg', 'types': ['route']}]"
2013-09-20 01:00:00,10H70,2800-2899,LOCKETT,Theft,driveway,1,1,20,Friday,Sep,2013,2850,2850 LOCKETT,"[{'address_components': [{'long_name': '2850', 'short_name': '2850', 'types': ['street_number']}, {'long_name': 'Lockett Street', 'short_name': 'Lockett St', 'types': ['route']}, {'long_name': 'Southeast Houston', 'short_name': 'Southeast Houston', 'types': ['neighborhood', 'political']}, {'long_name': 'Houston', 'short_name': 'Houston', 'types': ['locality', 'political']}, {'long_name': 'Harris County', 'short_name': 'Harris County', 'types': ['administrative_area_level_2', 'political']}, {'long_name': 'Texas', 'short_name': 'TX', 'types': ['administrative_area_level_1', 'political']}, {'long_name': 'United States', 'short_name': 'US', 'types': ['country', 'political']}, {'long_name': '77021', 'short_name': '77021', 'types': ['postal_code']}], 'formatted_address': '2850 Lockett St, Houston, TX 77021, USA', 'geometry': {'location': {'lat': 29.7017468, 'lng': -95.38338979999999}, 'location_type': 'RANGE_INTERPOLATED', 'viewport': {'northeast': {'lat': 29.7030957802915, 'lng': -95.3820408197085}, 'southwest': {'lat': 29.7003978197085, 'lng': -95.3847387802915}}}, 'place_id': 'EicyODUwIExvY2tldHQgU3QsIEhvdXN0b24sIFRYIDc3MDIxLCBVU0EiGxIZChQKEgl91Zmw8r9AhhE8P80astWfURCiFg', 'types': ['street_address']}]"
2013-09-20 06:00:00,10H70,7100-7199,ALMEDA,Burglary,apartment,1,6,20,Friday,Sep,2013,7150,7150 ALMEDA,"[{'address_components': [{'long_name': '7150', 'short_name': '7150', 'types': ['street_number']}, {'long_name': 'Almeda Road', 'short_name': 'Almeda Rd', 'types': ['route']}, {'long_name': 'Southwest Houston', 'short_name': 'Southwest Houston', 'types': ['neighborhood', 'political']}, {'long_name': 'Houston', 'short_name': 'Houston', 'types': ['locality', 'political']}, {'long_name': 'Harris County', 'short_name': 'Harris County', 'types': ['administrative_area_level_2', 'political']}, {'long_name': 'Texas', 'short_name': 'TX', 'types': ['administrative_area_level_1', 'political']}, {'long_name': 'United States', 'short_name': 'US', 'types': ['country', 'political']}, {'long_name': '77054', 'short_name': '77054', 'types': ['postal_code']}], 'formatted_address': '7150 Almeda Rd, Houston, TX 77054, USA', 'geometry': {'location': {'lat': 29.6957722, 'lng': -95.38811410000001}, 'location_type': 'RANGE_INTERPOLATED', 'viewport': {'northeast': {'lat': 29.6971211802915, 'lng': -95.38676511970851}, 'southwest': {'lat': 29.6944232197085, 'lng': -95.38946308029152}}}, 'place_id': 'EiY3MTUwIEFsbWVkYSBSZCwgSG91c3RvbiwgVFggNzcwNTQsIFVTQSIbEhkKFAoSCXv_wkfxv0CGEX5rv245qJS_EO43', 'types': ['street_address']}]"
2013-09-20 11:00:00,10H70,7300-7399,ARDMORE,Theft,apartment parking lot,1,11,20,Friday,Sep,2013,7350,7350 ARDMORE,"[{'address_components': [{'long_name': '7350', 'short_name': '7350', 'types': ['street_number']}, {'long_name': 'Ardmore Street', 'short_name': 'Ardmore St', 'types': ['route']}, {'long_name': 'Southwest Houston', 'short_name': 'Southwest Houston', 'types': ['neighborhood', 'political']}, {'long_name': 'Houston', 'short_name': 'Houston', 'types': ['locality', 'political']}, {'long_name': 'Harris County', 'short_name': 'Harris County', 'types': ['administrative_area_level_2', 'political']}, {'long_name': 'Texas', 'short_name': 'TX', 'types': ['administrative_area_level_1', 'political']}, {'long_name': 'United States', 'short_name': 'US', 'types': ['country', 'political']}, {'long_name': '77054', 'short_name': '77054', 'types': ['postal_code']}, {'long_name': '4200', 'short_name': '4200', 'types': ['postal_code_suffix']}], 'formatted_address': '7350 Ardmore St, Houston, TX 77054, USA', 'geometry': {'location': {'lat': 29.690091, 'lng': -95.38185720000001}, 'location_type': 'RANGE_INTERPOLATED', 'viewport': {'northeast': {'lat': 29.6914399802915, 'lng': -95.38050821970852}, 'southwest': {'lat': 29.6887420197085, 'lng': -95.38320618029152}}}, 'place_id': 'Eic3MzUwIEFyZG1vcmUgU3QsIEhvdXN0b24sIFRYIDc3MDU0LCBVU0EiGxIZChQKEgln9lII5b9AhhEHLSlfLreJoxC2OQ', 'types': ['street_address']}]"
2013-09-20 11:00:00,10H70,0-99,HERMANN MUSEUM,Auto Theft,apartment parking lot,1,11,20,Friday,Sep,2013,50,50 HERMANN MUSEUM,"[{'address_components': [{'long_name': '50', 'short_name': '50', 'types': ['street_number']}, {'long_name': 'Hermann Museum Circle Drive', 'short_name': 'Hermann Museum Cir Dr', 'types': ['route']}, {'long_name': 'Southwest Houston', 'short_name': 'Southwest Houston', 'types': ['neighborhood', 'political']}, {'long_name': 'Houston', 'short_name': 'Houston', 'types': ['locality', 'political']}, {'long_name': 'Harris County', 'short_name': 'Harris County', 'types': ['administrative_area_level_2', 'political']}, {'long_name': 'Texas', 'short_name': 'TX', 'types': ['administrative_area_level_1', 'political']}, {'long_name': 'United States', 'short_name': 'US', 'types': ['country', 'political']}, {'long_name': '77004', 'short_name': '77004', 'types': ['postal_code']}], 'formatted_address': '50 Hermann Museum Cir Dr, Houston, TX 77004, USA', 'geometry': {'location': {'lat': 29.7182632, 'lng': -95.3810754}, 'location_type': 'RANGE_INTERPOLATED', 'viewport': {'northeast': {'lat': 29.7196121802915, 'lng': -95.37972641970849}, 'southwest': {'lat': 29.7169142197085, 'lng': -95.38242438029151}}}, 'place_id': 'EjA1MCBIZXJtYW5uIE11c2V1bSBDaXIgRHIsIEhvdXN0b24sIFRYIDc3MDA0LCBVU0EiGhIYChQKEgkHdI8Im79AhhG13oSrY04--BAy', 'types': ['street_address']}]"
2013-09-20 15:00:00,10H70,6400-6499,FANNIN,Robbery,apartment parking lot,1,15,20,Friday,Sep,2013,6450,6450 FANNIN,"[{'address_components': [{'long_name': '6450', 'short_name': '6450', 'types': ['street_number']}, {'long_name': 'Fannin Street', 'short_name': 'Fannin St', 'types': ['route']}, {'long_name': 'Southeast Houston', 'short_name': 'Southeast Houston', 'types': ['neighborhood', 'political']}, {'long_name': 'Houston', 'short_name': 'Houston', 'types': ['locality', 'political']}, {'long_name': 'Harris County', 'short_name': 'Harris County', 'types': ['administrative_area_level_2', 'political']}, {'long_name': 'Texas', 'short_name': 'TX', 'types': ['administrative_area_level_1', 'political']}, {'long_name': 'United States', 'short_name': 'US', 'types': ['country', 'political']}, {'long_name': '77030', 'short_name': '77030', 'types': ['postal_code']}], 'formatted_address': '6450 Fannin St, Houston, TX 77030, USA', 'geometry': {'location': {'lat': 29.7121633, 'lng': -95.399011}, 'location_type': 'RANGE_INTERPOLATED', 'viewport': {'northeast': {'lat': 29.7135122802915, 'lng': -95.39766201970849}, 'southwest': {'lat': 29.7108143197085, 'lng': -95.40035998029151}}}, 'place_id': 'EiY2NDUwIEZhbm5pbiBTdCwgSG91c3RvbiwgVFggNzcwMzAsIFVTQSIbEhkKFAoSCd8CW9JwwECGEVV5pvdDd2bdELIy', 'types': ['street_address']}]"
2013-09-20 16:00:00,10H70,5900-5999,ALMEDA,Theft,condominium,1,16,20,Friday,Sep,2013,5950,5950 ALMEDA,"[{'address_components': [{'long_name': '5950', 'short_name': '5950', 'types': ['street_number']}, {'long_name': 'Almeda Road', 'short_name': 'Almeda Rd', 'types': ['route']}, {'long_name': 'South Side', 'short_name': 'South Side', 'types': ['neighborhood', 'political']}, {'long_name': 'Houston', 'short_name': 'Houston', 'types': ['locality', 'political']}, {'long_name': 'Harris County', 'short_name': 'Harris County', 'types': ['administrative_area_level_2', 'political']}, {'long_name': 'Texas', 'short_name': 'TX', 'types': ['administrative_area_level_1', 'political']}, {'long_name': 'United States', 'short_name': 'US', 'types': ['country', 'political']}, {'long_name': '77004', 'short_name': '77004', 'types': ['postal_code']}], 'formatted_address': '5950 Almeda Rd, Houston, TX 77004, USA', 'geometry': {'location': {'lat': 29.714714, 'lng': -95.38184269999999}, 'location_type': 'RANGE_INTERPOLATED', 'viewport': {'northeast': {'lat': 29.7160629802915, 'lng': -95.3804937197085}, 'southwest': {'lat': 29.7133650197085, 'lng': -95.3831916802915}}}, 'place_id': 'EiY1OTUwIEFsbWVkYSBSZCwgSG91c3RvbiwgVFggNzcwMDQsIFVTQSIbEhkKFAoSCdv7vYSav0CGEWqh-ux8AlTiEL4u', 'types': ['street_address']}]"
2013-09-20 16:00:00,10H70,1300-1399,BLODGETT,Theft,road/street/sidewalk,1,16,20,Friday,Sep,2013,1350,1350 BLODGETT,"[{'address_components': [{'long_name': '1350', 'short_name': '1350', 'types': ['street_number']}, {'long_name': 'Blodgett Street', 'short_name': 'Blodgett St', 'types': ['route']}, {'long_name': 'South Central Houston', 'short_name': 'South Central Houston', 'types': ['neighborhood', 'political']}, {'long_name': 'Houston', 'short_name': 'Houston', 'types': ['locality', 'political']}, {'long_name': 'Harris County', 'short_name': 'Harris County', 'types': ['administrative_area_level_2', 'political']}, {'long_name': 'Texas', 'short_name': 'TX', 'types': ['administrative_area_level_1', 'political']}, {'long_name': 'United States', 'short_name': 'US', 'types': ['country', 'political']}, {'long_name': '77004', 'short_name': '77004', 'types': ['postal_code']}, {'long_name': '5011', 'short_name': '5011', 'types': ['postal_code_suffix']}], 'formatted_address': '1350 Blodgett St, Houston, TX 77004, USA', 'geometry': {'location': {'lat': 29.7300765, 'lng': -95.3812232}, 'location_type': 'RANGE_INTERPOLATED', 'viewport': {'northeast': {'lat': 29.7314254802915, 'lng': -95.37987421970848}, 'southwest': {'lat': 29.7287275197085, 'lng': -95.3825721802915}}}, 'place_id': 'EigxMzUwIEJsb2RnZXR0IFN0LCBIb3VzdG9uLCBUWCA3NzAwNCwgVVNBIhsSGQoUChIJ1wGnIne_QIYRElhY3lbGuK4Qxgo', 'types': ['street_address']}]"
2013-09-20 17:00:00,10H70,2200-2299,SOUTHMORE,Theft,grocery/supermarket,1,17,20,Friday,Sep,2013,2250,2250 SOUTHMORE,"[{'address_components': [{'long_name': '2250', 'short_name': '2250', 'types': ['street_number']}, {'long_name': 'Southmore Boulevard', 'short_name': 'Southmore Blvd', 'types': ['route']}, {'long_name': 'South Central Houston', 'short_name': 'South Central Houston', 'types': ['neighborhood', 'political']}, {'long_name': 'Houston', 'short_name': 'Houston', 'types': ['locality', 'political']}, {'long_name': 'Harris County', 'short_name': 'Harris County', 'types': ['administrative_area_level_2', 'political']}, {'long_name': 'Texas', 'short_name': 'TX', 'types': ['administrative_area_level_1', 'political']}, {'long_name': 'United States', 'short_name': 'US', 'types': ['country', 'political']}, {'long_name': '77004', 'short_name': '77004', 'types': ['postal_code']}], 'formatted_address': '2250 Southmore Blvd, Houston, TX 77004, USA', 'geometry': {'location': {'lat': 29.7226975, 'lng': -95.37833769999999}, 'location_type': 'RANGE_INTERPOLATED', 'viewport': {'northeast': {'lat': 29.7240464802915, 'lng': -95.37698871970849}, 'southwest': {'lat': 29.7213485197085, 'lng': -95.3796866802915}}}, 'place_id': 'EisyMjUwIFNvdXRobW9yZSBCbHZkLCBIb3VzdG9uLCBUWCA3NzAwNCwgVVNBIhsSGQoUChIJ68kFg56_QIYRERswdCSZP1EQyhE', 'types': ['street_address']}]"
2013-09-21 00:00:00,10H70,7100-7199,ALMEDA,Theft,apartment parking lot,1,0,21,Saturday,Sep,2013,7150,7150 ALMEDA,"[{'address_components': [{'long_name': '7150', 'short_name': '7150', 'types': ['street_number']}, {'long_name': 'Almeda Road', 'short_name': 'Almeda Rd', 'types': ['route']}, {'long_name': 'Southwest Houston', 'short_name': 'Southwest Houston', 'types': ['neighborhood', 'political']}, {'long_name': 'Houston', 'short_name': 'Houston', 'types': ['locality', 'political']}, {'long_name': 'Harris County', 'short_name': 'Harris County', 'types': ['administrative_area_level_2', 'political']}, {'long_name': 'Texas', 'short_name': 'TX', 'types': ['administrative_area_level_1', 'political']}, {'long_name': 'United States', 'short_name': 'US', 'types': ['country', 'political']}, {'long_name': '77054', 'short_name': '77054', 'types': ['postal_code']}], 'formatted_address': '7150 Almeda Rd, Houston, TX 77054, USA', 'geometry': {'location': {'lat': 29.6957722, 'lng': -95.38811410000001}, 'location_type': 'RANGE_INTERPOLATED', 'viewport': {'northeast': {'lat': 29.6971211802915, 'lng': -95.38676511970851}, 'southwest': {'lat': 29.6944232197085, 'lng': -95.38946308029152}}}, 'place_id': 'EiY3MTUwIEFsbWVkYSBSZCwgSG91c3RvbiwgVFggNzcwNTQsIFVTQSIbEhkKFAoSCXv_wkfxv0CGEX5rv245qJS_EO43', 'types': ['street_address']}]"
2013-09-21 01:00:00,10H70,7100-7199,ALMEDA,Theft,apartment parking lot,1,1,21,Saturday,Sep,2013,7150,7150 ALMEDA,"[{'address_components': [{'long_name': '7150', 'short_name': '7150', 'types': ['street_number']}, {'long_name': 'Almeda Road', 'short_name': 'Almeda Rd', 'types': ['route']}, {'long_name': 'Southwest Houston', 'short_name': 'Southwest Houston', 'types': ['neighborhood', 'political']}, {'long_name': 'Houston', 'short_name': 'Houston', 'types': ['locality', 'political']}, {'long_name': 'Harris County', 'short_name': 'Harris County', 'types': ['administrative_area_level_2', 'political']}, {'long_name': 'Texas', 'short_name': 'TX', 'types': ['administrative_area_level_1', 'political']}, {'long_name': 'United States', 'short_name': 'US', 'types': ['country', 'political']}, {'long_name': '77054', 'short_name': '77054', 'types': ['postal_code']}], 'formatted_address': '7150 Almeda Rd, Houston, TX 77054, USA', 'geometry': {'location': {'lat': 29.6957722, 'lng': -95.38811410000001}, 'location_type': 'RANGE_INTERPOLATED', 'viewport': {'northeast': {'lat': 29.6971211802915, 'lng': -95.38676511970851}, 'southwest': {'lat': 29.6944232197085, 'lng': -95.38946308029152}}},